

RING

RING

CONNECT 4800
--------------------------------------------
CEOS_IMBB06
----------------IMB_data--------------------
"2011-02-27 07:00:00","$GPGGA,130057.99,4949.64607,N,09713.16939,W,1,10,1.04,226.6,M,-24.5,M,,*6F",2011,2,27,58,7.0000,0,0,-16.13,13.04,-17.43,96.83166,"R1.14",1.14,1.414,189,1.368,-13.47,-9.7200,-7.8620,-6.576,-5.428,-4.031,-2.69,-1.328,-0.162,0.252,0.622,1.412,0.9320,-12.58,-12.74,-12.58,-12.4,-12.22,-11.85,-11.64,-11.04,-10.49,-9.83,-9.4400,-9.91,-9.7,-10.07,-9.9300,-10.19,-10.25,-10.41,-10.39,-10.48,-10.68,-10.85,-11.18,-11.41,-11.42
"2011-02-27 06:30:00","$GPGGA,123057.99,4949.64702,N,09713.17013,W,1,9,0.99,229.0,M,-24.5,M,,*5D",2011,2,27,58,6,30,0,-15.88,13.04,-17.24,96.81521,"R1.15",1.15,1.413,189,1.368,-13.72,-9.8900,-7.9590,-6.632,-5.456,-4.037,-2.701,-1.328,-0.162,0.257,0.638,1.406,0.9,-12.49,-12.67,-12.56,-12.44,-12.33,-12.02,-11.81,-11.21,-10.64,-9.95,-9.6400,-10.23,-9.8900,-10.27,-10.14,-10.36,-10.38,-10.54,-10.54,-10.64,-10.82,-10.99,-11.25,-11.45,-11.47
"2011-02-27 06:00:00","$GPGGA,120057.99,4949.64634,N,09713.16907,W,1,10,0.81,232.1,M,-24.5,M,,*6D",2011,2,27,58,6,0,0,-15.82,13.04,-17.04,96.83166,"R1.15",1.15,1.412,189,1.367,-14.1,-10.11,-8.0600,-6.677,-5.478,-4.053,-2.706,-1.328,-0.162,0.274,0.622,1.395,0.9320,-12.51,-12.68,-12.61,-12.51,-12.44,-12.17,-11.97,-11.36,-10.78,-10.05,-9.7700,-10.4,-10.01,-10.39,-10.26,-10.46,-10.46,-10.64,-10.64,-10.74,-10.92,-11.09,-11.31,-11.5,-11.53
"2011-02-27 05:30:00","$GPGGA,113057.99,4949.64642,N,09713.16987,W,1,8,0.95,232.9,M,-24.5,M,,*50",2011,2,27,58,5,30,0,-15.9,13.04,-17.19,96.86458,"R1.15",1.15,1.413,189,1.368,-14.67,-10.35,-8.15,-6.722,-5.501,-4.064,-2.712,-1.328,-0.162,0.274,0.611,1.412,0.9,-12.58,-12.75,-12.66,-12.56,-12.51,-12.27,-12.06,-11.45,-10.86,-10.12,-9.84,-10.45,-10.07,-10.45,-10.3,-10.53,-10.51,-10.67,-10.68,-10.78,-10.96,-11.12,-11.35,-11.55,-11.59
"2011-02-27 05:00:00","$GPGGA,110057.99,4949.64611,N,09713.16995,W,1,8,0.99,231.8,M,-24.5,M,,*58",2011,2,27,58,5,0,0,-16,13.03,-17.43,96.86458,"R1.15",1.15,1.414,189,1.368,-15.39,-10.61,-8.24,-6.7560,-5.523,-4.081,-2.723,-1.328,-0.162,0.257,0.595,1.395,0.8890,-12.66,-12.78,-12.66,-12.58,-12.53,-12.29,-12.1,-11.49,-10.9,-10.18,-9.86,-10.45,-10.1,-10.45,-10.3,-10.51,-10.52,-10.68,-10.66,-10.76,-10.94,-11.09,-11.36,-11.59,-11.64
"2011-02-27 04:30:00","$GPGGA,103057.99,4949.64600,N,09713.17135,W,1,8,0.92,230.7,M,-24.5,M,,*5C",2011,2,27,58,4,30,0,-15.98,13.02,-17.58,96.86362,"R1.15",1.15,1.414,189,1.368,-16.05,-10.87,-8.32,-6.7960,-5.54,-4.092,-2.723,-1.339,-0.173,0.246,0.617,1.406,0.9110,-12.7,-12.84,-12.75,-12.68,-12.68,-12.44,-12.24,-11.61,-11,-10.28,-10.05,-10.68,-10.27,-10.61,-10.45,-10.66,-10.64,-10.79,-10.79,-10.9,-11.04,-11.21,-11.44,-11.66,-11.73
"2011-02-27 04:00:00","$GPGGA,100057.00,4949.64622,N,09713.17104,W,1,10,0.82,226.7,M,-24.5,M,,*62",2011,2,27,58,4,0,0,-16.03,13.02,-17.63,96.89748,"R1.15",1.15,1.414,189,1.368,-16.44,-11.05,-8.3900,-6.8300,-5.562,-4.103,-2.728,-1.339,-0.167,0.246,0.617,1.401,0.9110,-12.76,-12.94,-12.92,-12.83,-12.85,-12.65,-12.41,-11.78,-11.13,-10.41,-10.22,-10.92,-10.45,-10.78,-10.65,-10.86,-10.78,-10.94,-10.95,-11.06,-11.18,-11.34,-11.52,-11.73,-11.79
"2011-02-27 03:30:00","$GPGGA,093057.00,4949.64619,N,09713.17139,W,1,10,0.93,228.9,M,-24.5,M,,*6F",2011,2,27,58,3,30,0,-16.08,13.01,-17.68,96.94623,"R1.15",1.15,1.414,188,1.367,-16.6,-11.18,-8.45,-6.863,-5.579,-4.114,-2.728,-1.339,-0.178,0.246,0.606,1.395,0.9220,-12.82,-13,-12.98,-12.9,-12.92,-12.72,-12.5,-11.84,-11.19,-10.48,-10.32,-10.99,-10.54,-10.84,-10.68,-10.88,-10.81,-10.97,-10.97,-11.06,-11.18,-11.33,-11.54,-11.78,-11.87
"2011-02-27 03:00:00","$GPGGA,090057.00,4949.64694,N,09713.17121,W,1,9,0.84,230.8,M,-24.5,M,,*56",2011,2,27,58,3,0,0,-16.05,13,-17.63,96.9304,"R1.15",1.15,1.414,185,1.368,-16.77,-11.3,-8.51,-6.903,-5.601,-4.12,-2.739,-1.339,-0.178,0.252,0.595,1.401,0.9160,-12.86,-13.04,-13.05,-12.97,-13.05,-12.85,-12.63,-11.96,-11.31,-10.6,-10.49,-11.21,-10.73,-10.97,-10.81,-10.97,-10.92,-11.06,-11.04,-11.13,-11.21,-11.35,-11.59,-11.88,-11.96
"2011-02-27 02:30:00","$GPGGA,083057.00,4949.64722,N,09713.17155,W,1,9,0.90,232.2,M,-24.5,M,,*56",2011,2,27,58,2,30,0,-16,12.99,-17.48,96.97976,"R1.15",1.15,1.415,177,1.369,-16.75,-11.43,-8.57,-6.926,-5.612,-4.131,-2.745,-1.339,-0.178,0.246,0.606,1.401,0.9110,-12.9,-13.1,-13.15,-13.05,-13.15,-12.97,-12.75,-12.07,-11.41,-10.68,-10.6,-11.38,-10.86,-11.11,-10.97,-11.17,-11.05,-11.21,-11.19,-11.3,-11.36,-11.5,-11.68,-11.94,-12.03
"2011-02-27 02:00:00","$GPGGA,080057.99,4949.64659,N,09713.16962,W,1,9,0.94,230.1,M,-24.5,M,,*50",2011,2,27,58,2,0,0,-16.05,12.96,-17.53,97.01267,"R1.15",1.15,1.414,186,1.368,-16.91,-11.54,-8.62,-6.9540,-5.635,-4.142,-2.75,-1.339,-0.178,0.236,0.617,1.412,0.9320,-13,-13.17,-13.25,-13.15,-13.25,-13.07,-12.83,-12.15,-11.47,-10.73,-10.64,-11.44,-10.9,-11.17,-11.03,-11.23,-11.11,-11.25,-11.25,-11.37,-11.41,-11.56,-11.76,-12,-12.1
"2011-02-27 01:30:00","$GPGGA,073057.99,4949.64720,N,09713.16947,W,1,10,0.94,228.5,M,-24.5,M,,*61",2011,2,27,58,1,30,0,-16.18,12.92,-17.68,97.02871,"R1.15",1.15,1.415,177,1.368,-17.02,-11.63,-8.67,-6.9930,-5.651,-4.153,-2.75,-1.339,-0.178,0.252,0.622,1.406,0.9110,-13.08,-13.26,-13.29,-13.22,-13.29,-13.1,-12.85,-12.17,-11.49,-10.72,-10.58,-11.35,-10.84,-11.13,-10.99,-11.21,-11.1,-11.25,-11.25,-11.37,-11.44,-11.61,-11.79,-12.04,-12.12
"2011-02-27 01:00:00","$GPGGA,070057.99,4949.64645,N,09713.17002,W,1,9,0.96,226.2,M,-24.5,M,,*5A",2011,2,27,58,1,0,0,-16.52,13.05,-17.82,97.09494,"R1.14",1.14,1.415,182,1.368,-17.21,-11.73,-8.72,-7.015,-5.667,-4.163,-2.76,-1.339,-0.199,0.253,0.596,1.38,0.9110,-13.16,-13.36,-13.38,-13.3,-13.37,-13.15,-12.9,-12.22,-11.53,-10.74,-10.55,-11.3,-10.8,-11.12,-10.97,-11.18,-11.07,-11.24,-11.25,-11.36,-11.47,-11.61,-11.82,-12.07,-12.14
"2011-02-27 00:30:00","$GPGGA,063057.99,4949.64708,N,09713.17077,W,1,10,0.82,228.8,M,-24.5,M,,*6B",2011,2,27,58,0,30,0,-16.62,13.05,-18.01,97.12786,"R1.14",1.14,1.416,181,1.369,-17.45,-11.83,-8.7700,-7.043,-5.678,-4.168,-2.765,-1.338,-0.199,0.253,0.602,1.408,0.9120,-13.25,-13.45,-13.49,-13.41,-13.47,-13.24,-12.99,-12.27,-11.58,-10.78,-10.59,-11.37,-10.86,-11.16,-11.04,-11.25,-11.13,-11.29,-11.3,-11.42,-11.5,-11.66,-11.85,-12.08,-12.17
"2011-02-27 00:00:00","$GPGGA,060057.99,4949.64554,N,09713.17118,W,1,10,0.84,233.2,M,-24.5,M,,*6D",2011,2,27,58,0,0,0,-16.67,13.05,-18.11,97.19344,"R1.14",1.14,1.416,177,1.368,-17.62,-11.92,-8.8100,-7.0650,-5.695,-4.179,-2.765,-1.338,-0.193,0.254,0.618,1.413,0.929,-13.28,-13.5,-13.52,-13.44,-13.49,-13.24,-13,-12.28,-11.59,-10.81,-10.59,-11.31,-10.82,-11.12,-10.94,-11.13,-11.06,-11.2,-11.2,-11.3,-11.41,-11.56,-11.8,-12.07,-12.17
"2011-02-26 23:30:00","$GPGGA,053057.00,4949.64541,N,09713.17066,W,1,10,0.80,230.1,M,-24.5,M,,*65",2011,2,26,57,23,30,0,-16.7,13.05,-18.16,97.2595,"R1.14",1.14,1.416,188,1.368,-17.86,-11.98,-8.84,-7.1,-5.712,-4.19,-2.766,-1.338,-0.194,0.258,0.618,1.424,0.933,-13.29,-13.54,-13.62,-13.52,-13.58,-13.36,-13.09,-12.36,-11.66,-10.86,-10.68,-11.46,-10.94,-11.23,-11.09,-11.3,-11.17,-11.32,-11.31,-11.42,-11.48,-11.64,-11.83,-12.07,-12.17
"2011-02-26 23:00:00","$GPGGA,050057.00,4949.64608,N,09713.16948,W,1,11,0.75,228.3,M,-24.5,M,,*6C",2011,2,26,57,23,0,0,-16.6,13.05,-18.21,97.28945,"R1.15",1.15,1.416,189,1.368,-17.91,-12,-8.8900,-7.129,-5.729,-4.191,-2.772,-1.339,-0.178,0.257,0.617,1.39,0.9,-13.23,-13.47,-13.51,-13.43,-13.49,-13.27,-13.05,-12.34,-11.66,-10.88,-10.67,-11.4,-10.9,-11.18,-11.02,-11.19,-11.11,-11.25,-11.23,-11.33,-11.4,-11.53,-11.79,-12.08,-12.17
"2011-02-26 22:30:00","$GPGGA,043057.00,4949.64587,N,09713.16970,W,1,10,0.87,228.1,M,-24.5,M,,*6F",2011,2,26,57,22,30,0,-16.47,13.05,-18.07,97.34162,"R1.14",1.14,1.417,173,1.369,-17.7,-12.07,-8.95,-7.1520,-5.735,-4.197,-2.772,-1.339,-0.178,0.252,0.595,1.39,0.883,-13.24,-13.49,-13.59,-13.49,-13.58,-13.39,-13.15,-12.46,-11.76,-10.96,-10.77,-11.56,-11.04,-11.3,-11.16,-11.4,-11.24,-11.39,-11.37,-11.46,-11.49,-11.62,-11.83,-12.11,-12.19
"2011-02-26 22:00:00","$GPGGA,040057.00,4949.64490,N,09713.17202,W,1,10,0.97,226.1,M,-24.5,M,,*6B",2011,2,26,57,22,0,0,-16.44,13.05,-17.92,97.4076,"R1.14",1.14,1.416,176,1.369,-17.67,-12.17,-8.99,-7.174,-5.746,-4.202,-2.772,-1.339,-0.184,0.252,0.617,1.406,0.9,-13.31,-13.56,-13.64,-13.54,-13.64,-13.44,-13.21,-12.51,-11.83,-11.02,-10.8,-11.58,-11.04,-11.32,-11.16,-11.37,-11.24,-11.39,-11.35,-11.44,-11.46,-11.59,-11.83,-12.14,-12.21
"2011-02-26 21:30:00","$GPGGA,033057.00,4949.64540,N,09713.17270,W,1,9,1.00,227.9,M,-24.5,M,,*58",2011,2,26,57,21,30,0,-16.39,13.05,-17.82,97.47307,"R1.14",1.14,1.416,173,1.369,-17.72,-12.27,-9.0200,-7.186,-5.757,-4.208,-2.772,-1.339,-0.184,0.246,0.611,1.412,0.938,-13.53,-13.69,-13.72,-13.59,-13.72,-13.52,-13.28,-12.58,-11.91,-11.07,-10.8,-11.59,-11.06,-11.33,-11.17,-11.4,-11.25,-11.4,-11.36,-11.44,-11.45,-11.58,-11.83,-12.17,-12.22
"2011-02-26 21:00:00","$GPGGA,030057.00,4949.64645,N,09713.17090,W,1,10,0.98,231.8,M,-24.5,M,,*6F",2011,2,26,57,21,0,0,-16.39,13.04,-17.77,97.5145,"R1.14",1.14,1.415,185,1.368,-17.72,-12.39,-9.0600,-7.2030,-5.763,-4.213,-2.777,-1.339,-0.195,0.257,0.638,1.434,0.9490,-13.62,-13.75,-13.74,-13.64,-13.77,-13.57,-13.34,-12.66,-11.98,-11.12,-10.8,-11.61,-11.06,-11.35,-11.21,-11.4,-11.28,-11.42,-11.37,-11.46,-11.48,-11.59,-11.85,-12.19,-12.24
"2011-02-26 20:30:00","$GPGGA,023057.99,4949.64711,N,09713.17103,W,1,9,1.06,235.1,M,-24.5,M,,*55",2011,2,26,57,20,30,0,-16.41,13.04,-17.87,97.48986,"R1.15",1.15,1.415,185,1.368,-17.89,-12.53,-9.09,-7.22,-5.78,-4.225,-2.777,-1.334,-0.2,0.257,0.622,1.412,0.9490,-13.64,-13.77,-13.79,-13.69,-13.8,-13.62,-13.38,-12.68,-12.02,-11.12,-10.78,-11.56,-11.04,-11.34,-11.19,-11.42,-11.28,-11.42,-11.39,-11.48,-11.51,-11.64,-11.87,-12.18,-12.22
"2011-02-26 20:00:00","$GPGGA,020057.99,4949.64764,N,09713.16920,W,1,12,0.70,231.0,M,-24.5,M,,*63",2011,2,26,57,20,0,0,-16.44,13.01,-17.92,97.48988,"R1.15",1.15,1.415,189,1.368,-18.03,-12.66,-9.11,-7.225,-5.791,-4.236,-2.777,-1.328,-0.2,0.252,0.617,1.412,0.96,-13.7,-13.85,-13.87,-13.79,-13.89,-13.67,-13.42,-12.7,-12.05,-11.13,-10.71,-11.5,-10.97,-11.29,-11.16,-11.39,-11.24,-11.4,-11.36,-11.46,-11.5,-11.64,-11.84,-12.12,-12.16
"2011-02-26 19:30:00","$GPGGA,013057.99,4949.64864,N,09713.17009,W,1,9,1.07,231.9,M,-24.5,M,,*5D",2011,2,26,57,19,30,0,-16.44,12.99,-18.02,97.52277,"R1.15",1.15,1.415,189,1.368,-18.36,-12.77,-9.12,-7.2370,-5.802,-4.236,-2.783,-1.328,-0.2,0.246,0.595,1.39,0.9270,-13.75,-13.92,-13.9,-13.85,-13.94,-13.68,-13.42,-12.68,-12.05,-11.12,-10.66,-11.43,-10.9,-11.21,-11.09,-11.27,-11.16,-11.3,-11.28,-11.37,-11.42,-11.55,-11.76,-12.01,-12.03
"2011-02-26 19:00:00","$GPGGA,010057.99,4949.64845,N,09713.16936,W,1,9,1.20,233.5,M,-24.5,M,,*52",2011,2,26,57,19,0,0,-16.54,13.12,-18.07,97.62152,"R1.11",1.11,1.416,176,1.368,-18.63,-12.83,-9.11,-7.248,-5.824,-4.247,-2.783,-1.328,-0.2,0.252,0.638,1.412,0.9810,-13.71,"2011-02-26 18:30:00","$GPGGA,003057.99,4949.64785,N,09713.16899,W,1,10,0.81,234.1,M,-24.5,M,,*66",2011,2,26,57,18,30,0,-16.16,13.13,-18.07,97.6165,"R1.14",1.14,1.417,181,1.369,-19.2,-12.7,-9.09,-7.259,-5.83,-4.252,-2.777,-1.323,-0.2,0."2011-02-26 18:00:00","$GPGGA,000057.99,4949.64630,N,09713.17263,W,1,9,0.91,229.4,M,-24.5,M,,*54",2011,2,26,57,18,0,0,-15.22,13.13,-17.89,97.66334,"R1.13",1.13,1.416,189,1.369,-18.98,-12.51,-9.05,-7.28,-5.862,-4.262,-2.782,-1.328,-0.211,0.225,0.611,1.411,0.965,-13.06,-13.19,-13.21,-13.23,-13.2,-12.97,-12.77,-12.2,-11.75,-10.99,-10.42,-10.98,-10.55,-10.87,-10.7,-10.86,-10.8,-10.9,-10.82,-10.87,-10.97,-11.07,-11.27,-11.47,-11.45
"2011-02-26 17:30:00","$GPGGA,233057.99,4949.64503,N,09713.16924,W,1,10,0.85,232.66,-10.95,-10.77,-10.93,-10.83,-10.92,-10.82,-10.85,-10.91,-10.98,-11.18,-11.3"2011-02-26 17:00:00","$GPGGA,230057.99,4949.64670,N,09713.16834,W,1,10,0.80,232.8,M,-24.5,M,,*66",2011,2,26,57,17,0,0,-12.46,13.13,-16.97,97.76978,"R1.10",1.1,1.414,186,1.369,-17.68,-11.98,-9.0200,-7.347,-5.9,-4.273,-2.771,-1.312,-0.206,0.257,0.621,1.416,0.9480,-12.2,-12.3,-12.47,-12.57,-12.72,-12.57,-12.45,-12.04,-11.72,-11.08,-10.61,-11.22,-10.77,-11.04,-10.84,-11.01,-10.89,-10.96,-10.84,-10.86,-10.89,-10.95,-11.13,-11.29,-11.22
"2011-02-26 16:30:00","$GPGGA,223057.99,4949.64545,N,09713.16963,W,1,9,1.03,231.8,M,-24.5,M,,*53",2011,2,26,57,16,"2011-02-26 16:00:00","$GPGGA,220057.99,4949.64544,N,09713.17038,W,1,10,0.89,231.5,M,-24.5,M,,*61",2011,2,26,57,16,0,0,-10.21,13.1,-16.93,97.86901,"R1.15",1.15,1.414,181,1.369,-14.55,-10.98,-9.08,-7.4540,-5.945,-4.273,-2.755,-1.302,-0.196,0.255,0.614,1.453,1.028,-11.28,-11.32,-11.51,-11.8,-12.1,-12.06,-12.12,-11.92,-11.8,-11.27,-10.84,-11.43,-10.99,-11.27,-11.06,-11.21,-11.1,-11.16,-10.99,-10.94,-10.97,-11,-11.22,-11.41,-11.27
"2011-02-26 15:30:00","$GPGGA,213057.00,4949.64606,N,09713.16960,W,1,10,0.85,235.8,M,-24.5,M,,*64",2011,2,26,57,15,30,0,-9.46,13.07,-17.62,97.93426,"R1.15",1.15,1.415,189,1.369,-14.41,-10.94,-9.2,-7.517,-5.968,-4.273,-2.745,-1.292,-0.202,0.233,0.614,1.414,0.9620,-11.18,-11.15,-11.34,-11.67,-12.04,-12.04,-12.14,-11.99,-11.92,-11.43,-11.06,-11.71,-11.26,-11.51,-11.3,-11.43,-11.33,-11.37,-11.18,-11.14,-11.13,-11.15,-11.41,-11.61,-11ºb‚r’ªb‚r²ªÂbŠr¢Š¢b‚rÊ¢Š‚bjŠŠrš’bjŠŠršbjŠŠr¢²bjŠŠrººbjŠ’rŠÊbjŠ’rŠÊbjŠ’rššbjŠ’r"2011-02-26 14:30:00","$GPGGA,203057.00,4949.64608,N,09713.17139,W,1,10,0.82,234.5,M,-24.5,M,,*65",2011,2,26,57,14,30,0,-9.12,13,-18.4,98.0329,"R1.15",1.15,1.417,189,1.368,-15.13,-11.61,-9.54,-7.659,-6.007,-4.262,-2.728,-1.275,-0.208,0.271,0.63,1.414,0.9620,-11.61,-11.53,-11.7,-11.97,-12.39,-12.41,-12.57,-12.4,-12.39,-11.93,-11.68,-12.45,-11.94,-12.21,-11.97,-12.15,-11.99,-12.04,-11.85,-11.82,-11.78,-11.8,-12.03,-12.22,-12
"2011-02-26 14:00:00","$GPGGA,200057.00,4949.64584,N,09713.16918,W,1,9,0.99,238.7,M,-24.5,M,,*57",2011,2,26,57,14,0,0,-9.05,12.95,-19.03,98.10692,"R1.14",1.14,1.418,185,1.368,-15.82,-12.11,-9.71,-7.7220"2011-02-26 13:30:00","$GPGGA,193057.99,4949.64731,N,09713.17052,W,1,10,0.96,237.2,M,-24.5,M,,*69",2011,2,26,57,13,30,0,-9.16,12.87,-19.57,98.16746,"R1.14",1.14,1.42,189,1.368,-16.25,-12.58,-9.88,-7.784,-6.012,-4.245,-2.701,-1.258,-0.213,0.244,0.614,1.398,0.946,-12.2,-12.11,-12.16,-12.4,-12.89,-12.94,-13.19,-13.03,-13.06,-12.57,-12.3,-13.22,-12.65,-12.97,-12.72,-12.91,-12.75,-12.82,-12.62,-"2011-02-26 13:00:00","$GPGGA,190057.99,4949.64740,N,09713.17055,W,1,10,0.95,237.3,M,-24.5,M,,*69",2011,2,26,57,13,0,0,-9.71,12.97,-19.91,98.2393,"R1.10",1.1,1.422,189,1.369,-16.82,-13.1,-10.06,-7.8350,-6.018,-4.229,-2.695,-1.258,-0.213,0.255,0.609,1.409,0.9680,-12.59,-12.48,-12.48,-12.75,-13.27,-13.36,-13.66,-13.49,-13.49,-12.97,-12.62,-13.62,-13.01,-13.4,-13.14,-13.35,-13.17,-13.26,-13.09,-13.09,-13.06,-13.08,-13.4,-13.66,-13.36
"2011-02-26 12:30:00","$GPGGA,183057."2011-02-26 12:00:00","$GPGGA,180057.99,4949.64597,N,09713.17014,W,1,10,0.88,234.4,M,-24.5,M,,*6D",2011,2,26,57,12,0,0,-11.58,12.9,-21.01,98.31244,"R1.14",1.14,1.425,189,1.369,-18.15,-14.2,-10.41,-7.911,-5.997,-4.196,-2.662,-1.236,-0.201,0.235,0.605,1.405,0.9480,-13.61,-13.53,-13.45,-13.83,-14.43,-14.54,-14.9,-14.61,-14.5,-13.78,-13.16,-14.26,-13.58,-14.18,-13.89,-14.15,-13.99,-14.15,-14.02,-14.08,-14.13,-14.18,-14.53,-14.86,-14.56
"2011-02-26 11:30:00","$GPGGA,173057.00,4949.64644,N,09713.17013,W,1,12,0.72,234.0,M,-24.5,M,,*68",2011,2,26,57,11,30,0,-13.13,12.86,-21.89,98.37418,"R1.15",1.15,1.427,189,1.369,-19.32,-14.76,-10.55,-7.932,-5.984,-4.172,-2.649,-1.234,-0.204,0.226,0.601,1.407,0.9550,-14.3"2011-02-26 11:00:00","$GPGGA,170057.00,4949.64613,N,09713.17077,W,1,11,0.91,232.3,M,-24.5,M,,*60",2011,2,26,57,11,0,0,-14.94,12.84,-22.85,98.41034,"R1.14",1.14,1.43,189,1.369,-20.7,-15.34,-10.66,-7.93,-5.959,-4.153,-2.635,-1.219,-0.233,0.241,0.611,1.396,0.965,-15.25,-15.29,-15.11,-15.47,-16.04,-16.08,-16.36,-15.8"2011-02-26 10:30:00","$GPGGA,163057.99,4949.64567,N,09713.17164,W,1,10,1.01,230.0,M,-24.5,M,,*69",2011,2,26,57,10,30,0,-16.88,12.81,-23.37,98.46078,"R1.15",1.15,1.431,189,1.368,-21.95,-15.88,-10.76,-7.9210,-5.932,-4.12,-2.607,-1.202,-0.619,0.237,0.607,1.429,0.9830,-16.16,-16.3,-16.09,-16.38,-16.88,-16.85,-17.01,-16.39,-15.9,-14.84,-13.72,-14.88,-14.17,-14.99,-14.74,-15.09,-14.97,-15.21,-15.23,-15.41,-15.59,-15.72,-16.13,-16.54,-16.28
"2011-02-26 10:00:00","$GPGGA,160057.99,4949.64744,N,09713.17067,W,1,9,0.87,233.1,M,-24.5,M,,*5E",2011,2,26,57,"2011-02-26 09:30:00","$GPGGA,153057.99,4949.64647,N,09713.17045,W,1,9,0.90,230.5,M,-24.5,M,,*5D",2011,2,26,57,9,30,0,-21.09,12.75,-25.55,98.46162,"R1.14",1.14,1.438,189,1.369,-24.93,-16.7,-10.84,-7.865,-5.86,-4.076,-2.585,-1.191,-0.721,0.249,0.619,1.458,0.984,-17.91,-18.09,-17.84,-18.05,-18.35,-18.09,-18.06,-17.25,-16.53,-15.33,-13.84,-14.96,-14.3,-15.13,-15.02,-15.45,-15.34,-15.61,-15.71,-15.95,-16.23,-16.42,-16.85,-17.3,-17.1
"2011-02-26 09:00:00","$GPGGA,150057.00,4949.64864,N,09713.16995,W,1,9,0.86,232.5,M,-24.5,M,,*51",2011,2,26,57,9,0,0,-23.2,12.73,-26.66,98.51047,"R1.14",1.14,1.441,189,1.369,-26.48,-17.05,-10.83,-7.827,-5.822,-4.055,-2.569,-1.18,-0.7590,0.238,0.647,1.454,0.9850,-18.64,-18.8"2011-02-26 08:30:00","$GPGGA,143057.00,4949.64688,N,09713.16983,W,1,9,1.03,237.5,M,-24.5,M,,*51",2011,2,26,57,8,30,0,-25.22,12.7,-27.38,98.56005,"R1.13",1.13,1.442,189,1.368,-27.7,-17.15,-10.79,-7.7820,-5.794,-4.027,-2.552,-1.173,-0.79"2011-02-26 08:00:00","$GPGGA,140057.99,4949.64638,N,09713.17049,W,1,8,1.02,221.8,M,-24.5,M,,*5D",2011,2,26,57,8,0,0,-26.3,12.67,-28.26,98.59299,"R1.06",1.06,1.444,190,1.367,-28.89,-17.18,-10.75,-7.732,-5.751,-4,-2.542,-1.163,-0.8020,0.25,0.621,1.461,0.975,-19.15,-19.36,-19.14,-19.17,-19.08,-18.58,-18.38,-17.49,-16.71,-15.32,-13.5,-14.11,-13.7,-14.58,-14.44,-15.15,-15.2,-15.4,-15.51,-15.8,-16.17,-16.41,-17,-17.56,-17.4
"2011-02-26 07:30:00","$GPGGA,133057.00,4949.64710,N,09713.17069,W,1,9,1.22,227.8,M,-24.5,M,,*55",2011,2,26,57,7.0000,30,0,-26.48,12.63,-28.5,98.62594,"R1.14",1.14,1.446,189,1.368,-29.17,-17.29,-10.69,-7.67"2011-02-26 07:00:00","$GPGGA,130057.99,4949.64648,N,09713.17133,W,1,9,1.08,226.4,M,-24.5,M,,*51",2011,2,26,57,7.0000,0,0,-26.9,12.74,-28.45,98.64242,"R1.09",1.09,1.446,190,1.369,-29.43,-17.3,-10.61,-7.6300,-5.683,-3.956,-2.509,-1.157,-0.8020,0.272,0.626,1.423,0.97,-19.36,-19.56,-19.34,-19.32,-19.22,-18.72,-18.42,-17.48,-16.66,-15.37,-13.46,-14.31,-13.68,-14.57,-14.59,-15.2,-15.1,-15.36,-15"2011-02-26 06:30:00","$GPGGA,123057.99,4949.64767,N,09713.17037,W,1,10,0.84,227.8,M,-24.5,M,,*6A",2011,2,26,57,6,30,0,-26.97,12.74,-29.43,98.67535,"R1.15",1.15,1.449,190,1.369,-29.89,-17.02,-10.53,-7.5730,-5.65,-3.928,-2.498,-1.146,-0.808,0.272,0.643,1.434,0.9590,-18.97,-19.15,-18.97,-19,-18.83,-18.31,-18.1,-17.24"2011-02-26 06:00:00","$GPGGA,120057.99,4949.64619,N,09713.16966,W,1,8,0.97,234.2,M,-24.5,M,,*5E",2011,2,26,57,6,0,0,-26.79,12.75,-29.38,98.72478,"R1.16",1.1bjŠ¢rÊºbjŠªr’²bjŠªr²’bjŠªrÊŠbjŠ²rªªbjŠºrŠªbjŠ²rÊÂj
"2011-02-26 05:30:00","$GPGGA,113057.99,4949.64641,N,09713.17023,W,1,8,0.91,235.3,M,-24.5,M,,*5C",2011,2,26,57,5,30,0,-26.51,12.75,-29.14,98.75772,"R1.15",1.15,1.447,190,1.368,-29.57,-16.77,-10.39,-7.483,-5.573,-3.886,-2.467,-1.132,-0.831,0.27,0.619,1.432,0.974,-18.66,-18.87,-18.69,-18.71,-18.49,-18.01,-17.83,-16.99,-16.3,-14.72,-13.06,-13.36,-12.95,-13.81,-13.68,-14.36,-14.55,-14.85,-14.89,-15.15,-15.5,-15.79,-16.44,-17.03,-16.86
"2011-02-26 05:00:00","$GPGGA,110057.99,4949.64672,N,09713.16947,W,1,9,0.93,235.0,M,-24.5,M,,*55",2011,2,26,57,5,0,0,-26.23,12.76,-28.75,98.79066,"R1.16",1.16,1.447,189,1.369,-29.37,-16.65,-10.32,-7.4340,-5.547,-3.86,-2.45"2011-02-26 04:30:00","$GPGGA,103057.99,4949.64695,N,09713.17004,W,1,7,0.97,231.4,M,-24.5,M,,*5B",2011,2,26,57,4,30,0,-25.96,12.76,-28.8,98.81926,"R1.17",1.17,1.447,189,1.369,-29.15,-16.46,-10.26,-7.379,-5.51,-3.84,-2.443,-1.12,-0.7970,0.277,0.637,1.427,0.942,-18.36,-18.55,-18.38,-18.41,-18.22,-17.75,-17.59,-16.79"2011-02-26 04:00:00","$GPGGA,100057.00,4949.64624,N,09713.17077,W,1,10,0.81,227.7,M,-24.5,M,,*63",2011,2,26,57,4,0,0,-25.62,12.76,-27.68,98.8399,"R1.16",1.16,1.443,190,1.368,-28.55,-16.41,-10.21,-7.331,-5.48,-3.822,-2.431,-1.118,-0.8670,0.262,0.632,1.407,0.9270,-18.25,-18.5,-18.33,-18.33,-18.17,-17.67,-17.51,-16.72,-16.07,-14.47,-12.89,-13.05,-12.63,-13.47,-13.34,-14,-14.2,-14.57,-14.62,-14"2011-02-26 03:30:00","$GPGGA,093057.00,4949.64725,N,09713.17001,W,1,9,0.93,229.7,M,-24.5,M,,*5C",2011,2,26,57,3,30,0,"2011-02-26 03:00:00","$GPGGA,090057.00,4949.64671,N,09713.16990,W,1,10,0.83,231.1,M,-24.5,M,,*69",2011,2,26,57,3,0,0,-25.32,12.76,-27,98.93859,"R1.16",1.16,1.441,190,1.368,-28.06,-16.23,-10.07,-7.2360,-5.414,-3.779,-2.41,-1.109,-0.738,0.266,0.609,1.427,0.9360,-18.14,-18.36,-18.19,-18.22,-18.06,-17.56,-17.4,-16.6,-15.91,-14.53,-12.75,-12.92,-12.5,-13.34,-13.22,-13.89,-14.09,-14.37,-14.44,-14.7,-15.06,-15.34,-15.99,-16.57,-16.39
"2011-02-26 02:30:00","$GPGGA,083057.00,4949.64644,N,09713.17073,W,1,8,1.09,232.5,M,-24.5,M,,*55",2011,2,26,57,2,30,0,-25.22,12.75,-26.9,98.95506,"R1.18",1.18,1.442,190,1.369,-27.94,-16.18,-10,-7.179,-5.375,-3.757,-2.394,-1.098,-1.054,0.26,0.609,1.432,0.952,-18.08,-18.33,-18.14,-18.17,-18,-17.51,-17.32,-16.52,-15."2011-02-26 02:00:00","$GPGGA,080057.00,4949.64704,N,09713.16968,W,1,10,0.83,228.5,M,-24.5,M,,*60",2011,2,26,57,2,0,0,-25.12,12.74,-26.66,99.02093,"R1.16",1.16,1.441,189,1.369,-27.83,-16.1,-9.91,-7.128,-5.336,-3.735,-2.383,-1.092,-1.06,"2011-02-26 01:30:00","$GPGGA,073057.00,4949.64756,N,09713.16983,W,1,10,0.95,229.8,M,-24.5,M,,*65",2011,2,26,57,1,30,0,-25.15,12.7,-26.46,99.05386,"R1.15",1.15,1.441,189,1.369,-27.79,-15.99,-9.83,-7.0600,-5.309,-3.718,-2.377,-1.087,-1.06,0.249,0.625,1.405,0.92,-17.95,-18.17,-18,-18.03,-17.86,-17.38,-17.16,-16.36,-15.67,-14.4,-12.48,-12.66,-12.19,-13,-12.92,-13.6,-13.77,-14.01,-14.11,-14.4,-14.78,-15.08,-15.7,-16.25,-16.1
--------------------------------------------
E
