

RING

RING

CONNECT 4800
--------------------------------------------
CEOS_IMBB06
----------------IMB_data--------------------
"2011-03-02 13:00:00","$GPGGA,190057.99,4949.64711,N,09713.17089,W,1,10,0.96,237.6,M,-24.5,M,,*6A",2011,3,2,61,13,0,0,-7.8600,12.97,-19.68,100.7679,"R1.12",1.12,1.424,181,1.372,-10.66,-8.4300,-6.791,-5.481,-4.411,-3.183,-2.126,-1.133,-0.208,0.271,0.651,1.484,0.951,-10.3,-10.07,-10.46,-11.22,-11.86,-12.02,-12.36,-12.28,-12.36,-12.1,-11.87,-12.52,-11.95,-12.32,-12.03,-12.28,-12.18,-12.26,-12.05,-12,-12.04,-12.1,-12.49,-12.68,-12.29
"2011-03-02 12:30:00","$GPGGA,183057.99,4949.64803,N,09713.17107,W,1,11,0.83,238.6,M,-24.5,M,,*69",2011,3,2,61,12,30,0,-8.55,12.93,-20.15,100.7955,"R1.15",1.15,1.425,190,1.371,-11.27,-8.67,-6.8490,-5.482,-4.384,-3.161,-2.104,-1.111,-0.196,0.283,0.669,1.496,0.9680,-10.84,-10.58,-10.89,-11.73,-12.4,-12.58,-12.92,-12.76,-12.79,-12.46,-12.19,-12.83,-12.28,-12.68,-12.43,-12.71,-12.64,-12.77,-12.57,-12.54,-12.58,-12.66,-13.14,-13.42,-13
"2011-03-02 12:00:00","$GPGGA,180057.99,4949.64755,N,09713.17058,W,1,11,0.79,235.4,M,-24.5,M,,*67",2011,3,2,61,12,0,0,-9.55,12.89,-21.03,100.8284,"R1.15",1.15,1.427,190,1.371,-12.02,-8.97,-6.917,-5.488,-4.361,-3.15,-2.093,-1.111,-0.207,0.277,0.663,1.523,0.9030,-11.51,-11.25,-11.51,-12.29,-12.99,-13.11,-13.44,-13.24,-13.23,-12.84,-12.53,-13.19,-12.65,-13.15,-12.92,-13.21,-13.16,-13.31,-13.18,-13.2,-13.29,-13.4,-13.9,-14.24,-13.81
"2011-03-02 11:30:00","$GPGGA,173057.00,4949.64728,N,09713.17074,W,1,10,0.90,237.1,M,-24.5,M,,*6E",2011,3,2,61,11,30,0,-11.07,12.86,-20.62,100.8284,"R1.15",1.15,1.426,189,1.371,-12.99,-9.24,-6.958,-5.472,-4.345,-3.117,-2.077,-1.1,-0.195,0.256,0.665,1.465,0.975,-12.42,-12.15,-12.32,-13.12,-13.78,-13.85,-14.09,-13.74,-13.63,-13.16,-12.72,-13.33,-12.79,-13.39,-13.16,-13.59,-13.58,-13.73,-13.62,-13.64,-13.8,-13.88,-14.57,-15.07,-14.63
"2011-03-02 11:00:00","$GPGGA,170057.00,4949.64712,N,09713.17092,W,1,10,0.88,234.7,M,-24.5,M,,*60",2011,3,2,61,11,0,0,-12.91,12.82,-21.06,100.8257,"R1.11",1.11,1.428,190,1.372,-14.2,-9.5200,-6.996,-5.459,-4.327,-3.11,-2.075,-1.098,-0.199,0.253,0.623,1.483,0.9710,-13.48,-13.24,-13.33,-14.05,-14.6,-14.55,-14.66,-14.18,-13.97,-13.39,-12.9,-13.54,-12.97,-13.67,-13.45,-13.95,-14.01,-14.18,-14.11,-14.18,-14.41,-14.52,-15.28,-15.86,-15.45
"2011-03-02 10:30:00","$GPGGA,163057.99,4949.64704,N,09713.17102,W,1,9,1.04,235.6,M,-24.5,M,,*50",2011,3,2,61,10,30,0,-15.12,12.79,-21.82,100.8468,"R1.14",1.14,1.431,190,1.373,-15.66,-9.79,-7.0200,-5.438,-4.295,-3.083,-2.048,-1.087,-0.193,0.27,0.656,1.49,0.9830,-14.65,-14.44,-14.42,-14.98,-15.36,-15.16,-15.13,-14.52,-14.24,-13.53,-13.02,-13.67,-13.08,-13.85,-13.64,-14.23,-14.29,-14.58,-14.54,-14.61,-14.88,-15.04,-15.91,-16.57,-16.18
"2011-03-02 10:00:00","$GPGGA,160057.99,4949.64764,N,09713.17095,W,1,9,0.96,235.1,M,-24.5,M,,*57",2011,3,2,61,10,0,0,-17.51,12.75,-22.88,100.8468,"R1.10",1.1,1.435,189,1.374,-17.17,-10.04,-7.023,-5.418,-4.264,-3.052,-2.038,-1.077,-0.194,0.28,0.661,1.484,0.9770,-15.81,-15.64,-15.49,-15.85,-16.04,-15.67,-15.54,-14.81,-14.44,-13.66,-13.11,-13.78,-13.18,-14.03,-13.83,-14.48,-14.58,-14.9,-14.9,-15.05,-15.41,-15.62,-16.49,-17.2,-16.83
"2011-03-02 09:30:00","$GPGGA,153057.00,4949.64796,N,09713.16885,W,1,9,0.98,233.6,M,-24.5,M,,*5D",2011,3,2,61,9,30,0,-19.86,12.72,-23.84,100.8644,"R1.02",1.02,1.437,189,1.373,-18.37,-10.22,-7.0190,-5.386,-4.231,-3.035,-2.022,-1.065,-0.188,0.27,0.6620,1.464,0.946,-16.82,-16.73,-16.45,-16.61,-16.61,-16.05,-15.81,-14.99,-14.57,-13.74,-13.19,-13.78,-13.2,-14.08,-13.86,-14.63,-14.73,-15.19,-15.23,-15.38,-15.73,-15.95,-16.87,-17.68,-17.37
"2011-03-02 09:00:00","$GPGGA,150057.00,4949.64795,N,09713.16943,W,1,10,0.75,234.5,M,-24.5,M,,*69",2011,3,2,61,9,0,0,-22.4,12.69,-25.05,100.8817,"R1.15",1.15,1.44,189,1.372,-19.37,-10.33,-7.004,-5.348,-4.204,-3.008,-1.999,-1.043,-0.181,0.271,0.664,1.487,0.9580,-17.69,-17.68,-17.29,-17.29,-17.05,-16.31,-15.99,-15.11,-14.63,-13.74,-13.2,-13.79,-13.22,-14.11,-13.92,-14.7,-14.85,-15.34,-15.4,-15.57,-16.02,-16.28,-17.21,-18.04,-17.76
"2011-03-02 08:30:00","$GPGGA,143057.99,4949.64658,N,09713.17163,W,1,9,0.80,234.5,M,-24.5,M,,*52",2011,3,2,61,8,30,0,-24.79,12.66,-25.58,100.8775,"R1.15",1.15,1.441,190,1.372,-20.15,-10.39,-6.977,-5.321,-4.178,-2.982,-1.995,-1.049,-0.193,0.265,0.647,1.448,0.9300,-18.32,-18.43,-17.89,-17.75,-17.29,-16.44,-16.03,-15.13,-14.65,-13.71,-13.22,-13.78,-13.22,-14.15,-13.89,-14.77,-14.88,-15.39,-15.52,-15.69,-16.16,-16.48,-17.39,-18.25,-18.01
"2011-03-02 08:00:00","$GPGGA,140057.99,4949.64585,N,09713.16851,W,1,9,1.02,233.1,M,-24.5,M,,*53",2011,3,2,61,8,0,0,-26.34,12.63,-28.5,100.8662,"R1.13",1.13,1.448,190,1.37,-20.59,-10.43,-6.9480,-5.276,-4.149,-2.959,-1.977,-1.043,-0.186,0.267,0.648,1.455,0.97,-18.68,-18.84,-18.24,-18.05,-17.42,-16.53,-16.07,-15.15,-14.64,-13.67,-13.17,-13.73,-13.17,-14.12,-13.87,-14.78,-14.88,-15.44,-15.58,-15.76,-16.27,-16.62,-17.53,-18.38,-18.16
"2011-03-02 07:30:00","$GPGGA,133057.99,4949.64627,N,09713.16941,W,1,8,1.16,228.9,M,-24.5,M,,*5A",2011,3,2,61,7.0000,30,0,-26.86,12.57,-29.77,100.8332,"R1.15",1.15,1.452,191,1.371,-20.82,-10.46,-6.909,-5.237,-4.116,-2.937,-1.966,-1.037,-0.186,0.267,0.654,1.477,0.9860,-18.88,-19.07,-18.46,-18.19,-17.54,-16.6,-16.11,-15.18,-14.64,-13.63,-13.11,-13.64,-13.08,-14.06,-13.81,-14.74,-14.85,-15.44,-15.59,-15.8,-16.33,-16.68,-17.61,-18.46,-18.27
"2011-03-02 07:00:00","$GPGGA,130057.99,4949.64426,N,09713.17050,W,1,8,1.28,217.6,M,-24.5,M,,*5C",2011,3,2,61,7.0000,0,0,-27.18,12.67,-29.19,100.8332,"R1.14",1.14,1.45,189,1.37,-20.91,-10.46,-6.8690,-5.204,-4.083,-2.915,-1.955,-1.032,-0.186,0.272,0.643,1.488,0.97,-19,-19.21,-18.63,-18.33,-17.67,-16.67,-16.17,-15.18,-14.6,-13.58,-12.99,-13.53,-12.96,-13.93,-13.76,-14.65,-14.82,-15.41,-15.57,-15.82,-16.35,-16.74,-17.68,-18.52,-18.33
"2011-03-02 06:30:00","$GPGGA,123057.00,4949.64695,N,09713.17037,W,1,9,1.00,228.9,M,-24.5,M,,*5D",2011,3,2,61,6,30,0,-27.4,12.67,-29.09,100.8335,"R1.14",1.14,1.451,190,1.372,-21.14,-10.46,-6.8300,-5.159,-4.055,-2.898,-1.939,-1.026,-0.186,0.283,0.643,1.455,0.9480,-19.15,-19.35,-18.77,-18.46,-17.75,-16.72,-16.17,-15.15,-14.54,-13.47,-12.89,-13.39,-12.82,-13.83,-13.62,-14.57,-14.72,-15.33,-15.51,-15.78,-16.33,-16.72,-17.68,-18.55,-18.35
"2011-03-02 06:00:00","$GPGGA,120057.00,4949.64727,N,09713.16970,W,1,9,0.88,232.3,M,-24.5,M,,*5D",2011,3,2,61,6,0,0,-27.69,12.67,-28.79,100.8533,"R1.14",1.14,1.448,190,1.37,-21.29,-10.45,-6.785,-5.12,-4.022,-2.876,-1.934,-1.021,-0.186,0.272,0.632,1.455,0.9480,-19.24,-19.48,-18.86,-18.52,-17.8,-16.72,-16.17,-15.1,-14.46,-13.36,-12.74,-13.24,-12.69,-13.66,-13.49,-14.45,-14.62,-15.25,-15.44,-15.71,-16.28,-16.72,-17.67,-18.54,-18.35
"2011-03-02 05:30:00","$GPGGA,113057.00,4949.64667,N,09713.17002,W,1,8,0.96,236.7,M,-24.5,M,,*5B",2011,3,2,61,5,30,0,-27.9,12.67,-30.16,100.7985,"R1.14",1.14,1.449,190,1.367,-21.47,-10.41,-6.734,-5.076,-3.995,-2.854,-1.917,-1.015,-0.186,0.272,0.654,1.466,0.9480,-19.36,-19.61,-18.97,-18.61,-17.83,-16.7,-16.11,-15.02,-14.36,-13.21,-12.6,-13.06,-12.52,-13.51,-13.32,-14.29,-14.46,-15.11,-15.32,-15.62,-16.21,-16.64,-17.6,-18.48,-18.3
"2011-03-02 05:00:00","$GPGGA,110057.00,4949.64792,N,09713.17049,W,1,8,1.00,236.4,M,-24.5,M,,*51",2011,3,2,61,5,0,0,-28.05,12.67,-30.46,100.8164,"R1.14",1.14,1.454,192,1.371,-21.78,-10.39,-6.677,-5.031,-3.972,-2.838,-1.912,-1.01,-0.186,0.267,0.648,1.455,0.9480,-19.48,-19.74,-19.05,-18.66,-17.82,-16.67,-16.04,-14.93,-14.24,-13.07,-12.43,-12.87,-12.33,-13.32,-13.14,-14.12,-14.31,-14.95,-15.18,-15.48,-16.09,-16.54,-17.5,-18.38,-18.2
"2011-03-02 04:30:00","$GPGGA,103057.00,4949.64723,N,09713.17097,W,1,7,1.02,232.1,M,-24.5,M,,*56",2011,3,2,61,4,30,0,-28.12,12.68,-29.53,100.8011,"R1.14",1.14,1.45,190,1.369,-21.93,-10.35,-6.627,-4.987,-3.934,-2.822,-1.895,-1.004,-0.186,0.267,0.637,1.472,0.97,-19.48,-19.75,-19.05,-18.63,-17.75,-16.59,-15.93,-14.82,-14.11,-12.91,-12.25,-12.67,-12.13,-13.11,-12.96,-13.94,-14.14,-14.79,-15.01,-15.31,-15.94,-16.4,-17.37,-18.24,-18.08
"2011-03-02 04:00:00","$GPGGA,100057.00,4949.64660,N,09713.17083,W,1,10,0.85,230.2,M,-24.5,M,,*6F",2011,3,2,61,4,0,0,-28.12,12.68,-28.6,100.7982,"R1.14",1.14,1.448,189,1.37,-21.96,-10.27,-6.565,-4.942,-3.906,-2.8,-1.89,-0.9990,-0.186,0.245,0.637,1.455,0.9480,-19.42,-19.71,-19,-18.56,-17.67,-16.48,-15.81,-14.69,-13.96,-12.75,-12.07,-12.46,-11.94,-12.91,-12.77,-13.73,-13.95,-14.61,-14.82,-15.15,-15.79,-16.25,-17.21,-18.07,-17.91
"2011-03-02 03:30:00","$GPGGA,093057.00,4949.64638,N,09713.17052,W,1,11,0.76,228.2,M,-24.5,M,,*61",2011,3,2,61,3,30,0,-28.09,12.69,-29.48,100.7713,"R1.14",1.14,1.448,190,1.368,-22.05,-10.2,-6.497,-4.898,-3.884,-2.778,-1.873,-0.988,-0.186,0.267,0.654,1.455,0.9480,-19.32,-19.59,-18.88,-18.44,-17.53,-16.33,-15.67,-14.52,-13.81,-12.59,-11.87,-12.23,-11.71,-12.68,-12.57,-13.53,-13.76,-14.41,-14.64,-14.95,-15.61,-16.08,-17.02,-17.88,-17.72
"2011-03-02 03:00:00","$GPGGA,090057.00,4949.64653,N,09713.16979,W,1,10,0.78,230.9,M,-24.5,M,,*63",2011,3,2,61,3,0,0,-27.76,12.69,-31.14,100.7509,"R1.15",1.15,1.455,190,1.37,-21.87,-10.1,-6.441,-4.853,-3.856,-2.756,-1.862,-0.9830,-0.186,0.272,0.665,1.455,0.9320,-19.17,-19.44,-18.7,-18.27,-17.37,-16.17,-15.51,-14.36,-13.63,-12.38,-11.67,-12,-11.5,-12.45,-12.35,-13.31,-13.53,-14.19,-14.44,-14.74,-15.41,-15.89,-16.83,-17.67,-17.53
"2011-03-02 02:30:00","$GPGGA,083057.00,4949.64662,N,09713.17081,W,1,8,1.00,232.8,M,-24.5,M,,*58",2011,3,2,61,2,30,0,-27.36,12.69,-30.31,100.7509,"R1.14",1.14,1.455,189,1.372,-21.6,-10.01,-6.373,-4.809,-3.818,-2.745,-1.857,-0.9830,-0.18,0.272,0.643,1.455,0.965,-19,-19.26,-18.53,-18.13,-17.21,-16.01,-15.35,-14.21,-13.47,-12.21,-11.48,-11.76,-11.27,-12.21,-12.11,-13.08,-13.3,-13.96,-14.21,-14.54,-15.2,-15.69,-16.62,-17.48,-17.33
"2011-03-02 02:00:00","$GPGGA,080057.00,4949.64567,N,09713.17194,W,1,8,1.10,235.5,M,-24.5,M,,*53",2011,3,2,61,2,0,0,-26.97,12.68,-28.99,100.7509,"R1.15",1.15,1.448,190,1.369,-21.29,-9.92,-6.317,-4.764,-3.796,-2.728,-1.846,-0.9770,-0.18,0.272,0.643,1.466,0.97,-18.88,-19.14,-18.41,-17.99,-17.08,-15.88,-15.2,-14.06,-13.3,-12.02,-11.27,-11.51,-11.02,-11.96,-11.87,-12.82,-13.06,-13.73,-13.98,-14.31,-14.99,-15.48,-16."2011-03-02 01:30:00","$GPGGA,073057.00,4949.64644,N,09713.17009,W,1,10,0.88,230.0,M,-24.5,M,,*61",2011,3,2,61,1,30,0,-27.04,12.65,-27.57,100.7014,"R1.14",1.14,1.443,190,1.368,-21.51,-9.8500,-6.25,-4.72,-3.768,-2.712,-1.841,-0.9720,-0.181,0.272,0.632,1.477,0.97,-18.83,-19.09,-18.35,-17.9,-16.95,-15.72,-15.02,-13.91"2011-03-02 01:00:00","$GPGGA,070057.99,4949.64620,N,09713.16947,W,1,9,0.98,226.2,M,-24.5,M,,*5E",2011,3,2,61,1,0,0,-26.97,12.79,-28.7,100.7014,"R1.14",1.14,"2011-03-02 00:30:00","$GPGGA,063057.99,4949.64713,N,09713.16887,W,1,8,1.40,231.4,M,-24.5,M,,*55",2011,3,2,61,0,30,0,-26.62,12.8,-29.58,100.6519,"R1.14",1.14,1.451,190,1.37,-21.21,-9.65,-6.119,-4.647,-3.734,-2.695,-1.829,-0.9710,-0.18,0.261,0.638,1.499,0.965,-18.5,-18.73,-18,-17.54,-16.57,-15.34,-14.65,-13.52,-12.75,-11.42,-10.57,-10.7,-10.23,-11.14,-11.08,-12,-12.26,-12.92,-13.18,-13.51,-14.21,-14.7,-15.62,-16.41,-16.29
"2011-03-02 00:00:00","$GPGGA,060057.99,4949.64723,N,09713.17017,W,1,11,0.78,229.2,M,-24.5,M,,*68",2011,3,2,61,0,0,0,-26.3,12.81,-27.98,100.6223,"R1.14",1.14,1.449,189,1.373,-21.15,-9.53,-6.056,-4.617,-3.716,-2.688,-1.822,-0.97,-0.179,0.252,0.622,1.445,0.96,-18.28,-18.53,-17.78,-17."2011-03-01 23:30:00","$GPGGA,053057.99,4949.64626,N,09713.16884,W,1,9,0.86,229.7,M,-24.5,M,,*52",2011,3,1,60,23,30,0,-25.72,12.84,-28.86,100.5853,"R1.14",1.14,1.45,192,1.371,-20.94,-9.41,-5.99,-4.575,-3.702,-2.668,-1.819,-0.9670,-0.181,0.26,0.631,1.465,0.952,-18.03,-18.28,-"2011-03-01 23:00:00","$GPGGA,050057.00,4949.64656,N,09713.17065,W,1,12,0.69,230.7,M,-24.5,M,,*63",2011,3,1,60,23,0,0,-25.19,12.85,-29.84,100.5853,"R1.14",1.14,1.451,190,1.369,-20.88,-9.2700,-5.923,-4.542,-3.68,-2.662,-1.813,-0.961,-0.176,0.255,0.642,1.46,0.9310,-17.76,-18,-17.25,-16.78,-15.81,-14.57,-13.92,-12.87,-12.12,-10.77,-9.8500,-9.86,-9.42,-10.23,-10.23,-11.09,-11.35,-11.97,-12.23,-12.56,-13.26,-13.72,-14.57,-15.3,-15.21
"2011-03-01 22:30:00","$GPGGA,043057.00,4949.64651,N,09713.16962,W,1,10,0.83,23©)’rÊ’bjŠšrš¢bjŠ¢rŠÊbjŠ¢rÂÂbjŠ¢rÂj
"2011-03-01 22:00:00","$GPGGA,040057.99,4949.64583,N,09713.16951,W,1,11,0.90,232.2,M,-24.5,M,,*64",2011,3,1,60,22,0,0,-23.7,12.89,-28.82,100.5361,"R1.13",1.13,1.449,189,1.37,-20.18,-9,-5.816,-4.491,-3.652,-2.651,-1.808,-0.9620,-0.182,0.281,0.652,1.485,0.989,-17.06,-17.25,-16.55,-16.1,-15.15,-14,-13.38,-12.42,-11.73,-10.38,-9.4,-9.3100,-8.8900,-9.6400,-9.67,-10.45,-10.71,-11.31,-11.56,-11.86,-12.55,-12.98,-13.78,-14.44,-14.38
"2011-03-01 21:30:00","$GPGGA,033057.00,4949.64551,N,09713.17113,W,1,11,0.91,232.6,M,-24.5,M,,*65",2011,3,1,60,21,30,0,-22.83,12.91,-27.36,100.5029,"R0.95",0.9500,1.444,189,1.37,-19.72,-8.86,-5.76,-4.464,-3.641,-2.635,-1.797,-0.956,-0.177,0.259,0.646,1.453,0.957,-16.66,-16.79,-16.1,-15.71,-14.79,-13.7,-13.1,-12.2,-11.55,"2011-03-01 21:00:00","$GPGGA,030057.00,4949.64441,N,09713.17002,W,1,9,1.22,235.8,M,-24.5,M,,*5E",2011,3,1,60,21,0,0,-21.92,12.93,-26.1,100.4687,"R1.15",1.15,1.441,192,1.37,-19.3,-8.7300,-5.713,-4."2011-03-01 20:30:00","$GPGGA,023057.00,4949.64624,N,09713.16836,W,1,11,0.83,233.3,M,-24.5,M,,*6D",2011,3,1,60,20,30,0,-20.86,12.93,-24.25,100.4189,"R1.12",1.12,1.438,190,1.373,-18.6,-8.6000,-5.675,-4.419,-3.618,-2.635,-1.798,-0.957,-0.183,0.258,0.65,1.457,0.9770,-15.71,-15.75,-15.13,-14.84,-14.08,-13.11,-12.6,-11.82,-11.27,-9.96,-8.8500,-8.6000,-8.21,-8.9,-8.9,-9.59,-9.83,-10.34,-10.54,-10.82,-11.45,-11.84,-12.53,-13.06,-13.06
"2011-03-01 20:00:00","$GPGGA,020057.00,4949.64711,N,09713.16878,W,1,11,0.77,239,-8.74,-8.4300,-8.05,-8.7,-8.6900,-9.34,-9.58,-10.05,-10.24,-10.51,-11.11,-11."2011-03-01 19:30:00","$GPGGA,013057.00,4949.64817,N,09713.17039,W,1,11,0.79,237.0,M,-24.5,M,,*64",2011,3,1,60,19,30,0,-18.72,12.92,-22.06,100.386,"R1.04",1.04,1.431,190,1.372,-17.61,-8.41,-5.598,-4.376,-3.597,-2.614,-1.788,-0.947,-0.179,0.273,0.638,1.461,0.9490,-14.67,-14.64,-14.11,-13.96,-13.45,-12.69,-12.23,-11.56,-11.15,-9.8500,-8.66,-8.3,-7.962,-8.58,-8.53,-9.13,-9.36,-9.8,-9.99,-10.25,-10.82,-11.17,-11.76,-12.16,-12.21
"2011-03-01 19:00:00","$GPGGA,010057.00,4949.65020,N,09713.17091,W,1,9,1.18,239.5,M,-24.5,M,,*5C",2011,3,1,60,19,0,0,-17.88,13.07,-21.43,100.3531,"R1.14",1.14,1.426,189,1.369,-17.56,-8.3500,-5.572,-4.361,-3.589,-2.611,-1.785,-0.9450,-0.182,0.264,0.651,1.462,0.989,-14.17,-14.17,-13.72,-13.62,-13.27,-12.61,-12.16,-11.5,-11.14,-9.99,-8.7,-8.28,-7.9920,-8.54,"2011-03-01 18:30:00","$GPGGA,003057.00,4949.64678,N,09713.17099,W,1,9,1.08,231.4,M,-24.5,M,,*54",2011,3,1,60,18,30,0,©)rŠšbjÊr¢¢‚‚bjÊr²ªbjÊrÊªbjŠ‚r¢bjŠ‚rºªbjŠŠrŠbjŠŠr’ÂbjŠŠr¢j
"2011-03-01 18:00:00","$GPGGA,000057.00,4949.64614,N,09713.17053,W,1,9,0.90,230.3,M,-24.5,M,,*5D",2011,3,1,60,18,0,0,-15.6,13.1,-20.77,100.2708,"R1.12",1.12,1.425,186,1.37,-17.32,-8.2,-5.516,-4.328,-3.568,-2.602,-1.781,-0.947,-0.179,0.279,0.66,1.476,0.9920,-13.01,-12.96,-12.64,-12.77,-12.71,-12.25,-11.84,-11.26,-11.02,-10.07,-8.8,-8.33,-8.09,-8.5,-8.4800,-8.86,-8.9800,-9.26,-9.4700,-9.75,-10.15,-10.48,-10.74,-10.86,-10.98
"2011-03-01 17:30:00","$GPGGA,233057.00,4949.64728,N,09713.17109,W,1,8,1.05,231.6,M,-24.5,M,,*57",2011,3,"2011-03-01 17:00:00","$GPGGA,230057.00,4949.64738,N,09713.16926,W,1,10,0.80,232.5,M,-24.5,M,,*64",2011,3,1,60,17,0,0,-12.81,13.11,-20.14,100.2199,"R1.12",1.12,1.424,181,1.37,-15.97,-7.87,-5.443,-4.301,-3.557,-2.596,-1.776,-0.947,-0.179,0.251,0.664,1.486,1.013,-11.67,-11.25,-11.24,-11.79,-12.06,-11.82,-11.47,-10.99,-10.86,-9.99,-8.74,-8.3900,-8.11,-8.4400,-8.3900,-8.6400,-8.74,-8.97,-9.1400,-9.36,-9.67,-9.9300,-10.08,-10.13,-10.26
"2011-03-01 16:30:00","$GPGGA,223057.99,4949.64583,N,09713.17135,W,1,9,0.98,226.1,M,-24.5,M,,*5F",2011,3,1,60,16,30,0,-11.7,13.12,-20.2,100.1856,"R1.13",1.13,1.425,178,1.371,-14.69,-7.778,-5.421,-4.29,-3.551,-2.597,-1.777,-0.9480,-0.175,0.25,0.653,1.469,1.006,-11.24,-10.64,-10.72,-11.39,-11.82,-11.63,-11.3,-10.85,-10.77,-9.8900,-8.65,-8.4800,-8.1900,-8.46,-8.38,-8.6000,-8.67,-8.88,-9.03,-9.2300,-9.4800,-9.6900,-9.82,-9.8500,-*5D",2011,3,1,60,16,0,0,-10.67,13.1,-19.96,100.1546,"R1.14",1.14,1.423,186,1.37"2011-03-01 15:30:00","$GPGGA,213057.99,4949.64668,N,09713.16995,W,1,10,0.87,234.6,M,-24.5,M,,*6B",2011,3,1,60,15,30,0,-9.9800,13.1,-20.21,100.1205,"R1.14",1.14,1.425,174,1.371,-14.47,-7.702,-5.38,-4.265,-3.533,-2.584,-1.769,-0.946,-0.178,0.251,0.621,1.47,1.013,-10.61,-9.8,-10,-10.83,-11.44,-11.44,-11.12,-10.66,-10.61,-9.8900,-8.7700,-8.71,-8.38,-8.61,-8.5,-8.75,-8.7300,-8.9,-9.03,-9.16,-9.33,-9.45,-9.5200,-9.5200,-9.66
"2011-03-01 15:00:00","$GPGGA,210057.00,4949.64794,N,09713.17013,W,1,10,0.81,235.2,M,-24.5,M,,*6F",2011,3,1,60,15,0,0,-9.32,13.08,-20.12,100.0639,"R1.13",1.13,1.425,177,1.372,-13.87,-7.622,-5.369,-4.261,-"2011-03-01 14:30:00","$GPGGA,203057.00,4949.64844,N,09713.17239,W,1,9,0.87,239.6,M,-24.5,M,,*53",2011,3,1,60,14,30,0,-8.8500,13.06,-20.32,100.0048,"R1.15",1.15,1.424,178,1.37,-13.94,-7.6060,-5.359,-4.25,-3.523,-2.58,-1.771,-0.9480,-0.181,0.238,0.619,1.468,1.01,-9.9800,-9.1400,-9.4400,-10.38,-11.09,-11.14,-10.9,-10.45,-10.4,-9.6900,-8.66,-8.74,-8.4300,-8.63,-8.5200,-8.7300,-8.7300,-8.8900,-8.9800,-9.09,-9.22,-9.32,-9.4300,-9.45,"2011-03-01 14:00:00","$GPGGA,200057.00,4949.64713,N,09713.17084,W,1,11,0.81,237.3,M,-24.5,M,,*6D",2011,3,1,60,14,0,0,-8.49,13.02,-20.37,99.98838,"R1.14",1.14,1.425,169,1.371,-13.97,-7.5780,-5.342,-4.239,-3.518,-2.575,-1.771,-0.9480,-0.181,0.254,0.668,1.457,0.994,-9.7700,-8.9300,-9.26,-10.21,-10.96,-11.07,-10.86,-10.43,-10.35,-9.6800,-8.6900,-8.82,-8.49,-8.72,-8.62,-8.86,-8.84,-9,-9.1000,-9.2,-9.32,-9.4,-9.5200,-9.54,-9.57
"2011"2011-03-01 13:00:00","$GPGGA,190057.99,4949.64689,N,09713.17053,W,1,10,0.96,236.9,M,-24.5,M,,*63",2011,3,1,60,13,0,0,-8.51,13.09,-20.32,99.9269,"R1.14",1.14,1.424,190,1.37,-13.67,-7.6,-5.325,-4.206,-3.501,-2.574,-1.776,-0.9530,-0.18,0.244,0.641,1.479,1.005,-9.71,-9,-9.3,-10.27,-10.99,-11.04,-10.83,-10.4,-10.31,-9.5600,-8.59,-8.83,-8.59,-8.86,-8.75,-9.03,-9.03,-9.22,-9.3,-9.42,-9.57,-9.66,-9.86,-9.9300,-9.9
"2011-03-01 12:30:00","$GPGGA,183057.99,4949.64772,N,09713.17131,W,1,10,0.95,238.2,M,-24.5,M,,*67",2011,3,1,60,12,30,0,-8.8,13.09,-20.56,99.89808,"R1.14",1.14,1.424,186,1.369,-13.74,-7.6,-5.314,-4.195,-3.501,-2.58,-1.782,-0.9590,-0.181,0.238,0.641,1.457,0.9830,-9.82,-9.1800,-9.49,-10.43,-11.14,-"2011-03-01 12:00:00","$GPGGA,180057.99,4949.64677,N,09713.17142,W,1,10,1.04,234.9,M,-24.5,M,,*6A",2011,3,1,60,12,0,0,-9.28,13.08,-20.54,99.84226,"R1.14",1.14,1.423,189,1.368,-14.12,-7.659,-5.282,-4.168,-3.485,-2.575,-1.782,-0.9530,-0.169,0.266,0.674,1.463,1.001,-10.16,-9.58,-9.78,-10.67,-11.34,-11.32,-11.02,-10."2011-03-01 11:30:00","$GPGGA,173057.99,4949.64716,N,09713.17169,W,1,11,0.87,239.0,M,-24.5,M,,*66",2011,3,1,60,11,30,0,-10.14,13.07,-20.25,99.78256,"R1.13",1.13,1.423,190,1.369,-14.41,-7.699,-5.259,-4.152,-3.485,-2.58,-1.782,-0.9530,-0.175,0.272,0.653,1.491,1.012,-10.54,-10.09,-10.18,-10.95,-11.58,-11.5,-11.18,-10.61,-10.42,-9.67,-8.74,-9.0200,-8.84,-9.1800,-9.05,-9.3,-9.38,-9.62,-9.76,-9.9400,-10.14,-10.3,-10.55,-10.7,-10.67
"2011-03-01 11:00:00","$GPGGA,170057.00,4949.64636,N,09713.17181,W,1,11,0.85,235.1,M,-24.5,M,,*6F",2011,3,1,60,11,0,0,-1"2011-03-01 10:30:00","$GPGGA,163057.00,4949.64673,N,09713.17032,W,1,10,1.01,236.1,M,-24.5,M,,*6A",2011,3,1,60,10,30,0,-12.1,13.06,-20.96,99.62797,"R1.14",1.14,1.426,190,1.37,-15.68,-7.706,-5.16,-4.108,-3.475,-2.58,-1.793,-0.9580,-0.174,0.3,0.724,1.503,1.024,-11.44,-11.21,-11.17,-11.65,-12.09,-11.89,-11.39,-10.66,-10.3,-9.54,-8.78,-9.41,-9.17,-9.49,-9.36,-9.62,-9.65,-9.91,-10.13,-10.34,-10.55,-10.69,-10.87,-11,-11.04
"2011-03-01 10:00:00","$GPGGA,160057.99,4949.64606,N,09713.17068,W,1,9,0.93,234.7,M,-24.5,M,,*52",2011,3,1,60,10,0,0,-12.98,13.06,-21.16,99.56218,"R1.13",1.13,1.426,190,1.37,-15.97,-7.6260,-5.105,-4.097,-3.48,-2.591,-1.798,-0.9630,-0.174,0.256,0.6810,1.481,1.007,-11.79,-11.64,-11.49,-1"2011-03-01 09:30:00","$GPGGA,153057.99,4949.64854,N,09713.16925,W,1,11,0.71,236.4,M,-24.5,M,,*6E",2011,3,1,60,9,30,0,-13.93,13.05,-21.06,99.48004,"R1.08",1.08,1.425,190,1.369,-16.1,-7.496,-5.049,-4.086,-3.48,-2.597,-1.815,-0.9690,-0.1"2011-03-01 09:00:00","$GPGGA,150057.99,4949.64764,N,09713.17017,W,1,8,1.15,232.4,M,-24.5,M,,*57",2011,3,1,60,9,0,0,-14.79,13.06,-20.91,99.43113,"R1.14",1.14,1.425,189,1.369,-15.84,-7.299,-5.001,-4.071,-3.481,-2.609,-1.816,-0.975,-0.175,0.266,0.647,1.486,1.018,-12.12,-12.23,-11.98,-12.02,-11.92,-11.4,-10.71,-9.86,-9.28,-8.57,-8.1400,-8.95,-8.76,-9.07,-9,-9.25,-9.29,-9.5600,-9.82,-10.08,-10.33,-10.55,-10.66,-10.74,-10.84
"2011-03-01 08:30:00","$GPGGA,143057.99,4949.64675,N,09713.16977,W,1,8,0.92,231.2,M,-24.5,M,,*51",2011,3,1,60,8,30,0,-15.52,13.06,-20.85,99.28327,"R1.13",1.13,1.425,189,1.37,-15.42,-7.101,-4.95,-4.064,-3.4"2011-03-01 08:00:00","$GPGGA,140057.00,4949.64491,N,09713.16741,W,1,7,1.23,229.3,M,-24.5,M,,*5D",2011,3,1,60,8,0,0,-15.77,13.06,-20.85,99.13472,"R1.14",1.14,1.424,189,1.369,-14.6,-6.906,-4.931,-4.068,-3.489,-2.617,-1.829,-0.9780,-0.171,0.253,0.667,1.473,1.01,-11.59,-11.95,-11.78,-11.54,-11.18,-10.69,-9.9800,-9.1900,-8.62,-8.01,-7.74,-8.58,-8.37,-8.63,-8.57,-8.82,-8.82,-9.07,-9.3,-9.51,-9.7"2011-03-01 07:30:00","$GPGGA,133057.00,4949.64692,N,09713.16917,W,1,9,1.09,230.5,M,-24.5,M,,*5D",2011,3,1,60,7.0000,30,0,-15.09,13.04,-20.38,99.00545,"R1.12",1.12,1.423,190,1.369,-13.28,-6.727,-4.905,-4.075,-3.497,-2.624,-1.836,-0.9850,-0.179,0.278,0.659,1.443,1.002,-10.98,-11.38,-11.21,-10.93,-10.57,-10.13,-9.58--------------------------------------------
END TRANSMIT

