

RING

RING

CONNECT 4800
--------------------------------------------
CEOS_IMBB06
----------------IMB_data--------------------
"2011-03-02 01:00:00","$GPGGA,070057.99,4949.64620,N,09713.16947,W,1,9,0.98,226.2,M,-24.5,M,,*5E",2011,3,2,61,1,0,0,-26.97,12.79,-28.7,100.7014,"R1.14",1.14,1.446,190,1.368,-21.42,-9.75,-6.183,-4.682,-3.753,-2.702,-1.831,-0.9730,-0.181,0.282,0.653,1.471,0.9690,-18.66,-18.94,-18.19,-17.73,-16.78,-15.54,-14.85,-13.71,-12.94,-11.63,-10.8,-10.98,-10.51,-11.43,-11.36,-12.3,-12.55,-13.19,-13.46,-13.78,-14.49,-14.98,-15.9,-16.7,-16.59
"2011-03-02 00:30:00","$GPGGA,063057.99,4949.64713,N,09713.16887,W,1,8,1.40,231.4,M,-24.5,M,,*55",2011,3,2,61,0,30,0,-26.62,12.8,-29.58,100.6519,"R1.14",1.14,1.451,190,1.37,-21.21,-9.65,-6.119,-4.647,-3.734,-2.695,-1.829,-0.9710,-0.18,0.261,0.638,1.499,0.965,-18.5,-18.73,-18,-17.54,-16.57,-15.34,-14.65,-13.52,-12.75,-11.42,-10.57,-10.7,-10.23,-11.14,-11.08,-12,-12.26,-12.92,-13.18,-13.51,-14.21,-14.7,-15.62,-16.41,-16.29
"2011-03-02 00:00:00","$GPGGA,060057.99,4949.64723,N,09713.17017,W,1,11,0.78,229.2,M,-24.5,M,,*68",2011,3,2,61,0,0,0,-26.3,12.81,-27.98,100.6223,"R1.14",1.14,1.449,189,1.373,-21.15,-9.53,-6.056,-4.617,-3.716,-2.688,-1.822,-0.97,-0.179,0.252,0.622,1.445,0.96,-18.28,-18.53,-17.78,-17.32,-16.36,-15.11,-14.44,-13.32,-12.55,-11.23,-10.34,-10.42,-9.95,-10.84,-10.82,-11.71,-11.98,-12.62,-12.88,-13.22,-13.92,-14.39,-15.29,-16.07,-15.96
"2011-03-01 23:30:00","$GPGGA,053057.99,4949.64626,N,09713.16884,W,1,9,0.86,229.7,M,-24.5,M,,*52",2011,3,1,60,23,30,0,-25.72,12.84,-28.86,100.5853,"R1.14",1.14,1.45,192,1.371,-20.94,-9.41,-5.99,-4.575,-3.702,-2.668,-1.819,-0.9670,-0.181,0.26,0.631,1.465,0.952,-18.03,-18.28,-17.54,-17.08,-16.1,-14.87,-14.19,-13.11,-12.34,-10.99,-10.09,-10.14,-9.6900,-10.54,-10.53,-11.41,-11.68,-12.31,-12.57,-12.9,-13.62,-14.07,-14.96,-15.7,-15.6
"2011-03-01 23:00:00","$GPGGA,050057.00,4949.64656,N,09713.17065,W,1,12,0.69,230.7,M,-24.5,M,,*63",2011,3,1,60,23,0,0,-25.19,12.85,-29.84,100.5853,"R1.14",1.14,1.451,190,1.369,-20.88,-9.2700,-5.923,-4.542,-3.68,-2.662,-1.813,-0.961,-0.176,0.255,0.642,1.46,0.9310,-17.76,-18,-17.25,-16.78,-15.81,-14.57,-13.92,-12.87,-12.12,-10.77,-9.8500,-9.86,-9.42,-10.23,-10.23,-11.09,-11.35,-11.97,-12.23,-12.56,-13.26,-13.72,-14.57,-15.3,-15.21
"2011-03-01 22:30:00","$GPGGA,043057.00,4949.64651,N,09713.16962,W,1,10,0.83,230.0,M,-24.5,M,,*68",2011,3,1,60,22,30,0,-24.47,12.88,-28.42,100.5523,"R1.15",1.15,1.449,190,1.372,-20.48,-9.13,-5.867,-4.508,-3.663,-2.646,-1.808,-0.956,-0.176,0.255,0.653,1.454,0.9580,-17.43,-17.65,-16.94,-16.47,-15.5,-14.3,-13.67,-12.65,-11.92,-10.58,-9.62,-9.57,-9.13,-9.9400,-9.95,-10.77,-11.04,-11.63,-11.89,-12.21,-12.92,-13.34,-14.19,-14.88,-14.8
"2011-03-01 22:00:00","$GPGGA,040057.99,4949.64583,N,09713.16951,W,1,11,0.90,232.2,M,-24.5,M,,*64",2011,3,1,60,22,0,0,-23.7,12.89,-28.82,100.5361,"R1.13",1.13,1.449,189,1.37,-20.18,-9,-5.816,-4.491,-3.652,-2.651,-1.808,-0.9620,-0.182,0.281,0.652,1.485,0.989,-17.06,-17.25,-16.55,-16.1,-15.15,-14,-13.38,-12.42,-11.73,-10.38,-9.4,-9.3100,-8.8900,-9.6400,-9.67,-10.45,-10.71,-11.31,-11.56,-11.86,-12.55,-12.98,-13.78,-14.44,-14.38
"2011-03-01 21:30:00","$GPGGA,033057.00,4949.64551,N,09713.17113,W,1,11,0.91,232.6,M,-24.5,M,,*65",2011,3,1,60,21,30,0,-22.83,12.91,-27.36,100.5029,"R0.95",0.9500,1.444,189,1.37,-19.72,-8.86,-5.76,-4.464,-3.641,-2.635,-1.797,-0.956,-0.177,0.259,0.646,1.453,0.957,-16.66,-16.79,-16.1,-15.71,-14.79,-13.7,-13.1,-12.2,-11.55,-10.22,-9.1900,-9.05,-8.63,-9.37,-9.3900,-10.16,-10.4,-10.96,-11.21,-11.5,-12.17,-12.59,-13.35,-13.98,-13.94
"2011-03-01 21:00:00","$GPGGA,030057.00,4949.64441,N,09713.17002,W,1,9,1.22,235.8,M,-24.5,M,,*5E",2011,3,1,60,21,0,0,-21.92,12.93,-26.1,100.4687,"R1.15",1.15,1.441,192,1.37,-19.3,-8.7300,-5.713,-4.435,-3.634,-2.634,-1.796,-0.956,-0.176,0.265,0.657,1.475,0.9630,-16.19,-16.28,-15.64,-15.28,-14.43,-13.39,-12.84,-12,-11.39,-10.07,-9.01,-8.8100,-8.4,-9.12,-9.13,-9.86,-10.11,-10.64,-10.86,-11.15,-11.82,-12.21,-12.94,-13.53,-13.5
"2011-03-01 20:30:00","$GPGGA,023057.00,4949.64624,N,09713.16836,W,1,11,0.83,233.3,M,-24.5,M,,*6D",2011,3,1,60,20,30,0,-20.86,12.93,-24.25,100.4189,"R1.12",1.12,1.438,190,1.373,-18.6,-8.6000,-5.675,-4.419,-3.618,-2.635,-1.798,-0.957,-0.183,0.258,0.65,1.457,0.9770,-15.71,-15.75,-15.13,-14.84,-14.08,-13.11,-12.6,-11.82,-11.27,-9.96,-8.8500,-8.6000,-8.21,-8.9,-8.9,-9.59,-9.83,-10.34,-10.54,-10.82,-11.45,-11.84,-12.53,-13.06,-13.06
"2011-03-01 20:00:00","$GPGGA,020057.00,4949.64711,N,09713.16878,W,1,11,0.77,236.2,M,-24.5,M,,*6C",2011,3,1,60,20,0,0,-19.83,12.93,-22.83,100.386,"R1.15",1.15,1.431,190,1.37,-18.27,-8.5,-5.641,-4.396,-3.602,-2.624,-1.792,-0.946,-0.177,0.258,0.656,1.462,0.988,-15.23,-15.22,-14.64,-14.4,-13.75,-12.89,-12.4,-11.68,-11.2,-9.9,-8.74,-8.4300,-8.05,-8.7,-8.6900,-9.34,-9.58,-10.05,-10.24,-10.51,-11.11,-11.48,-12.12,-12.6,-12.62
"2011-03-01 19:30:00","$GPGGA,013057.00,4949.64817,N,09713.17039,W,1,11,0.79,237.0,M,-24.5,M,,*64",2011,3,1,60,19,30,0,-18.72,12.92,-22.06,100.386,"R1.04",1.04,1.431,190,1.372,-17.61,-8.41,-5.598,-4.376,-3.597,-2.614,-1.788,-0.947,-0.179,0.273,0.638,1.461,0.9490,-14.67,-14.64,-14.11,-13.96,-13.45,-12.69,-12.23,-11.56,-11.15,-9.8500,-8.66,-8.3,-7.962,-8.58,-8.53,-9.13,-9.36,-9.8,-9.99,-10.25,-10.82,-11.17,-11.76,-12.16,-12.21
"2011-03-01 19:00:00","$GPGGA,010057.00,4949.65020,N,09713.17091,W,1,9,1.18,239.5,M,-24.5,M,,*5C",2011,3,1,60,19,0,0,-17.88,13.07,-21.43,100.3531,"R1.14",1.14,1.426,189,1.369,-17.56,-8.3500,-5.572,-4.361,-3.589,-2.611,-1.785,-0.9450,-0.182,0.264,0.651,1.462,0.989,-14.17,-14.17,-13.72,-13.62,-13.27,-12.61,-12.16,-11.5,-11.14,-9.99,-8.7,-8.28,-7.9920,-8.54,-8.5200,-9.03,-9.26,-9.61,-9.82,-10.12,-10.62,-10.98,-11.44,-11.73,-11.8
"2011-03-01 18:30:00","$GPGGA,003057.00,4949.64678,N,09713.17099,W,1,9,1.08,231.4,M,-24.5,M,,*54",2011,3,1,60,18,30,0,-16.83,13.09,-21.14,100.3139,"R1.15",1.15,1.426,190,1.37,-17.59,-8.29,-5.54,-4.341,-3.574,-2.602,-1.782,-0.947,-0.173,0.279,0.66,1.466,0.9760,-13.67,-13.62,-13.2,-13.21,-13,-12.44,-12,-11.39,-11.07,-9.99,-8.7,-8.3100,-8.04,-8.53,-8.51,-8.9400,-9.13,-9.4400,-9.65,-9.95,-10.4,-10.75,-11.1,-11.28,-11.4
"2011-03-01 18:00:00","$GPGGA,000057.00,4949.64614,N,09713.17053,W,1,9,0.90,230.3,M,-24.5,M,,*5D",2011,3,1,60,18,0,0,-15.6,13.1,-20.77,100.2708,"R1.12",1.12,1.425,186,1.37,-17.32,-8.2,-5.516,-4.328,-3.568,-2.602,-1.781,-0.947,-0.179,0.279,0.66,1.476,0.9920,-13.01,-12.96,-12.64,-12.77,-12.71,-12.25,-11.84,-11.26,-11.02,-10.07,-8.8,-8.33,-8.09,-8.5,-8.4800,-8.86,-8.9800,-9.26,-9.4700,-9.75,-10.15,-10.48,-10.74,-10.86,-10.98
"2011-03-01 17:30:00","$GPGGA,233057.00,4949.64728,N,09713.17109,W,1,8,1.05,231.6,M,-24.5,M,,*57",2011,3,1,60,17,30,0,-14.15,13.11,-20.33,100.2528,"R1.16",1.16,1.424,190,1.37,-16.95,-8.08,-5.472,-4.318,-3.563,-2.591,-1.776,-0.942,-0.179,0.251,0.67,1.459,0.9690,-12.29,-12.1,-11.96,-12.28,-12.4,-12.06,-11.69,-11.14,-10.95,-10.08,-8.82,-8.37,-8.11,-8.4800,-8.4300,-8.7300,-8.8500,-9.1000,-9.29,-9.54,-9.8900,-10.17,-10.38,-10.46,-10.6
"2011-03-01 17:00:00","$GPGGA,230057.00,4949.64738,N,09713.16926,W,1,10,0.80,232.5,M,-24.5,M,,*64",2011,3,1,60,17,0,0,-12.81,13.11,-20.14,100.2199,"R1.12",1.12,1.424,181,1.37,-15.97,-7.87,-5.443,-4.301,-3.557,-2.596,-1.776,-0.947,-0.179,0.251,0.664,1.486,1.013,-11.67,-11.25,-11.24,-11.79,-12.06,-11.82,-11.47,-10.99,-10.86,-9.99,-8.74,-8.3900,-8.11,-8.4400,-8.3900,-8.6400,-8.74,-8.97,-9.1400,-9.36,-9.67,-9.9300,-10.08,-10.13,-10.26
"2011-03-01 16:30:00","$GPGGA,223057.99,4949.64583,N,09713.17135,W,1,9,0.98,226.1,M,-24.5,M,,*5F",2011,3,1,60,16,30,0,-11.7,13.12,-20.2,100.1856,"R1.13",1.13,1.425,178,1.371,-14.69,-7.778,-5.421,-4.29,-3.551,-2.597,-1.777,-0.9480,-0.175,0.25,0.653,1.469,1.006,-11.24,-10.64,-10.72,-11.39,-11.82,-11.63,-11.3,-10.85,-10.77,-9.8900,-8.65,-8.4800,-8.1900,-8.46,-8.38,-8.6000,-8.67,-8.88,-9.03,-9.2300,-9.4800,-9.6900,-9.82,-9.8500,-10
"2011-03-01 16:00:00","$GPGGA,220057.99,4949.64622,N,09713.17125,W,1,9,0.97,234.5,M,-24.5,M,,*5D",2011,3,1,60,16,0,0,-10.67,13.1,-19.96,100.1546,"R1.14",1.14,1.423,186,1.37,-14.13,-7.693,-5.393,-4.273,-3.54,-2.58,-1.766,-0.942,-0.175,0.25,0.669,1.491,1.006,-10.82,-10.11,-10.25,-11.03,-11.58,-11.53,-11.23,-10.77,-10.72,-9.99,-8.8100,-8.54,-8.24,-8.5,-8.4,-8.6400,-8.65,-8.83,-8.97,-9.1400,-9.36,-9.53,-9.62,-9.6400,-9.8
"2011-03-01 15:30:00","$GPGGA,213057.99,4949.64668,N,09713.16995,W,1,10,0.87,234.6,M,-24.5,M,,*6B",2011,3,1,60,15,30,0,-9.9800,13.1,-20.21,100.1205,"R1.14",1.14,1.425,174,1.371,-14.47,-7.702,-5.38,-4.265,-3.533,-2.584,-1.769,-0.946,-0.178,0.251,0.621,1.47,1.013,-10.61,-9.8,-10,-10.83,-11.44,-11.44,-11.12,-10.66,-10.61,-9.8900,-8.7700,-8.71,-8.38,-8.61,-8.5,-8.75,-8.7300,-8.9,-9.03,-9.16,-9.33,-9.45,-9.5200,-9.5200,-9.66
"2011-03-01 15:00:00","$GPGGA,210057.00,4949.64794,N,09713.17013,W,1,10,0.81,235.2,M,-24.5,M,,*6F",2011,3,1,60,15,0,0,-9.32,13.08,-20.12,100.0639,"R1.13",1.13,1.425,177,1.372,-13.87,-7.622,-5.369,-4.261,-3.539,-2.591,-1.776,-0.9480,-0.18,0.255,0.641,1.474,1.011,-10.17,-9.36,-9.6000,-10.5,-11.18,-11.21,-10.96,-10.52,-10.48,-9.79,-8.71,-8.62,-8.3100,-8.54,-8.42,-8.63,-8.65,-8.8,-8.9,-9.03,-9.1900,-9.3,-9.42,-9.4400,-9.55
"2011-03-01 14:30:00","$GPGGA,203057.00,4949.64844,N,09713.17239,W,1,9,0.87,239.6,M,-24.5,M,,*53",2011,3,1,60,14,30,0,-8.8500,13.06,-20.32,100.0048,"R1.15",1.15,1.424,178,1.37,-13.94,-7.6060,-5.359,-4.25,-3.523,-2.58,-1.771,-0.9480,-0.181,0.238,0.619,1.468,1.01,-9.9800,-9.1400,-9.4400,-10.38,-11.09,-11.14,-10.9,-10.45,-10.4,-9.6900,-8.66,-8.74,-8.4300,-8.63,-8.5200,-8.7300,-8.7300,-8.8900,-8.9800,-9.09,-9.22,-9.32,-9.4300,-9.45,-9.53
"2011-03-01 14:00:00","$GPGGA,200057.00,4949.64713,N,09713.17084,W,1,11,0.81,237.3,M,-24.5,M,,*6D",2011,3,1,60,14,0,0,-8.49,13.02,-20.37,99.98838,"R1.14",1.14,1.425,169,1.371,-13.97,-7.5780,-5.342,-4.239,-3.518,-2.575,-1.771,-0.9480,-0.181,0.254,0.668,1.457,0.994,-9.7700,-8.9300,-9.26,-10.21,-10.96,-11.07,-10.86,-10.43,-10.35,-9.6800,-8.6900,-8.82,-8.49,-8.72,-8.62,-8.86,-8.84,-9,-9.1000,-9.2,-9.32,-9.4,-9.5200,-9.54,-9.57
"2011-03-01 13:30:00","$GPGGA,193057.99,4949.64678,N,09713.17104,W,1,10,0.97,236.6,M,-24.5,M,,*63",2011,3,1,60,13,30,0,-8.22,12.98,-20.61,99.9555,"R1.13",1.13,1.425,186,1.37,-13.62,-7.5660,-5.331,-4.217,-3.512,-2.58,-1.771,-0.9480,-0.181,0.265,0.635,1.478,1.01,-9.61,-8.82,-9.1400,-10.13,-10.9,-10.99,-10.8,-10.38,-10.29,-9.58,-8.59,-8.78,-8.49,-8.75,-8.66,-8.8900,-8.9,-9.07,-9.17,-9.28,-9.42,-9.51,-9.66,-9."2011-03-01 13:00:00","$GPGGA,190057.99,4949.64689,N,09713.17053,W,1,10,0.96,236.9,M,-24.5,M,,*63",2011,3,1,60,13,0,0,-8.51,13.09,-20.32,99.9269,"R1.14",1.14,1.424,190,1.37,-13.67,-7.6,-5.325,-4.206,-3.501,-2.574,-1.776,-0.9530,-0.18,0.244,0.641,1.479,1.005,-9.71,-9,-9.3,-10.27,-10.99,-11.04,-10.83,-10.4,-10.31,-9.5600,-8.59,-8.83,-8.59,-8.86,-8.75,-9.03,-9.03,-9.22,-9.3,-9.42,-9.57,-9.66,-9.86,-9.9300,-9.9
"2011-03-01 12:30:00","$GPGGA,183057.99,4949.64772,N,09713.17131,W,1,10,0.95,238.2,M,-24.5,M,,*67",2011,3,1,60,12,30,0,-8.8,13.09,-20.56,99.89808,"R1.14",1.14,1.424,186,1.369,-13."2011-03-01 12:00:00","$GPGGA,180057.99,4949.64677,N,09713.17142,W,1,10,1.04,234.9,M,-24.5,M,,*6A",2011,3,1,60,12,0,0,-9.28,13.08,-20.54,99.84226,"R1.14",1.14,1.423,189,1.368,-14.12,-7.659,-5.282,-4.168,-3.485,-2.575,-1.782,-0.9530,-0.169,0.266,0.674,1.463,1.001,-10.16,-9.58,-9.78,-10.67,-11.34,-11.32,-11.02,-10.51,-10.36,-9.6000,-8.65,-8.9,-8.72,-9.05,-8.96,-9.25,-9.28,-9.5,-9.63,-9.8100,-9.99,-10.12,-10.33,-10.44,-10.39
"2011-03-01 11:30:00","$GPGGA,173057.99,4949.64716,N,09713.17169,W,1,11,0.87,239.0,M,-24.5,M,,*66",2011,3,1,60,11,30,0,-10.14,13.07,-20.25,99.78256,"R1.13",1.13,1.423,190,1.369,-14.41,-7.699,-5.259,-4.152,-3.485,-2.58,-1.782,-0.9530,-0.175,0.272,0.653,1.491,1.012,-10.54,-10.09,-10."2011-03-01 11:00:00","$GPGGA,170057.00,4949.64636,N,09713.17181,W,1,11,0.85,235.1,M,-24.5,M,,*6F",2011,3,1,60,11,0,0,-11.04,13.06,-20.49,99.69374,"R1.11",1.11,1.426,182,1.371,-15.05,-7.7310,-5.21 j
"2011-03-01 10:30:00","$GPGGA,163057.00,4949.64673,N,09713.17032,W,1,10,1.01,236.1,M,-24.5,M,,*6A",2011,3,1,60,10,30,0,-12.1,13.06,-20.96,99.62797,"R1.14",1.14,1.426,190,1.37,-15.68,-7.706,-5.16,-4.108,-3.475,-2.58,-1.793,-0.9580,-0.174,0.3,0.724,1.503,1.024,-11.44,-11.21,-11.17,-11.65,-12.09,-11.89,-11.39,-10.66,-10.3,-9.54,-8.78,-9.41,-9.17,-9.49,-9.36,-9.62,-9.65,-9.91,-10.13,-10.34,-10.55,-10.69,-10.87,-11,-11.04
"2011-03-01 10:00:00","$GPGGA,160057.99,4949.64606,N,09713.17068,W,1,9,0.93,234.7,M,-24.…¢ÇÇbj rí bj rÇ∫bj r¢öÇÇbj rö¢bj r≤¢ÇÇbj r≤öbj r äbjäÇrä≤bjäÇr¢äbjäÇr≤íbjäÇr∫ "2011-03-01 09:30:00","$GPGGA,153057.99,4949.64854,N,09713.16925,W,1,11,0.71,236.4,M,-24.5,M,,*6E",2011,3,1,60,9,30,0,-13.93,13.05,-21.06,99.48004,"R1.08",1.08,1.425,190,1.369,-16.1,-7.496,-5.049,-4.086,-3.48,-2.597,-1.815,-0.9690,-0.174,0.284,0.6860,1.503,1.007,-12.03,-12.02,-11.78,-11.98,-12.08,-11.65,-10.99,-10.16,-9.6400,-8.8500,-8.34,-9.15,-8.96,-9.2700,-9.17,-9.41,-9.46,-9.7300,-9.9700,-10.22,-10.48,-10.66,-10.83,-10.95,-11.02
"2011-03-01 09:00:00","$GPGGA,150057.99,4949.64764,N,09713.17017,W,1,8,1.15,232.4,M,-24.5,M,,*57",2011,3,1,60,9,0"2011-03-01 08:30:00","$GPGGA,143057.99,4949.64675,N,09713.16977,W,1,8,0.92,231.2,M,-24.5,M,,*51",2011,3,1,60,8,30,0,-15.52,13.06,-20.85,99.28327,"R1.13",1.13,1.425,189,1.37,-15.42,-7.101,-4.95,-4.064,-3.486,-2.608,-1.814,-0.9680,-0.167,0.285,0.671,1.493,1.014,-12,-12.27,-12.05,-11.93,-11.66,-11.11,-10.4,-9.5600,-8.95,-8.3100,-7.9590,-8.82,-8.59,-8.88,-8.82,-9.0600,-9.08,-9.34,-9.59,-9.84,-10.09,-10.29,-10.39,-10.45,-10.56
"2011-03-01 08:00:00","$GPGGA,140057.00,4949.64491,N,09713.16741,W,1,7,1.23,229.3,M,-24.5,M,,*5D",2011,3,1,60,8,0,0,-15.77,13.06,-20.85,99.13472,"R1.14",1.14,1.424,189,1.369,-14.6,-6.906,-4.931,-4.068,-3.489,-2.617,-1.829,-0.9780,-0.171,0.253,0.667,1.473,1.01,-11.59,-11.95,-11.78"2011-03-01 07:30:00","$GPGGA,133057.00,4949.64692,N,09713.16917,W,1,9,1.09,230.5,M,-24.5,M,,*5D",2011,3,1,60,7.0000,30,0,-15.09,13.04,-20.38,99.00545,"R1.12",1.12,1.423,190,1.369,-13.28,-6.727,-4.905,-4.075,-3.497,-2.624,-1.836,-0.9850"2011-03-01 07:00:00","$GPGGA,130057.00,4949.64462,N,09713.16951,W,1,9,1.11,228.4,M,-24.5,M,,*50",2011,3,1,60,7.0000,0,0,-14.42,13.17,-19.5,98.93731,"R1.13",1.13,1.421,191,1.369,-11.57,-6.563,-4.894,-4.069,-3.513,-2.64,-1.842,-0.9850,-0.174,0.278,0.648,1.459,1.013,-10.37,-10.73,-10.64,-10.34,-10.05,-9.7300,-9.26,-8.59,-8.08,-7.587,-7.45,-8.29,-8.05,-8.2700,-8.2,-8.41,-8.41,-8.62,-8.78,-8.96,-9.1400,-9.3100,-9.4300,-9.51,-9.61
"2011-03-01 06:30:00","$GPGGA,123057.99,4949.64605,N,09713.17041,W,1,10,0.91,231.26,-8.03,-7.911,-8.13,-8.13,-8.3500,-8.4800,-8.6400,-8.83,-9.01,-9.16,-9.25,-9."2011-03-01 06:00:00","$GPGGA,120057.99,4949.64569,N,09713.16926,W,1,10,0.81,232.3,M,-24.5,M,,*67",2011,3,1,60,6,0,0,-13.59,13.19,-18.28,98.73998,"R1.13",1.13,1.417,189,1.369,-11.84,-6.518,-4.871,-4.075,-3.519,-2.651,-1.858,-0.9910,-0.174,0.284,0.637,1.421,0.9910,-9.53,-9.65,-9.5600,-9.36,-9.1800,-8.96,-8.66,-8.09,-7.6320,-7.195,-7.088,-7.877,-7.655,-7.871,-7.786,-7.9800,-7.997,-8.1900,-8.32,-8.46,-8.6400,-8.8100,-8.96,-9.03,-9.1000
"2011-03-01 05:30:00","$GPGGA,113057.99,4949.64560,N,09713.16995,W,1,9,0.8"2011-03-01 05:00:00","$GPGGA,110057.99,4949.64563,N,09713.16825,W,1,9,0.84,235.2,M,-24.5,M,,*57",2011,3,1,60,5,0,0,-12.74,13.21,-17.21,98.47686,"R1.15",1.15,1.414,189,1.369,-10.95,-6.412,-4.855,-4.081,-3.536,-2.668,-1.875,-1.002,-0.164,0.288,0.664,1.475,1.001,-9.32,-9.32,-9.2,-9.07,-8.9300,-8.62,-8.33,-7.7290,-7.247,-6.8680,-6.806,-7.502,-7.281,-7.496,-7.457,-7.6500,-7.667,-7.8490,-7.963,-8.09,-8.2700,-8.4300,-8.58,-8.65,-8.6900
"2011-03-01 04:30:00","$GPGGA,103057.99,4949.64528,N,09713.17035,W,1,8,0.93,232.6,M,-24.5,M,,*56",2011,3,1,60,4,30,0"2011-03-01 04:00:00","$GPGGA,100057.99,4949.64615,N,09713.16972,W,1,10,0.84,233.5,M,-24.5,M,,*6E",2011,3,1,60,4,0,0,-12.05,13.22,-15.76,98.29598,"R1.13",1.13,1.41,189,1.369,-11.56,-6.42,-4.858,-4.101,-3.566,-2.705,-1.895,-1.012,-0.173,0.284,0.649,1.427,0.9640,-9.57,-9.51,-9.2700,-9.0600,-8.83,-8.46,-8.11,-7.4470,-6.9270,-6.51,-6.375,-6.9610,-6.814,-7.0850,-7.102,-7.3230,-7.351,-7.5380,-7.646,-7.7770,-7.9940,-8.17,-8.33,-8.3900,-8.3900
"2011-03-01 03:30:00","$GPGGA,093057.00,4949.64638,N,09713.17140,W,1,11,0.76,230.0,M,-24.5,M,,*68",2011,3,1,60,3,30,0,-11.68,13.22,-15.13,98.22198,"R1.14",1.14,1.408,189,1.368,-11.25,-6.343,-4.843,-4.108,-3.579,-2.723,-1.913,-1."2011-03-01 03:00:00","$GPGGA,090057.00,4949.64596,N,09713.17003,W,1,10,0.77,231.3,M,-24.5,M,,*68",2011,3,1,60,3,0,0,-11.58,13.22,-13.76,98.13154,"R1.13",1.13,1.405,173,1.369,-11.12,-6.292,-4.837,-4.119,-3.59,-2.733,-1.919,-1.024,-0.175,0.293,0.642,1.431,0.957,-9.46,-9.4800,-9.22,-8.99,-8.65,-8.17,-7.778,-7.0980,-"2011-03-01 02:30:00","$GPGGA,083057.00,4949.64665,N,09713.17101,W,1,9,0.84,233.3,M,-24.5,M,,*50",2011,3,1,60,2,30,0,-11.53,13.2,-13.71,98.1137,"R1.13",1.13,1.406,169,1.37,-11.2,-6.264,-4.837,-4.124,-3.612,-2.755,-1.929,-1.035,-0.175,0.304,0.642,1.425,0.957,-9.4300,-9.45,-9.16,-8.9,-8.53,-8.01,-7.613,-6.9680,-6.472,-6.046,-5.817,-6.052,-6.052,-6.332,-6.354,-6.59,-6.708,-6.906,-6.985,-7.109,-"2011-03-01 02:00:00","$GPGGA,080057.00,4949.64582,N,09713.17064,W,1,10,0.87,229.6,M,-24.5,M,,*6E",2011,3,1,60,2,0,0,-"2011-03-01 01:30:00","$GPGGA,073057.00,4949.64702,N,09713.17028,W,1,10,0.90,230.8,M,-24.5,M,,*60",2011,3,1,60,1,30,0,-10.67,13.17,-12.05,98.04197,"R1.15",1.15,1.402,170,1.371,-10.49,-6.141,-4.821,-4.152,-3.639,-2.777,-1.951,-1.04,-0.175,0.272,0.653,1.409,0.9680,-9.07,-9.16,-8.9300,-8.67,-8.3,-7.778,-7.4150,-6.8490,-6.371,-5.956,-5.739,-5.923,-5.906,-6.141,-6.136,-6.337,-6.438,-6.601,-6.669,-6.7700,-7.041,-7.233,-7.4600,-7.574,-7.568
"2011-03-01 01:00:00","$GPGGA,070057.00,4949.64788,N,09713.17233,W,1,9,0.97,233.7,M,-24.5,M,,*5A",2011,3,1,60,1,"2011-03-01 00:30:00","$GPGGA,063057.00,4949.64711,N,09713.17020,W,1,9,0.92,235.5,M,-24.5,M,,*59",2011,3,1,60,0,30,0,-9.9800,13.31,-11.09,97.96713,"R1.14",1.14,1.398,182,1.369,-10.1,-6.039,-4.825,-4.183,-3.688,-2.815,-1.967,-1.05,-0.179,0.245,0.615,1.404,0.9580,-8.57,-8.74,-8.67,-8.45,-8.1900,-7.765,-7.419,-6.8760,-6.426,-6.033,-5.888,-6.044,-5.977,-6.1,-6.067,-6.201,-6.274,-6.409,-6.448,-6.521,-6.74,-6.8810,-7.0790,-7.147,-7.181
"2011-03-01 00:00:00","$GPGGA,060057.99,4949.64577,N,09713.16928,W,1,10,0.85,233.6,M,-24.5,M,,*63",2011,3,1,60,0,0,0,-9.46,13.32,-10.56,97.93018,"R1.15",1.15,1.397,169,1.37,-9.76,-5.972,-4.837,-4.206,-3.716,-2.832,-1.99,-1.057,-0.181,"2011-02-28 23:30:00","$GPGGA,053057.99,4949.64653,N,09713.16940,W,1,10,0.79,231.0,M,-24.5,M,,*6F",2011,2,28,59,23,30,0,-8.96,13.32,-9.9300,97.95891,"R1.14",1.14,1.397,169,1.371,-9.37,-5.905,-4.842,-4.223,-3.732,-2.854,-1.995,-1.057,-0.181,0.254,0.63,1.402,0.9670,-7.9990,-8.1400,-8.1400,-7.93,-7.765,-7.4920,-7.209,-6.774,-6.387,-6.039,-5.983,-6.213,-6"2011-02-28 23:00:00","$GPGGA,050057.99,4949.64638,N,09713.16989,W,1,11,0.75,233.6,M,-24.5,M,,*6D",2011,2,28,59,23,0,0,-8.4,13.33,-9,97.98356,"R1.14",1.14,1.394,172,1.371,-8.82,-5.849,-4.848,-4.245,-3.754,-2.876,-2.012,-1.068,-0.181,0.254,0.635,1.419,0.9670,-7.6970,-7.833,-7.8560,-7.6970,-7.623,-7.396,-7.153,-6.758"2011-02-28 22:30:00","$GPGGA,043057.99,4949.64551,N,09713.17054,W,1,9,0.89,231.1,M,-24.5,M,,*54",2011,2,28,59,22,30,0,-8.08,13.33,-8.5600,97.99999,"R1.07",1.07,1.392,168,1.37,-8.5,-5.81,-4.864,-4."2011-02-28 22:00:00","$GPGGA,040057.99,4949.64560,N,09713.17053,W,1,10,0.96,232.7,M,-24.5,M,,*61",2011,2,28,59,22,0,0,-7.838,13.33,-7.735,97.96713,"R1.15",1.15,1.39,169,1.37,-8.38,-5.777,-4.87,-4.295,-3.804,-2.903,-2.033,-1.074,-0.181,0.238,0.608,1.419,0.9670,-7.436,-7.5380,-7.6060,-7.4470,-7.4410,-7.266,-7.034,-6.701,-6.375,-6.095,-6.09,-6.375,-6.207,-6.207,-6.129,-6.207,-6.162,-6.235,-6.241,-6.258,-6.342,-6.398,-6.465,-6.527,-6.611
"2011-02-28 21:30:00","$GPGGA,033057.00,4949.64575,N,09713.17218,W,1,8,©…rä¬™bj≤rä ≤bj≤rí∫¢bj≤röä bj≤rö ¬bj≤r¢∫≤bj≤r™™™j
"2011-02-28 21:00:00","$GPGGA,030057.00,4949.64653,N,09713.17127,W,1,9,1.09,233.1,M,-24.5,M,,*5F",2011,2,28,59,21,0,0,-7.083,13.32,-7.6380,97.93426,"R1.15",1.15,1.39,170,1.37,-7.561,-5.71,-4.914,-4.344,-3.848,-2.942,-2.05,-1.079,-0.181,0.254,0.646,1.419,0.9830,-7.062,-7.0400,-7.062,-6.972,-6.972,-6.8360,-6.679,-6.437,-6.202,-6,-6.039,-6.33,-6.162,-6.168,-6.095,-6.151,-6.106,-6.168,-6.157,-6.162,-6.252,-6.297,-6.364,-6.448,-6.527
"2011-02-28 20:30:00","$GPGGA,023057.99,4949.64650,N,09713.16841,W,1,9,0.97,237.0,M,-24.5,M,,*55",2011,2,28,59,20,30,0,-7.017,13.3,-7.5400,97.98356,"R1.15",1.15,1.389,169,1.37,-7.583,-"2011-02-28 20:00:00","$GPGGA,020057.99,4949.64755,N,09713.16921,W,1,12,0.70,235.8,M,-24.5,M,,*6C",2011,2,28,59,20,0,0,-6.864,13.29,-7.7430,97.9507,"R1.14",1.14,1.39,169,1.37,-7.7240,-5.697,-4.947,-4.41,-3.908,-2.979,-2.066,-1.095,-0.181,0.238,0.641,1.435,0.9450,-7.1120,-7.044,-7.083,-6.9540,-6.9080,-6.773,-6.593,-6.357,-6.156,-5.993,-6.038,-6.346,-6.167,-6.167,-6.1,-6.139,-6.083,-6.128,-6."2011-02-28 19:30:00","$GPGGA,013057.99,4949.64806,N,09713.16903,W,1,10,0.82,234.2,M,-24.5,M,,*61",2011,2,28,59,19,30,0,-6.599,13.25,-7.456,98.01643,"R0.98",0.98,1.389,169,1.37,-7.544,-5.672,-4.966,-4.445,-3.938,-3.004,-2.085,-1.098,-0.183,0.246,0.654,1.372,0.943,-7.035,-6.96--------------------------------------------
END TRANSMIT

