

RING

RING

CONNECT 4800
--------------------------------------------
CEOS_IMBB06
----------------IMB_data--------------------
"2011-03-02 07:00:00","$GPGGA,130057.99,4949.64426,N,09713.17050,W,1,8,1.28,217.6,M,-24.5,M,,*5C",2011,3,2,61,7.0000,0,0,-27.18,12.67,-29.19,100.8332,"R1.14",1.14,1.45,189,1.37,-20.91,-10.46,-6.8690,-5.204,-4.083,-2.915,-1.955,-1.032,-0.186,0.272,0.643,1.488,0.97,-19,-19.21,-18.63,-18.33,-17.67,-16.67,-16.17,-15.18,-14.6,-13.58,-12.99,-13.53,-12.96,-13.93,-13.76,-14.65,-14.82,-15.41,-15.57,-15.82,-16.35,-16.74,-17.68,-18.52,-18.33
"2011-03-02 06:30:00","$GPGGA,123057.00,4949.64695,N,09713.17037,W,1,9,1.00,228.9,M,-24.5,M,,*5D",2011,3,2,61,6,30,0,-27.4,12.67,-29.09,100.8335,"R1.14",1.14,1.451,190,1.372,-21.14,-10.46,-6.8300,-5.159,-4.055,-2.898,-1.939,-1.026,-0.186,0.283,0.643,1.455,0.9480,-19.15,-19.35,-18.77,-18.46,-17.75,-16.72,-16.17,-15.15,-14.54,-13.47,-12.89,-13.39,-12.82,-13.83,-13.62,-14.57,-14.72,-15.33,-15.51,-15.78,-16.33,-16.72,-17.68,-18.55,-18.35
"2011-03-02 06:00:00","$GPGGA,120057.00,4949.64727,N,09713.16970,W,1,9,0.88,232.3,M,-24.5,M,,*5D",2011,3,2,61,6,0,0,-27.69,12.67,-28.79,100.8533,"R1.14",1.14,1.448,190,1.37,-21.29,-10.45,-6.785,-5.12,-4.022,-2.876,-1.934,-1.021,-0.186,0.272,0.632,1.455,0.9480,-19.24,-19.48,-18.86,-18.52,-17.8,-16.72,-16.17,-15.1,-14.46,-13.36,-12.74,-13.24,-12.69,-13.66,-13.49,-14.45,-14.62,-15.25,-15.44,-15.71,-16.28,-16.72,-17.67,-18.54,-18.35
"2011-03-02 05:30:00","$GPGGA,113057.00,4949.64667,N,09713.17002,W,1,8,0.96,236.7,M,-24.5,M,,*5B",2011,3,2,61,5,30,0,-27.9,12.67,-30.16,100.7985,"R1.14",1.14,1.449,190,1.367,-21.47,-10.41,-6.734,-5.076,-3.995,-2.854,-1.917,-1.015,-0.186,0.272,0.654,1.466,0.9480,-19.36,-19.61,-18.97,-18.61,-17.83,-16.7,-16.11,-15.02,-14.36,-13.21,-12.6,-13.06,-12.52,-13.51,-13.32,-14.29,-14.46,-15.11,-15.32,-15.62,-16.21,-16.64,-17.6,-18.48,-18.3
"2011-03-02 05:00:00","$GPGGA,110057.00,4949.64792,N,09713.17049,W,1,8,1.00,236.4,M,-24.5,M,,*51",2011,3,2,61,5,0,0,-28.05,12.67,-30.46,100.8164,"R1.14",1.14,1.454,192,1.371,-21.78,-10.39,-6.677,-5.031,-3.972,-2.838,-1.912,-1.01,-0.186,0.267,0.648,1.455,0.9480,-19.48,-19.74,-19.05,-18.66,-17.82,-16.67,-16.04,-14.93,-14.24,-13.07,-12.43,-12.87,-12.33,-13.32,-13.14,-14.12,-14.31,-14.95,-15.18,-15.48,-16.09,-16.54,-17.5,-18.38,-18.2
"2011-03-02 04:30:00","$GPGGA,103057.00,4949.64723,N,09713.17097,W,1,7,1.02,232.1,M,-24.5,M,,*56",2011,3,2,61,4,30,0,-28.12,12.68,-29.53,100.8011,"R1.14",1.14,1.45,190,1.369,-21.93,-10.35,-6.627,-4.987,-3.934,-2.822,-1.895,-1.004,-0.186,0.267,0.637,1.472,0.97,-19.48,-19.75,-19.05,-18.63,-17.75,-16.59,-15.93,-14.82,-14.11,-12.91,-12.25,-12.67,-12.13,-13.11,-12.96,-13.94,-14.14,-14.79,-15.01,-15.31,-15.94,-16.4,-17.37,-18.24,-18.08
"2011-03-02 04:00:00","$GPGGA,100057.00,4949.64660,N,09713.17083,W,1,10,0.85,230.2,M,-24.5,M,,*6F",2011,3,2,61,4,0,0,-28.12,12.68,-28.6,100.7982,"R1.14",1.14,1.448,189,1.37,-21.96,-10.27,-6.565,-4.942,-3.906,-2.8,-1.89,-0.9990,-0.186,0.245,0.637,1.455,0.9480,-19.42,-19.71,-19,-18.56,-17.67,-16.48,-15.81,-14.69,-13.96,-12.75,-12.07,-12.46,-11.94,-12.91,-12.77,-13.73,-13.95,-14.61,-14.82,-15.15,-15.79,-16.25,-17.21,-18.07,-17.91
"2011-03-02 03:30:00","$GPGGA,093057.00,4949.64638,N,09713.17052,W,1,11,0.76,228.2,M,-24.5,M,,*61",2011,3,2,61,3,30,0,-28.09,12.69,-29.48,100.7713,"R1.14",1.14,1.448,190,1.368,-22.05,-10.2,-6.497,-4.898,-3.884,-2.778,-1.873,-0.988,-0.186,0.267,0.654,1.455,0.9480,-19.32,-19.59,-18.88,-18.44,-17.53,-16.33,-15.67,-14.52,-13.81,-12.59,-11.87,-12.23,-11.71,-12.68,-12.57,-13.53,-13.76,-14.41,-14.64,-14.95,-15.61,-16.08,-17.02,-17.88,-17.72
"2011-03-02 03:00:00","$GPGGA,090057.00,4949.64653,N,09713.16979,W,1,10,0.78,230.9,M,-24.5,M,,*63",2011,3,2,61,3,0,0,-27.76,12.69,-31.14,100.7509,"R1.15",1.15,1.455,190,1.37,-21.87,-10.1,-6.441,-4.853,-3.856,-2.756,-1.862,-0.9830,-0.186,0.272,0.665,1.455,0.9320,-19.17,-19.44,-18.7,-18.27,-17.37,-16.17,-15.51,-14.36,-13.63,-12.38,-11.67,-12,-11.5,-12.45,-12.35,-13.31,-13.53,-14.19,-14.44,-14.74,-15.41,-15.89,-16.83,-17.67,-17.53
"2011-03-02 02:30:00","$GPGGA,083057.00,4949.64662,N,09713.17081,W,1,8,1.00,232.8,M,-24.5,M,,*58",2011,3,2,61,2,30,0,-27.36,12.69,-30.31,100.7509,"R1.14",1.14,1.455,189,1.372,-21.6,-10.01,-6.373,-4.809,-3.818,-2.745,-1.857,-0.9830,-0.18,0.272,0.643,1.455,0.965,-19,-19.26,-18.53,-18.13,-17.21,-16.01,-15.35,-14.21,-13.47,-12.21,-11.48,-11.76,-11.27,-12.21,-12.11,-13.08,-13.3,-13.96,-14.21,-14.54,-15.2,-15.69,-16.62,-17.48,-17.33
"2011-03-02 02:00:00","$GPGGA,080057.00,4949.64567,N,09713.17194,W,1,8,1.10,235.5,M,-24.5,M,,*53",2011,3,2,61,2,0,0,-26.97,12.68,-28.99,100.7509,"R1.15",1.15,1.448,190,1.369,-21.29,-9.92,-6.317,-4.764,-3.796,-2.728,-1.846,-0.9770,-0.18,0.272,0.643,1.466,0.97,-18.88,-19.14,-18.41,-17.99,-17.08,-15.88,-15.2,-14.06,-13.3,-12.02,-11.27,-11.51,-11.02,-11.96,-11.87,-12.82,-13.06,-13.73,-13.98,-14.31,-14.99,-15.48,-16.4,-17.25,-17.12
"2011-03-02 01:30:00","$GPGGA,073057.00,4949.64644,N,09713.17009,W,1,10,0.88,230.0,M,-24.5,M,,*61",2011,3,2,61,1,30,0,-27.04,12.65,-27.57,100.7014,"R1.14",1.14,1.443,190,1.368,-21.51,-9.8500,-6.25,-4.72,-3.768,-2.712,-1.841,-0.9720,-0.181,0.272,0.632,1.477,0.97,-18.83,-19.09,-18.35,-17.9,-16.95,-15.72,-15.02,-13.91,-13.12,-11.84,-11.03,-11.27,-10.77,-11.7,-11.63,-12.55,-12.82,-13.46,-13.72,-14.06,-14.75,-15.23,-16.17,-16.99,-16.86
"2011-03-02 01:00:00","$GPGGA,070057.99,4949.64620,N,09713.16947,W,1,9,0.98,226.2,M,-24.5,M,,*5E",2011,3,2,61,1,0,0,-26.97,12.79,-28.7,100.7014,"R1.14",1.14,1.446,190,1.368,-21.42,-9.75,-6.183,-4.682,-3.753,-2.702,-1.831,-0.9730,-0.181,0.282,0.653,1.471,0.9690,-18.66,-18.94,-18.19,-17.73,-16.78,-15.54,-14.85,-13.71,-12.94,-11.63,-10.8,-10.98,-10.51,-11.43,-11.36,-12.3,-12.55,-13.19,-13.46,-13.78,-14.49,-14.98,-15.9,-16.7,-16.59
"2011-03-02 00:30:00","$GPGGA,063057.99,4949.64713,N,09713.16887,W,1,8,1.40,231.4,M,-24.5,M,,*55",2011,3,2,61,0,30,0,-26.62,12.8,-29.58,100.6519,"R1.14",1.14,1.451,190,1.37,-21.21,-9.65,-6.119,-4.647,-3.734,-2.695,-1.829,-0.9710,-0.18,0.261,0.638,1.499,0.965,-18.5,-18.73,-18,-17.54,-16.57,-15.34,-14.65,-13.52,-12.75,-11.42,-10.57,-10.7,-10.23,-11.14,-11.08,-12,-12.26,-12.92,-13.18,-13.51,-14.21,-14.7,-15.62,-16.41,-16.29
"2011-03-02 00:00:00","$GPGGA,060057.99,4949.64723,N,09713.17017,W,1,11,0.78,229.2,M,-24.5,M,,*68",2011,3,2,61,0,0,0,-26.3,12.81,-27.98,100.6223,"R1.14",1.14,1.449,189,1.373,-21.15,-9.53,-6.056,-4.617,-3.716,-2.688,-1.822,-0.97,-0.179,0.252,0.622,1.445,0.96,-18.28,-18.53,-17.78,-17.32,-16.36,-15.11,-14.44,-13.32,-12.55,-11.23,-10.34,-10.42,-9.95,-10.84,-10.82,-11.71,-11.98,-12.62,-12.88,-13.22,-13.92,-14.39,-15.29,-16.07,-15.96
"2011-03-01 23:30:00","$GPGGA,053057.99,4949.64626,N,09713.16884,W,1,9,0.86,229.7,M,-24.5,M,,*52",2011,3,1,60,23,30,0,-25.72,12.84,-28.86,100.5853,"R1.14",1.14,1.45,192,1.371,-20.94,-9.41,-5.99,-4.575,-3.702,-2.668,-1.819,-0.9670,-0.181,0.26,0.631,1.465,0.952,-18.03,-18.28,-17.54,-17.08,-16.1,-14.87,-14.19,-13.11,-12.34,-10.99,-10.09,-10.14,-9.6900,-10.54,-10.53,-11.41,-11.68,-12.31,-12.57,-12.9,-13.62,-14.07,-14.96,-15.7,-15.6
"2011-03-01 23:00:00","$GPGGA,050057.00,4949.64656,N,09713.17065,W,1,12,0.69,230.7,M,-24.5,M,,*63",2011,3,1,60,23,0,0,-25.19,12.85,-29.84,100.5853,"R1.14",1.14,1.451,190,1.369,-20.88,-9.2700,-5.923,-4.542,-3.68,-2.662,-1.813,-0.961,-0.176,0.255,0.642,1.46,0.9310,-17.76,-18,-17.25,-16.78,-15.81,-14.57,-13.92,-12.87,-12.12,-10.77,-9.8500,-9.86,-9.42,-10.23,-10.23,-11.09,-11.35,-11.97,-12.23,-12.56,-13.26,-13.72,-14.57,-15.3,-15.21
"2011-03-01 22:30:00","$GPGGA,043057.00,4949.64651,N,09713.16962,W,1,10,0.83,230.0,M,-24.5,M,,*68",2011,3,1,60,22,30,0,-24.47,12.88,-28.42,100.5523,"R1.15",1.15,1.449,190,1.372,-20.48,-9.13,-5.867,-4.508,-3.663,-2.646,-1.808,-0.956,-0.176,0.255,0.653,1.454,0.9580,-17.43,-17.65,-16.94,-16.47,-15.5,-14.3,-13.67,-12.65,-11.92,-10.58,-9.62,-9.57,-9.13,-9.9400,-9.95,-10.77,-11.04,-11.63,-11.89,-12.21,-12.92,-13.34,-14.19,-14.88,-14.8
"2011-03-01 22:00:00","$GPGGA,040057.99,4949.64583,N,09713.16951,W,1,11,0.90,232.2,M,-24.5,M,,*64",2011,3,1,60,22,0,0,-23.7,12.89,-28.82,100.5361,"R1.13",1.13,1.449,189,1.37,-20.18,-9,-5.816,-4.491,-3.652,-2.651,-1.808,-0.9620,-0.182,0.281,0.652,1.485,0.989,-17.06,-17.25,-16.55,-16.1,-15.15,-14,-13.38,-12.42,-11.73,-10.38,-9.4,-9.3100,-8.8900,-9.6400,-9.67,-10.45,-10.71,-11.31,-11.56,-11.86,-12.55,-12.98,-13.78,-14.44,-14.38
"2011-03-01 21:30:00","$GPGGA,033057.00,4949.64551,N,09713.17113,W,1,11,0.91,232.6,M,-24.5,M,,*65",2011,3,1,60,21,30,0,-22.83,12.91,-27.36,100.5029,"R0.95",0.9500,1.444,189,1.37,-19.72,-8.86,-5.76,-4.464,-3.641,-2.635,-1.797,-0.956,-0.177,0.259,0.646,1.453,0.957,-16.66,-16.79,-16.1,-15.71,-14.79,-13.7,-13.1,-12.2,-11.55,-10.22,-9.1900,-9.05,-8.63,-9.37,-9.3900,-10.16,-10.4,-10.96,-11.21,-11.5,-12.17,-12.59,-13.35,-13.98,-13.94
"2011-03-01 21:00:00","$GPGGA,030057.00,4949.64441,N,09713.17002,W,1,9,1.22,235.8,M,-24.5,M,,*5E",2011,3,1,60,21,0,0,-21.92,12.93,-26.1,100.4687,"R1.15",1.15,1.441,192,1.37,-19.3,-8.7300,-5.713,-4.435,-3.634,-2.634,-1.796,-0.956,-0.176,0.265,0.657,1.475,0.9630,-16.19,-16.28,-15.64,-15.28,-14.43,-13.39,-12.84,-12,-11.39,-10.07,-9.01,-8.8100,-8.4,-9.12,-9.13,-9.86,-10.11,-10.64,-10.86,-11.15,-11.82,-12.21,-12.94,-13.53,-13.5
"2011-03-01 20:30:00","$GPGGA,023057.00,4949.64624,N,09713.16836,W,1,11,0.83,233.3,M,-24.5,M,,*6D",2011,3,1,60,20,30,0,-20.86,12.93,-24.25,100.4189,"R1.12",1.12,1.438,190,1.373,-18.6,-8.6000,-5.675,-4.419,-3.618,-2.635,-1.798,-0.957,-0.183,0.258,0.65,1.457,0.9770,-15.71,-15.75,-15.13,-14.84,-14.08,-13.11,-12.6,-11.82,-11.27,-9.96,-8.8500,-8.6000,-8.21,-8.9,-8.9,-9.59,-9.83,-10.34,-10.54,-10.82,-11.45,-11.84,-12.53,-13.06,-13.06
"2011-03-01 20:00:00","$GPGGA,020057.00,4949.64711,N,09713.16878,W,1,11,0.77,236.2,M,-24.5,M,,*6C",2011,3,1,60,20,0,0,-19.83,12.93,-22.83,100.386,"R1.15",1.15,1.431,190,1.37,-18.27,-8.5,-5.641,-4.396,-3.602,-2.624,-1.792,-0.946,-0.177,0.258,0.656,1.462,0.988,-15.23,-15.22,-14.64,-14.4,-13.75,-12.89,-12.4,-11.68,-11.2,-9.9,-8.74,-8.4300,-8.05,-8.7,-8.6900,-9.34,-9.58,-10.05,-10.24,-10.51,-11.11,-11.48,-12.12,-12"2011-03-01 19:30:00","$GPGGA,013057.00,4949.64817,N,09713.17039,W,1,11,0.79,237.0,M,-24.5,M,,*64",2011,3,1,60,19,30,0,-18.72,12.92,-22.06,100.386,"R1.04",1.04,1.431,190,1.372,-17.61,-8.41,-5.598,-4.376,-3.597,-2.614,-1.788,-0.947,-0.179,0.273,0.638,1.461,0.9490,-14.67,-14.64,-14.11,-13.96,-13.45,-12.69,-12.23,-11.56,-11.15,-9.8500,-8.66,-8.3,-7.962,-8.58,-8.53,-9.13,-9.36,-9.8,-9.99,-10.25,-10.82,-11.17,-11.76,-12.16,-12.21
"2011-03-01 19:00:00","$GPGGA,010057.00,4949.65020,N,09713.17091,W,1,9,1.18,239.5,M,-24.5,M,,*5C",2011,3,1,60,19,0,0,-17.88,13.07,-21.43,100.3531,"R1.14",1.14,1.426,189,1.369,-17.56,-8.3500,-5.572,-4.361,-3.589,-2.611,-1.785,-0.9450,-0.182"2011-03-01 18:30:00","$GPGGA,003057.00,4949.64678,N,09713.17099,W,1,9,1.08,231.4,M,-24.5,M,,*54",2011,3,1,60,18,30,0,-16.83,13.09,-21.14,100.3139,"R1.15",1.15,1.426,190,1.37,-17.59,-8.29,-5.54,-4.341,-3.574,-2.602,-1.782,-0.947,-0.173,0.279,0.66,1.466,0.9760,-13.67,-13.62,-13.2,-13.21,-13,-12.44,-12,-11.39,-11.0"2011-03-01 18:00:00","$GPGGA,000057.00,4949.64614,N,09713.17053,W,1,9,0.90,230.3,M,-24.5,M,,*5D",2011,3,1,60,18,0,0,-15.6,13.1,-20.77,100.2708,"R1.12",1.12,1.425,186,1.37,-17.32,-8.2,-5.516,-4.328,-3.568,-2.602,-1.781,-0.947,-0.179,0.279,0.66,1.476,0.9920,-13.01,-12.96,-12.64,-12.77,-12.71,-12.25,-11.84,-11.26,-1"2011-03-01 17:30:00","$GPGGA,233057.00,4949.64728,N,09713.17109,W,1,8,1.05,231.6,M,-24.5,M,,*57",2011,3,1,60,17,30,0,-14.15,13.11,-20.33,100.2528,"R1.16",1.16,1.424,190,1.37,-16.95,-8.08,-5.472,-"2011-03-01 17:00:00","$GPGGA,230057.00,4949.64738,N,09713.16926,W,1,10,0.80,232.5,M,-24.5,M,,*64",2011,3,1,60,17,0,0,-12.81,13.11,-20.14,100.2199,"R1.12",1.12,1.424,181,1.37,-15.97,-7.87,-5.443,-4.301,-3.557,-2.596,-1.776,-0.947,-0.179,0.251,0.664,1.486,1.013,-11.67,-11.25,-11.24,-11.79,-12.06,-11.82,-11.47,-10.99,-10.86,-9.99,-8.74,-8.3900,-8.11,-8.4400,-8.3900,-8.6400,-8.74,-8.97,-9.1400,-9.36,-9.67,-9.9300,-10.08,-10.13,-10.26
"2011-03-01 16:30:00","$GPGGA,223057.99,4949.64583,N,09713.17135,W,1,9,0.98,"2011-03-01 16:00:00","$GPGGA,220057.99,4949.64622,N,09713.17125,W,1,9,0.97,234.5,M,-24.5,M,,*5D",2011,3,1,60,16,0,0,-10.67,13.1,-19.96,100.1546,"R1.14",1.14,1.423,186,1.37,-14.13,-7.693,-5.393,-4.273,-3.54,-2.58,-1.766,-0.942,-0.175,0.25,0.669,1.491,1.006,-10.82,-10.11,-10.25,-11.03,-11.58,-11.53,-11.23,-10.77,-10.72,-9.99,-8.8100,-8.54,-8.24,-8.5,-8.4,-8.6400,-8.65,-8.83,-8.97,-9.1400,-9.36,-9.53,-9.62,-9.6400,-9.8
"2011-03-01 15:30:00","$GPGGA,213057.99,4949.64668,N,09713.16995,W,1,10,0.87,234.6,M,-24.5,M,,*6B",2011,3,1,60,15,30,0,-9.9800,13.1,-20.21,100.1205,"R1.14",1.14,1.425,174,1.371,-14.47,-7.702,-5.38,-4.265,-3.533,-2.584,-1.769,-0.946,-0.178,0.251,0."2011-03-01 15:00:00","$GPGGA,210057.00,4949.64794,N,09713.17013,W,1,10,0.81,235.2,M,-24.5,M,,*6F",2011,3,1,60,15,0,0,-9.32,13.08,-20.12,100.0639,"R1.13",1.13,1.425,177,1.372,-13.87,-7.622,-5.369,-4.261,-3.539,-2.591,-1.776,-0.9480,-0.18,0.255,0.641,1.474,1.011,-10.17,-9.36,-9.6000,-10.5,-11.18,-11.21,-10.96,-10.52,-10.48,-9.79,-8.71,-8.62,-8.3100,-8.54,-8.42,-8.63,-8.65,-8.8,-8.9,-9.03,-9."2011-03-01 14:30:00","$GPGGA,203057.00,4949.64844,N,09713.17239,W,1,9,0.87,239.6,M,-24.5,M,,*53",2011,3,1,60,14,30,0,-8.8500,13.06,-20.32,100.0048,"R1.15",1.15,1.424,178,1.37,-13.94,-7.6060,-5.359,-4.25,-3.523,-2.58,-1.771,-0.9480,-0.181,0.238,0.619,1.468,1.01,-9.9800,-9.140"2011-03-01 14:00:00","$GPGGA,200057.00,4949.64713,N,09713.17084,W,1,11,0.81,237.3,M,-24.5,M,,*6D",2011,3,1,60,14,0,0,-8.49,13.02,-20.37,99.98838,"R1.14",1.14,1.425,169,1.371,-13.97,-7.5780,-5.342,-4.239,-3.518,-2.575,-1.771,-0.9480,-0."2011-03-01 13:30:00","$GPGGA,193057.99,4949.64678,N,09713.17104,W,1,10,0.97,236.6,M,-24.5,M,,*63",2011,3,1,60,13,30,0,-8.22,12.98,-20.61,99.9555,"R1.13",1.13,1.425,186,1.37,-13.62,-7.5660,-5.331,-4.217,-3.512,-2.58,-1.771,-0.9480,-0.181,0.265,0.635,1.478,1.01,-9.61,-8.82,-9.1400,-10.13,-10.9,-10.99,-10.8,-10.38,-10.29,-9.58,-8.59,-8.78,-8.49,-8.75,-8.66,-8.8900,-8.9,-9.07,-9.17,-9.28,-9.42,-9.51,-9.66,-9.7,-9.6900
"2011-03-01 13:00:00","$GPGGA,190057.99,4949.64689,N,01,-9.5600,-8.59,-8.83,-8.59,-8.86,-8.75,-9.03,-9.03,-9.22,-9.3,-9.42,-9.57,-9."2011-03-01 12:30:00","$GPGGA,183057.99,4949.64772,N,09713.17131,W,1,10,0.95,238.2,M,-24.5,M,,*67",2011,3,1,60,12,30,0,-8.8,13.09,-20.56,99.89808,"R1.14",1.14,1.424,186,1.369,-13.74,-7.6,-5.314,-4.195,-3.501,-2.58,-1.782,-0.9590,-0.181,0.238,0.641,1.457,0.9830,-9.82,-9.1800,-9.49,-10.43,-11.14,-11.17,-10.95,-10.49,-10.38,-9.6400,-8.67,-8.96,-8.7,-9.01,-8.92,-9.1800,-9.2,-9.4,-9.51,-9.66,-9.82,-9.9300,-10.12,-10.19,-10.14
"2011-03-01 12:00:00","$GPGGA,180057.99,4949.64677,N,09713.17142,W,1,10,1.04,234.9,M,-24.5,M,,*6A",2011,3,1,60,12,0,0,-9.28,13.08,-20.54,99.84226,"R1.14",1.14,1.423,"2011-03-01 11:30:00","$GPGGA,173057.99,4949.64716,N,09713.17169,W,1,11,0.87,239.0,M,-24.5,M,,*66",2011,3,1,60,11,30,0,-10.14,13.07,-20.25,99.78256,"R1.13",1.13,1.423,190,1.369,-14.41,-7.699,-5.259,-4.152,-3.485,-2.58,-1.782,-0.9530,-0.175,0.272,0.653,1.491,1.012,-10.54,-10.09,-10.18,-10.95,-11.58,-11.5,-11.18,-10.61,-10.42,-9.67,-8.74,-9.0200,-8.84,-9.1800,-9.05,-9.3,-9.38,-9.62,-9.76,-9.9400,-10.14,-10.3,-10.55,-10.7,-10.67
"2011-03-01 11:00:00","$GPGGA,170057.00,4949.64636,N,09713.17181,W,1,11,0.85,235.1,M,-24.5,M,,*6F",2011,3,1,60,11,0,0,-11.04,13.06,-20.49,99.69374,"R1.11",1.11,1.426,182,1.371,-15.05,-7.7310,-5.213,-4.128,-3.484,-2.578,-1.786,-0.957,-0.17"2011-03-01 10:30:00","$GPGGA,163057.00,4949.64673,N,09713.17032,W,1,10,1.01,236.1,M,-24.5,M,,*6A",2011,3,1,60,10,30,0,-12.1,13.06,-20.96,99.62797,"R1.14",1.14,1.426,190,1.37,-15.68,-7.706,-5.16,-4.108,-3.475,-2.58,-1.793,-0.9580,-0.17"2011-03-01 10:00:00","$GPGGA,160057.99,4949.64606,N,09713.17068,W,1,9,0.93,234.7,M,-24.5,M,,*52",2011,3,1,60,10,0,0,-12.98,13.06,-21.16,99.56218,"R1.13",1.13,1.426,190,1.37,-15.97,-7.6260,-5.105,-4.097,-3.48,-2.591,-1.798,-0.9630,-0.174,0.256,0.6810,1.481,1.007,-11.79,-11.64,-11.49,-11.84,-12.13,-11.86,-11.26,-10.5,-10.03,-9.3,-8.6400,-9.29,-9.07,-9.4300,-9.34,-9.6400,-9.63,-9.91,-10.16,-10"2011-03-01 09:30:00","$GPGGA,153057.99,4949.64854,N,09713.16925,W,1,11,0.71,236.4,M,-24.5,M,,*6E",2011,3,1,60,9,30,0,©)rÊº‚‚bjŠ‚r’’bjŠ‚r¢ÂbjŠ‚r²²bjŠ‚rÂšbjŠ‚rÊªbjŠŠr‚’j
"2011-03-01 09:00:00","$GPGGA,150057.99,4949.64764,N,09713.17017,W,1,8,1.15,232.4,M,-24.5,M,,*57",2011,3,1,60,9,0,0,-14.79,13.06,-20.91,99.43113,"R1.14",1.14,1.425,189,1.369,-15.84,-7.299,-5.001,-4.071,-3.481,-2.609,-1.816,-0.975,-0.175,0.266,0.647,1.486,1.018,-12.12,-12.23,-11.98,-12.02,-11.92,-11.4,-10.71,-9.86,-9.28,-8.57,-8.1400,-8.95,-8.76,-9.07,-9,-9.25,-9.29,-9.5600,-9.82,-10.08,-10.33,-10.55,-10.66,-10.74,-10.84
"2011-03-01 08:30:00","$GPGGA,143057.99,4949.64675,N,09713.16977,W,1,8,0.92,231.2,M,-24.5,M,,*51",2011,3,1,60,8,30"2011-03-01 08:00:00","$GPGGA,140057.00,4949.64491,N,09713.16741,W,1,7,1.23,229.3,M,-24.5,M,,*5D",2011,3,1,60,8,0,0,-15.77,13.06,-20.85,99.13472,"R1.14",1.14,1.424,189,1.369,-14.6,-6.906,-4.931,-4.068,-3.489,-2.617,-1.829,-0.9780,-0.171,0.253,0.667,1.473,1.01,-11.59,-11.95,-11.78,-11.54,-11.18,-10.69,-9.9800,-9.1900,-8.62,-8.01,-7.74,-8.58,-8.37,-8.63,-8.57,-8.82,-8.82,-9.07,-9.3,-9.51,-9.75,-9.95,-10.04,-10.08,-10.21
"2011-03-01 07:30:00","$GPGGA,133057.00,4949.64692,N,09713.16917,W,1,9,1.09,230.5,M,-24.5,M,,*5D",2011,3,1,60,7.0000,30,0,-15.09,13.04,-20.38,99.00545,"R1.12",1.12,1.423,190,1.369,-13.28,-6.727,-4.905,-4.075,-3.497,-2.624,-1.836,-0.9850,-0.179,0.2"2011-03-01 07:00:00","$GPGGA,130057.00,4949.64462,N,09713.16951,W,1,9,1.11,228.4,M,-24.5,M,,*50",2011,3,1,60,7.0000,0,0,-14.42,13.17,-19.5,98.93731,"R1.13",1.13,1.421,191,1.369,-11.57,-6.563,-4.894,-4.069,-3.513,-2.64,-1.842,-0.9850,-0.174,0.278,0.648,1.459,1.013,-10.37,-10.73,-10.64,-10.34,-10.05,-9.7300,-9.26,-8.59,-8.08,-7.587,-7.45,-8.29,-8.05,-8."2011-03-01 06:30:00","$GPGGA,123057.99,4949.64605,N,09713.17041,W,1,10,0.91,231.2,M,-24.5,M,,*67",2011,3,1,60,6,30,0,-13.98,13.18,-18.87,98.80574,"R1.14",1.14,1.419,190,1.369,-11.45,-6.518,-4.877,-4.075,-3.513,-2.646,-1.853,-0.9850,-0.174,0.289,0.6810,1.487,1.018,-9.92,-10.2,-10.08,-9.83,-9.5600,-9.26,-8.87,-8.25"2011-03-01 06:00:00","$GPGGA,120057.99,4949.64569,N,09713.16926,W,1,10,0.81,232.3,M,-24.5,M,,*67",2011,3,1,60,6,0,0,-13.59,13.19,-18.28,98.73998,"R1.13",1.1¢‚‚bjÂrÂŠ‚‚bjÂrÊ²bjÊr‚šbjÊrŠ‚‚‚j
"2011-03-01 05:30:00","$GPGGA,113057.99,4949.64560,N,09713.16995,W,1,9,0.87,235.0,M,-24.5,M,,*5C",2011,3,1,60,5,30,0,-13.15,13.2,-17.99,98.60842,"R1.13",1.13,1.399,172,1.352,-11.17,-6.428,-4.866,-4.075,-3.524,-2.668,-1.864,-0.9910,-0.174,0.289,0.659,1.459,1.002,-9.34,-9.32,-9.22,-9.09,-8.96,-8.75,-8.4800,-7.923,-7.45,-7.054,-6.952,-7.695,-7.4730,-7.689,-7.661,-7.8940,-7.866,-8.07,-8.2,-8.34,-8.5,-8.67,-8.78,-8.82,-8.87
"2011-03-01 05:00:00","$GPGGA,110057.99,4949.64563,N,09713.16825,W,1,9,0.84,235.2,M,-24.5,M,,*5"2011-03-01 04:30:00","$GPGGA,103057.99,4949.64528,N,09713.17035,W,1,8,0.93,232.6,M,-24.5,M,,*56",2011,3,1,60,4,30,0,-12.41,13.21,-16.19,98.35354,"R1.14",1.14,1.411,189,1.369,-10.89,-6.383,-4.854,-4.091,-3.551,-2.695,-1.886,-1.007,-0.169,0.294,0.659,1.437,0.9690,-9.51,-9.46,-9.24,-9.04,-8.8,-8.42,-8.09,-7.4670,-6.9740,-6.551,-6.619,-7.2960,-7.127,-7.3360,-7.325,-7.5120,-7.523,-7.7050,-7.819,-7.956,-8.1400,-8.3100,-8.46,-8.51,-8.54
"2011-03-01 04:00:00","$GPGGA,100057.99,4949.64615,N,09713.16972,W,1,10,0.84,233.5,M,-24.5,M,,*6E",2011,3,1,60,4,0,0,-12.05,13.22,-15.76,98.29598,"R1.13",1.13,1.41,189,1.369,-11.56,-6.42,-4.858,-4.101,-3.566,-2.705,-1.895,-1.012,-0.1"2011-03-01 03:30:00","$GPGGA,093057.00,4949.64638,N,09713.17140,W,1,11,0.76,230.0,M,-24.5,M,,*68",2011,3,1,60,3,30,0,-11.68,13.22,-15.13,98.22198,"R1.14",1.14,1.408,189,1.368,-11.25,-6.343,-4.843,-4.108,-3.579,-2.723,-1.913,-1.019,-0.175,0.277,0.674,1.463,1.006,-9.4400,-9.42,-9.16,-8.9800,-8.72,-8.29,-7.9150,-7.233,-6.714,-6.298,-6.119,-6.562,-6.489,-6.7820,-6.827,-7.0520,-7.12,-7.313,-7.4"2011-03-01 03:00:00","$GPGGA,090057.00,4949.64596,N,09713.17003,W,1,10,0.77,231.3,M,-24.5,M,,*68",2011,3,1,60,3,0,0,-11.58,13.22,-13.76,98.13154,"R1.13",1.13,1.405,173,1.369,-11.12,-6.292,-4.837,-4.119,-3.59,-2.733,-1.919,-1.024,-0.175,0.293,0.642,1.431,0.957,-9.46,-9.4800,-"2011-03-01 02:30:00","$GPGGA,083057.00,4949.64665,N,09713.17101,W,1,9,0.84,233.3,M,-24.5,M,,*50",2011,3,1,60,2,30,0,-11.53,13.2,-13.71,98.1137,"R1.13",1.13,1.406,169,1.37,-11.2,-6.264,-4.837,-4.124,-3.612,-2.755,-1.929,-1.035,-0.175,0."2011-03-01 02:00:00","$GPGGA,080057.00,4949.64582,N,09713.17064,W,1,10,0.87,229.6,M,-24.5,M,,*6E",2011,3,1,60,2,0,0,-11.23,13.19,-13.52,98.04733,"R1.13",1.13,1.405,168,1.37,-11.03,-6.208,-4.832,-4.141,-3.623,-2.766,-1.935,-1.035,-0.175,0.283,0.653,1.431,0.974,-9.3,-9.36,-9.07,-8.8100,-8.4,-7.8750,-7.4940,-6.8940,-6.399,-5.979,-5.755,-5.973,-5.973,-6.231,-6.248,-6.466,-6.573,-6.759,-6.827,-6.945,-7.233,-7.426,-7.6760,-7.778,-7.76rÂbj±-24.5,M,,*60",2011,3,1,60,1,30,0,-10.67,13.17,-12.05,98.04197,"R1.15",1.15--------------------------------------------
END TRANSMIT

