

RING

RING

CONNECT 4800
--------------------------------------------
CEOS_IMBB06
----------------IMB_data--------------------
"2011-03-03 13:00:00","$GPGGA,190057.00,4949.64750,N,09713.17001,W,1,10,0.96,235.4,M,-24.5,M,,*6F",2011,3,3,62,13,0,0,-2.483,13.25,-10.11,99.15424,"R1.12",1.12,1.396,170,1.37,-3.829,-5.444,-5.339,-4.745,-4.132,-3.159,-2.212,-1.225,-0.262,0.238,0.651,1.461,0.9120,-4.424,-4.137,-4.535,-5.322,-5.912,-6.27,-6.658,-6.877,-7.041,-7.159,-7.1710,-7.363,-7.159,-7.238,-7.0800,-7.1250,-7.0070,-6.945,-6.7760,-6.63,-6.562,-6.405,-6.562,-6.725,-6.54
"2011-03-03 12:30:00","$GPGGA,183057.00,4949.64750,N,09713.17109,W,1,10,0.87,236.2,M,-24.5,M,,*61",2011,3,3,62,12,30,0,-3.15,13.23,-10.49,99.1503,"R1.11",1.11,1.397,170,1.37,-4.239,-5.642,-5.413,-4.781,-4.145,-3.172,-2.214,-1.221,-0.252,0.259,0.65,1.472,0.9390,-4.836,-4.537,-4.897,-5.669,-6.262,-6.599,-6.982,-7.162,-7.304,-7.366,-7.3550,-7.5530,-7.338,-7.423,-7.2750,-7.332,-7.2300,-7.208,-7.0320,-6.891,-6.863,-6.722,-6.925,-7.1,-6.9140
"2011-03-03 12:00:00","$GPGGA,180057.00,4949.64713,N,09713.17029,W,1,11,0.80,236.6,M,-24.5,M,,*64",2011,3,3,62,12,0,0,-4.096,13.2,-10.92,99.1996,"R1.14",1.14,1.399,169,1.371,-4.835,-5.864,-5.496,-4.813,-4.161,-3.171,-2.219,-1.231,-0.257,0.259,0.618,1.499,0.9450,-5.413,-5.102,-5.39,-6.127,-6.699,-6.97,-7.331,-7.4670,-7.587,-7.5980,-7.5470,-7.7570,-7.524,-7.6380,-7.49,-7.57,-7.49,-7.484,-7.331,-7.213,-7.207,-7.117,-7.331,-7.5070,-7.32
"2011-03-03 11:30:00","$GPGGA,173057.00,4949.64680,N,09713.17098,W,1,10,0.90,237.3,M,-24.5,M,,*6D",2011,3,3,62,11,30,0,-5.221,13.17,-11.16,99.1996,"R1.08",1.08,1.399,169,1.37,-5.581,-6.089,-5.564,-4.847,-4.178,-3.188,-2.225,-1.232,-0.252,0.265,0.656,1.489,0.928,-6.078,-5.765,-6.033,-6.689,-7.1910,-7.406,-7.702,-7.793,-7.8610,-7.8150,-7.7360,-7.958,-7.707,-7.844,-7.702,-7.804,-7.7360,-7.753,-7.6110,-7.5200,-7.531,-7.469,-7.702,-7.9010,-7.7240
"2011-03-03 11:00:00","$GPGGA,170057.99,4949.64629,N,09713.17055,W,1,11,0.75,234.6,M,-24.5,M,,*60",2011,3,3,62,11,0,0,-6.466,13.16,-11.73,99.23246,"R1.14",1.14,1.4,169,1.37,-6.387,-6.302,-5.631,-4.881,-4.19,-3.188,-2.23,-1.232,-0.252,0.282,0.6900,1.506,0.9780,-6.7240,-6.443,-6.679,-7.266,-7.674,-7.8280,-8.0600,-8.09,-8.13,-8.04,-7.925,-8.15,-7.89,-8.0600,-7.9080,-8.04,-7.982,-8.0200,-7.89,-7.811,-7.8680,-7.8220,-8.08,-8.2700,-8.11
"2011-03-03 10:30:00","$GPGGA,163057.99,4949.64723,N,09713.17043,W,1,10,1.01,236.7,M,-24.5,M,,*6E",2011,3,3,62,10,30,0,-7.659,13.13,-12.12,99.23418,"R1.14",1.14,1.4,177,1.369,-7.062,-6.504,-5.693,-4.903,-4.212,-3.205,-2.236,-1.232,-0.257,0.249,0.63,1.462,0.896,-7.379,-7.1190,-7.305,-7.7880,-8.12,-8.2,-8.38,-8.36,-8.37,-8.22,-8.1000,-8.32,-8.05,-8.24,-8.09,-8.24,-8.2,-8.25,-8.13,-8.07,-8.15,-8.13,-8.4,-8.61,-8.46
"2011-03-03 10:00:00","$GPGGA,160057.00,4949.64629,N,09713.17185,W,1,11,0.93,231.3,M,-24.5,M,,*65",2011,3,3,62,10,0,0,-8.92,13.11,-12.79,99.25352,"R1.15",1.15,1.402,168,1.369,-7.9150,-6.691,-5.738,-4.926,-4.218,-3.205,-2.235,-1.231,-0.251,0.255,0.647,1.469,0.9250,-8.04,-7.813,-7.9150,-8.28,-8.51,-8.53,-8.66,-8.58,-8.57,-8.3900,-8.24,-8.47,-8.1900,-8.41,-8.2700,-8.42,-8.4,-8.46,-8.36,-8.33,-8.42,-8.45,-8.71,-8.91,-8.7700
"2011-03-03 09:30:00","$GPGGA,153057.00,4949.64665,N,09713.17157,W,1,9,0.88,234.7,M,-24.5,M,,*50",2011,3,3,62,9,30,0,-10.12,13.09,-13.13,99.29717,"R1.13",1.13,1.403,169,1.369,-8.86,-6.872,-5.794,-4.954,-4.234,-3.216,-2.241,-1.237,-0.256,0.234,0.631,1.474,0.946,-8.65,-8.46,-8.49,-8.72,-8.87,-8.8100,-8.9,-8.79,-8.76,-8.54,-8.38,-8.61,-8.32,-8.54,-8.4,-8.59,-8.57,-8.65,-8.5600,-8.5200,-8.65,-8.6800,-8.97,-9.1800,-9.0600
"2011-03-03 09:00:00","$GPGGA,150057.00,4949.64768,N,09713.17002,W,1,10,0.75,235.1,M,-24.5,M,,*63",2011,3,3,62,9,0,0,-10.84,13.07,-13.61,99.31553,"R1.14",1.14,1.404,169,1.369,-9.22,-6.988,-5.826,-4.974,-4.249,-3.225,-2.244,-1.234,-0.254,0.23,0.633,1.477,0.9110,-9.05,-8.88,-8.8500,-9.03,-9.13,-9.04,-9.08,-8.95,-8.9,-8.66,-8.4800,-8.72,-8.41,-8.66,-8.51,-8.72,-8.7,-8.79,-8.6900,-8.6800,-8.8100,-8.88,-9.17,-9.3900,-9.2700
"2011-03-03 08:30:00","$GPGGA,143057.00,4949.64794,N,09713.16930,W,1,10,0.75,237.2,M,-24.5,M,,*6A",2011,3,3,62,8,30,0,-11.72,13.04,-14.09,99.33197,"R1.14",1.14,1.405,170,1.368,-9.92,-7.117,-5.858,-4.989,-4.252,-3.228,-2.247,-1.231,-0.245,0.234,0.631,1.486,0.914,-9.5200,-9.38,-9.29,-9.34,-9.37,-9.2300,-9.24,-9.08,-9.01,-8.78,-8.59,-8.8100,-8.49,-8.75,-8.62,-8.84,-8.82,-8.92,-8.84,-8.82,-8.97,-9.03,-9.34,-9.57,-9.45
"2011-03-03 08:00:00","$GPGGA,140057.99,4949.64690,N,09713.16829,W,1,10,0.79,232.6,M,-24.5,M,,*68",2011,3,3,62,8,0,0,-12.34,13.01,-14.52,99.34841,"R1.15",1.15,1.406,169,1.368,-10.46,-7.2180,-5.89,-5.005,-4.257,-3.227,-2.252,-1.231,-0.244,0.256,0.659,1.503,0.9260,-9.84,-9.74,-9.59,-9.58,-9.54,-9.38,-9.38,-9.1900,-9.13,-8.88,-8.6800,-8.8900,-8.57,-8.8500,-8.6900,-8.9400,-8.92,-9.03,-8.95,-8.9300,-9.1000,-9.15,-9.4700,-9.71,-9.61
"2011-03-03 07:30:00","$GPGGA,133057.99,4949.64752,N,09713.16995,W,1,9,1.05,230.2,M,-24.5,M,,*51",2011,3,3,62,7.0000,30,0,-12.67,12.96,-14.91,99.36486,"R1.06",1.06,1.407,170,1.368,-10.76,-7.286,-5.918,-5.027,-4.274,-3.233,-2.252,-1.236,-0.244,0.256,0.632,1.443,0.937,-10.01,-9.9300,-9.7700,-9.7300,-9.67,-9.49,-9.4700,-9.29,-9.22,-8.97,-8.7700,-8.97,-8.6400,-8.9400,-8.78,-9.03,-9.01,-9.12,-9.05,-9.03,-9.2,-9.26,-9.59,-9.84,-9.75
"2011-03-03 07:00:00","$GPGGA,130057.99,4949.64624,N,09713.16984,W,1,9,1.13,228.5,M,-24.5,M,,*5B",2011,3,3,62,7.0000,0,0,-12.93,13.09,-15.06,99.3813,"R1.14",1.14,1.407,170,1.368,-10.86,-7.331,-5.946,-5.038,-4.29,-3.244,-2.252,-1.236,-0.244,0.24,0.659,1.465,0.92,-10.1,-10.02,-9.87,-9.82,-9.76,-9.59,-9.5600,-9.38,-9.29,-9.05,-8.8500,-9.05,-8.72,-9.01,-8.86,-9.12,-9.1000,-9.22,-9.15,-9.12,-9.3,-9.36,-9.6900,-9.9400,-9.8500
"2011-03-03 06:30:00","$GPGGA,123057.99,4949.64635,N,09713.16945,W,1,10,0.97,227.3,M,-24.5,M,,*68",2011,3,3,62,6,30,0,-13.03,13.08,-15.16,99.41419,"R1.14",1.14,1.407,170,1.367,-10.93,-7.3820,-5.974,-5.06,-4.296,-3.249,-2.257,-1.236,-0.244,0.24,0.659,1.487,0.8930,-10.18,-10.1,-9.96,-9.91,-9.86,-9.6800,-9.66,-9.46,-9.38,-9.12,-8.92,-9.13,-8.8,-9.1000,-8.9400,-9.2,-9.1900,-9.3100,-9.24,-9.22,-9.4,-9.46,-9.8,-10.06,-9.96
"2011-03-03 06:00:00","$GPGGA,120057.99,4949.64677,N,09713.16839,W,1,9,0.89,232.2,M,-24.5,M,,*55",2011,3,3,62,6,0,0,-13.15,13.08,-15.25,99.43063,"R1.14",1.14,1.408,170,1.368,-11.07,-7.4330,-6.008,-5.077,-4.301,-3.249,-2.257,-1.236,-0.244,0.256,0.637,1.465,0.915,-10.27,-10.2,-10.05,-10.01,-9.96,-9.7700,-9.75,-9.54,-9.45,-9.1800,-8.97,-9.22,-8.88,-9.1900,-9.05,-9.3100,-9.3,-9.4300,-9.34,-9.3500,-9.5200,-9.61,-9.9400,-10.17,-10.08
"2011-03-03 05:30:00","$GPGGA,113057.00,4949.64630,N,09713.16821,W,1,10,0.80,235.5,M,-24.5,M,,*6E",2011,3,3,62,5,30,0,-13.27,13.07,-15.45,99.46352,"R1.14",1.14,1.408,170,1.368,-11.15,-7.484,-6.03,-5.094,-4.312,-3.249,-2.257,-1.236,-0.244,0.262,0.637,1.465,0.915,-10.38,-10.31,-10.16,-10.13,-10.07,-9.8900,-9.8500,-9.63,-9.54,-9.25,-9.03,-9.2700,-8.9400,-9.26,-9.11,-9.38,-9.38,-9.5,-9.4300,-9.4400,-9.62,-9.7,-10.04,-10.3,-10.21
"2011-03-03 05:00:00","$GPGGA,110057.00,4949.64634,N,09713.17073,W,1,9,0.87,234.4,M,-24.5,M,,*58",2011,3,3,62,5,0,0,-13.39,13.06,-15.69,99.49642,"R1.15",1.15,1.409,171,1.368,-11.26,-7.541,-6.058,-5.105,-4.318,-3.26,-2.257,-1.236,-0.244,0.251,0.643,1.459,0.8330,-10.5,-10.44,-10.28,-10.24,-10.19,-9.99,-9.96,-9.7300,-9.62,-9.32,-9.1000,-9.36,-9.0200,-9.36,-9.22,-9.49,-9.49,-9.62,-9.55,-9.57,-9.76,-9.86,-10.19,-10.43,-10.33
"2011-03-03 04:30:00","$GPGGA,103057.99,4949.64668,N,09713.16953,W,1,10,0.80,233.4,M,-24.5,M,,*61",2011,3,3,62,4,30,0,-13.56,13.05,-15.94,99.56218,"R1.12",1.12,1.41,171,1.368,-11.31,-7.5920,-6.086,-5.127,-4.323,-3.26,-2.257,-1.236,-0.239,0.273,0.632,1.438,0.915,-10.63,-10.57,-10.41,-10.37,-10.31,-10.1,-10.08,-9.83,-9.7,-9.41,-9.1800,-9.41,-9.07,-9.41,-9.25,-9.54,-9.54,-9.6800,-9.61,-9.63,-9.82,-9.9,-10.27,-10.56,-10.46
"2011-03-03 04:00:00","$GPGGA,100057.99,4949.64664,N,09713.17058,W,1,10,0.86,231.3,M,-24.5,M,,*6E",2011,3,3,62,4,0,0,-13.71,13.04,-16.04,99.59508,"R1.15",1.15,1.41,175,1.368,-11.48,-7.655,-6.114,-5.132,-4.334,-3.266,-2.257,-1.236,-0.239,0.262,0.643,1.454,0.8990,-10.77,-10.73,-10.55,-10.51,-10.46,-10.23,-10.18,-9.92,-9.79,-9.46,-9.22,-9.4700,-9.12,-9.4800,-9.34,-9.63,-9.65,-9.78,-9.7200,-9.75,-9.9400,-10.04,-10.41,-10.69,-10.6
"2011-03-03 03:30:00","$GPGGA,093057.99,4949.64549,N,09713.16986,W,1,11,0.77,228.5,M,-24.5,M,,*63",2011,3,3,62,3,30,0,-13.88,13.03,-16.23,99.62797,"R1.15",1.15,1.41,187,1.367,-11.62,-7.7230,-6.142,-5.149,-4.34,-3.271,-2.263,-1.236,-0.239,0.262,0.654,1.487,0.915,-10.95,-10.9,-10.72,-10.67,-10.6,-10.36,-10.29,-10.02,-9.87,-9.5200,-9.2700,-9.53,-9.1900,-9.5600,-9.42,-9.71,-9.7300,-9.87,-9.82,-9.84,-10.06,-10.16,-10.54,-10.82,-10.73
"2011-03-03 03:00:00","$GPGGA,090057.99,4949.64708,N,09713.17029,W,1,10,0.78,231.2,M,-24.5,M,,*6B",2011,3,3,62,3,0,0,-14.05,13.01,-16.47,99.71018,"R1.14",1.14,1.412,191,1.369,-11.86,-7.78,-6.165,-5.16,-4.34,-3.271,-2.263,-1.236,-0.239,0.273,0.643,1.454,0.85,-11.12,-11.08,-10.89,-10.83,-10.74,-10.49,-10.41,-10.13,-9.96,-9.59,-9.33,-9.59,-9.24,-9.62,-9.4800,-9.8,-9.8,-9.96,-9.9,-9.9400,-10.15,-10.27,-10.65,-10.95,-10.86
"2011-03-03 02:30:00","$GPGGA,083057.99,4949.64657,N,09713.17004,W,1,10,0.82,233.6,M,-24.5,M,,*6E",2011,3,3,62,2,30,0,-14.22,13,-16.72,99.76122,"R1.14",1.14,1.412,192,1.368,-12.06,-7.8430,-6.187,-5.171,-4.345,-3.271,-2.268,-1.236,-0.239,0.256,0.637,1.443,0.8710,-11.31,-11.26,-11.07,-11,-10.91,-10.62,-10.53,-10.21,-10.03,-9.65,-9.38,-9.66,-9.3100,-9.7,-9.5600,-9.87,-9.8900,-10.05,-10,-10.05,-10.27,-10.4,-10.79,-11.07,-10.98
"2011-03-03 02:00:00","$GPGGA,080057.00,4949.64557,N,09713.17085,W,1,8,1.00,230.9,M,-24.5,M,,*59",2011,3,3,62,2,0,0,-14.3,12.97,-16.96,99.77969,"R1.13",1.13,1.413,192,1.368,-12.2,-7.905,-6.209,-5.182,-4.356,-3.271,-2.268,-1.236,-0.239,0.262,0.632,1.465,0.8930,-11.49,-11.44,-11.23,-11.15,-11.05,-10.74,-10.63,-10.3,-10.11,-9.7,-9.4300,-9.7,-9.36,-9.75,-9.62,-9.9400,-9.96,-10.13,-10.08,-10.14,-10.37,-10.5,-10.89,-11.19,-11.1
"2011-03-03 01:30:00","$GPGGA,073057.00,4949.64626,N,09713.17030,W,1,8,0.96,227.2,M,-24.5,M,,*5D",2011,3,3,62,1,30,0,-14.45,12.93,-17.11,99.8833,"R1.15",1.15,1.414,191,1.369,-12.41,-7.957,-6.232,-5.188,-4.362,-3.277,-2.268,-1.236,-0.239,0.262,0.632,1.465,0.882,-11.68,-11.63,-11.41,-11.31,-11.19,-10.86,-10.74,-10.38,-10.18,-9.75,-9.4700,-9.7300,-9.38,-9.8,-9.66,-10,-10.03,-10.2,-10.16,-10.22,-10.46,-10.59,-11,-11.31,-11.22
"2011-03-03 01:00:00","$GPGGA,070057.00,4949.64700,N,09713.17047,W,1,9,0.98,227.7,M,-24.5,M,,*51",2011,3,3,62,1,0,0,-14.77,13.05,-17.2,99.8917,"R1.14",1.14,1.417,190,1.372,-12.61,-8.0200,-6.247,-5.191,-4.36,-3.274,-2.266,-1.234,-0.237,0.253,0.645,1.489,0.901,-11.86,-11.81,-11.57,-11.47,-11.31,-10.97,-10.83,-10.47,-10.24,-9.8,-9.5200,-9.7700,-9.41,-9.84,-9.7,-10.05,-10.08,-10.27,-10.23,-10.28,-10.52,-10.65,-11.09,-11"2011-03-03 00:30:00","$GPGGA,063057.99,4949.64603,N,09713.17074,W,1,8,1.07,228.0,M,-24.5,M,,*5F",2011,3,3,62,0,30,0,-14.89,13.06,-17.34,99.94106,"R1.15",1.15,1.417,168,1.371,-12.83,-8.08,-6.262,-5.195,-4.358,-3.272,-2.264,-1.231,-0.234,0.245,0.621,1.459,0.947,-12,-11.98,-11.71,-11.61,-11.44,-11.07,-10.93,-10.55,-10.31,-9.83,-9.54,-9.79,-9.46,-9.8900,-9.75,-10.12,-10.15,-10.34,-10.32,-10.38,-10.64,-10.76,-11.21,-11.57,-11.47
"2011-03-03 00:00:00","$GPGGA,060057.99,4949.64633,N,09713.17020,W,1,10,0.86,229.6,M,-24.5,M,,*68",2011,3,3,62,0,0,0,-14.94,13.06,-17.44,99.9904,"R1.14",1.14,1.417,168,1.371,-12.95,-8.13,-6.27,-5.197,-4.36,-3.269,-2.26,-1.228,-0.225,0.259,0.6620,1.496,0.864,-12.12,-12.11,-11.83,"2011-03-02 23:30:00","$GPGGA,053057.99,4949.64642,N,09713.16939,W,1,9,0.87,230.6,M,-24.5,M,,*5F",2011,3,2,61,23,30,0,-15.04,13.06,-17.48,100.0069,"R1.14",1.14,1.417,170,1.371,-13.05,-8.17,-6.279,-5.201,-4.352,-3.272,-2.258,-1.226,-0.223,0.251,0.659,1.514,0.9590,-12.28,-12.2"2011-03-02 23:00:00","$GPGGA,050057.99,4949.64643,N,09713.17082,W,1,9,0.88,227.7,M,-24.5,M,,*5D",2011,3,2,61,23,0,0,-15.19,13.06,-17.63,100.0401,"R1.16",1.16,1.417,168,1.371,-13.1,-8.22,-6.289,-5.206,-4.363,-3.271,-2.257,-1.219,-0.222,0.263,0.671,1.477,0.9320,-12.48,-12.46,-12.19,-12.09,-11.88,-11.44,-11.23,-10.78,-10.47,-9.91,-9.5600,-9.82,-9.5,-9.9800,-9.84,-10.23,-10.29,-10.52,-10.53,-10.62,-10.93,-11.11,-11.59,-11.96,-11.88
"2011-03-02 22:30:00","$GPGGA,043057.99,4949.64566,N,09713.17005,W,1,10,0.82,228.2,M,-24.5,M,,*6C",2011,3,2,61,22,30,0,-15.49,13.06,-17.72,100.07,"R1.15",1.1"2011-03-02 22:00:00","$GPGGA,040057.00,4949.64527,N,09713.17155,W,1,10,0.91,228.9,M,-24.5,M,,*67",2011,3,2,61,22,0,0,-15.9,13.06,-17.87,100.0734,"R1.15",1.15,1.418,169,1.371,-13.94,-8.32,-6.301,-5.206,-4.363,-3.282,-2.257,-1.219,-0.222,0.268,0.671,1.499,0.9540,-13.05,-13.1,-12.75,-12.58,-12.24,-11.67,-11.37,-10.87,-10.5,-9.88,-9.51,-9.79,-9.49,-9.95,-9.84,-10.21,-10.28,-10.49,-10.53,-10.67"2011-03-02 21:30:00","$GPGGA,033057.00,4949.64606,N,09713.17040,W,1,10,0.97,233.3,M,-24.5,M,,*60",2011,3,2,61,21,30,0,-16.24,13.05,-17.92,100.1048,"R1.15",1.15,1.418,170,1.371,-14.42,-8.3500,-6.295,-5.206,-4.374,-3.282,-2.257,-1.219,-0.222,0.246,0.644,1.537,0.9320,-13.2,-13.29,-12.92,-12.7,-12.29,-11.68,-11.37,-10"2011-03-02 21:00:00","$GPGGA,030057.00,4949.64554,N,09713.16981,W,1,10,0.97,233.8,M,-24.5,M,,*69",2011,3,2,61,21,0,0,-16.13,13.05,-18.21,100.1208,"R1.14",1.14,1.419,168,1.371,-14.62,-8.3500,-6.28"2011-03-02 20:30:00","$GPGGA,023057.00,4949.64700,N,09713.16940,W,1,9,0.94,234.3,M,-24.5,M,,*52",2011,3,2,61,20,30,0,-15.75,13.05,-18.11,100.1732,"R1.14",1.14,1.419,168,1.371,-14.47,-8.32,-6.289,-5.217,-4.379,-3.282,-2.252,-1.208,-0.216,0.29,0.671,1.521,0.9540,-13,-13.17,-12.85,-12.62,-12.27,-11.67,-11.37,-10.84,-10.48,-9.88,-9.4700,-9.74,-9.45,-9.88,-9.74,-10.08,-10.14,-10.33,-10.35,-10.49,-10.82,-11.03,-11.45,-11.73,-11.68
"2011-03-02 20:00:00","$GPGGA,020057.00,4949.64759,N,09713.16812,W,1,10,0.86,233.6,M,-24.5,M,,*62",2011,3,2,61,20,0,0,-15.32,13.03,-18.12,100.1878,"R1.11",1.11,1.419,168,1.371,-14.3,-8.29,-6.285,-5.224,-4.375,-3.279,-2.248,-1.21,-0.213,0.2"2011-03-02 19:30:00","$GPGGA,013057.99,4949.64831,N,09713.16855,W,1,11,0.78,234.4,M,-24.5,M,,*65",2011,3,2,61,19,30,0,-15.12,13,-18.13,100.3021,"R1.14",1.14,1.419,169,1.371,-14.38,-8.2700,-6.285,-5.235,-4.392,-3.284,-2.249,-1.216,-0.219,0.254,0.657,1.479,0.957,-12.88,-13.15,-12.93,-12.69,-12.34,-11.76,-11.42,-10."2011-03-02 19:00:00","$GPGGA,010057.99,4949.64818,N,09713.16945,W,1,9,1.16,236.0,M,-24.5,M,,*5B",2011,3,2,61,19,0,0,-14.97,13.14,-18.28,100.2285,"R1.14",1.14,1.419,168,1.371,-14.36,-8.24,-6.277,-5.249,-4.401,-3.293,-2.252,-1.209,-0.223,0.273,0.648,1.487,0.9530,-12.81,-13.11,-12.84,-12.61,-12.27,-11.65,-11.31,-10.8,-10.46,-9.8900,-9.5200,-9.78,-9.49,-9.86,-9.6800,-9.9700,-9.99,-10.15,-10.16,"2011-03-02 18:30:00","$GPGGA,003057.99,4949.64726,N,09713.17101,W,1,10,0.92,230.3,M,-24.5,M,,*62",2011,3,2,61,18,30,0"2011-03-02 18:00:00","$GPGGA,000057.99,4949.64635,N,09713.17175,W,1,7,1.07,227.0,M,-24.5,M,,*5F",2011,3,2,61,18,0,0,-13.83,13.15,-18.67,100.2857,"R1.13",1.13,1.42,168,1.371,-14.4,-8.11,-6.277,-5.271,-4.412,-3.282,-2.235,-1.198,-0.217,0.327,0.6860,1.487,0.975,-12.38,-12.77,-12.54,-12.37,-12.01,-11.42,-11.1,-10.67,-10.38,-9.8900,-9.57,-9.87,-9.55,-9.86,-9.66,-9.87,-9.8500,-9.9800,-9.9400,-10.03,-10.27,-10.46,-10.74,-10.86,-10.83
"2011-03-02 17:30:00","$GPGGA,233057.99,4949.64599,N,09713.17197,W,1,8,1.00,230.6,M,-24.5,M,,*5C",2011,3,2,61,17,30,0,-12.6,13.14,-18.53,100.3844,"R1.13",1.13,1.42,170,1.371,-13.8,-7.9790,-6.287,-5.288,-4.417,-3.277,-2.23,-1.193,-0.207,0.289,0.664,1.491,0.974,-11.84,-12.27,-12.13,-12.04,-11.79,-11.29,-11.02,-10.6"2011-03-02 17:00:00","$GPGGA,230057.99,4949.64632,N,09713.16941,W,1,9,1.14,230.6,M,-24.5,M,,*5B",2011,3,2,61,17,0,0,-11.37,13.14,-18.4,100.4348,"R1.14",1.14,1.42,168,1.371,-13.16,-7.87,-6.309,-5.315,-4.428,-3.282,-2.219,-1.188,-0.213,0"2011-03-02 16:30:00","$GPGGA,223057.99,4949.64629,N,09713.16892,W,1,7,1.67,233.0,M,-24.5,M,,*53",2011,3,2,61,16,30,0,-9.75,13.13,-18.26,100.5145,"R0.97",0.97,1.419,169,1.371,-11.79,-7.701,-6.34,-5.345,-4.43,-3.268,-2.211,-1.186,-0.216,0.251,0.621,1.465,0.9260,-10.59,-10.96,-11.26,-11.37,-11.42,-11.14,-10.96,-10.68,-10.52,-10.19,-9.95,-10.34,-9.95,-10.18,-9.9400,-10.06,-9.9800,-10.04,-9.95,-9.95,-10.07,-10.19,-10.35,-10.36,-10.26
"2011-03-02 16:00:00","$GPGGA,220057.¦Sbj’r’‚šbjŠrŠººbj‚r’Ššb‚r’Â’b‚r²Êª‚bŠrª¢¢bŠbjŠ‚rŠÊbjŠ‚r¢šbjŠ‚rÂªbjŠŠr‚ÊbjŠŠr’"2011-03-02 15:30:00","$GPGGA,213057.00,4949.64693,N,09713.16989,W,1,10,0.88,237.3,M,-24.5,M,,*6B",2011,3,2,61,15,30,0,-8.08,13.08,-18.76,100.58,"R1.14",1.14,1.421,169,1.371,-10.54,-7.6970,-6.431,-5.392,-4.438,-3.254,-2.192,-1.166,-0.208,0.276,0.7000,1.495,0.989,-10.02,-10.17,-10.69,-10.96,-11.21,-11.05,-11.02,-10.85,-10.79,-10.56,-10.33,-10.76,-10.33,-10.56,-10.29,-10.4,-10.29,-10.33,-10.19,-10.16,-10.24,-10.32,-10.5,-10.51,-10.32
"2011-03-02 15:00:00","$GPGGA,210057.00,4949.64555,N,09713.16990,W,1,10,0.82,232.6,M,-24.5,M,,*63",2011,3,2,61,15,0,0,-7.8600,13.05,-18.8,100.6128,"R1.18",1.18,1.422,168,1.372,-10.4,-7.7880,-6.499,-5.414,-4.438,-3.249,-2.186,-1.155,-0.208,0.303,0.6950,1.484,0.9720,-9.92,-9.99,-10.45,-10.83,-11.14,-11.07,-11.11,-10.99,-10.99,-10.78,-10.58,-10.99,-10"2011-03-02 14:30:00","$GPGGA,203057.00,4949.64665,N,09713.17079,W,1,10,0.79,236.9,M,-24.5,M,,*61",2011,3,2,61,14,30,0,-7.659,13.01,-18.95,100.6786,"R1.16",1"2011-03-02 14:00:00","$GPGGA,200057.00,4949.64906,N,09713.17340,W,1,10,1.12,242.9,M,-24.5,M,,*6E",2011,3,2,61,14,0,0,-7.438,12.96,-19.54,100.7114,"R1.15",1.15,1.423,172,1.371,-10.47,-8.04,-6.634,-5.459,-4.427,-3.221,-2.148,-1.144,-0.208,0.26,0.6620,1.473,0.9780,-9.9,-9.84,-10.32,-10.84,-11.32,-11.35,-11.54,-11.49,-11.57,-11.39,-11.19,-11.74,-11.22,-11.5,-11.2,-11.36,-11.25,-11.29,-11.09,-11.02,-11.04,-11.09,-11.38,-11.47,-11.16
"2011-03-02 13:30:00","$GPGGA,193057.99,4949.64581,N,09713.17168,W,1,9,1.09,242.3,M,-24.5,M,,*54",2011,3,2,61,13,30,0"2011-03-02 13:00:00","$GPGGA,190057.99,4949.64711,N,09713.17089,W,1,10,0.96,237.6,M,-24.5,M,,*6A",2011,3,2,61,13,0,0,-7.8600,12.97,-19.68,100.7679,"R1.12",1.12,1.424,181,1.372,-10.66,-8.4300,-6.791,-5.481,-4.411,-3.183,-2.126,-1.133,-0.208,0.271,0.651,1.484,0.951,-10.3,-10.07,-10.46,-11.22,-11.86,-12.02,-12.36,-12.28,-12.36,-12.1,-11.87,-12.52,-11.95,-12.32,-12.03,-12.28,-12.18,-12.26,-12.05,-12,-12.04,-12.1,-12.49,-12.68,-12.29
"2011-03-02 12:30:00","$GPGGA,183057.99,4949.64803,N,09713.17107,W,1,11,0.83,238.6,M,-24.5,M,,*69",2011,3,2,61,12,30,0,-8.55,12.93,-20.15,100.7955,"R1.15",1.15,1.425,190,1.371,-11.27,-8.67,-6.8490,-5.482,-4.384,-3.161,-2.104,-1.111,-0.196,0.283,0.669,1.496,0.9680,-10.84,-10.58,-10.89,-11.73,-12.4,-12.58,-12.92,"2011-03-02 12:00:00","$GPGGA,180057.99,4949.64755,N,09713.17058,W,1,11,0.79,235.4,M,-24.5,M,,*67",2011,3,2,61,12,0,0,-9.55,12.89,-21.03,100.8284,"R1.15",1.15,1.427,190,1.371,-12.02,-8.97,-6.917,-5.488,-4.361,-3.15,-2.093,-1.111,-0.207,"2011-03-02 11:30:00","$GPGGA,173057.00,4949.64728,N,09713.17074,W,1,10,0.90,237.1,M,-24.5,M,,*6E",2011,3,2,61,11,30,0,-11.07,12.86,-20.62,100.8284,"R1.15",1.15,1.426,189,1.371,-12.99,-9.24,-6.958,-5.472,-4.345,-3.117,-2.077,-1.1,-0.195,0.256,0.665,1.465,0.975,-12.42,-12.15,-12.32,-13.12,-13.78,-13.85,-14.09,-13.74,-13.63,-13.16,-12.72,-13.33,-12.79,-13.39,-13.16,-13.59,-13.58,-13.73,-13.62,-13.64,-13.8,-13.88,-14.57,-15.07,-14.63
"2011-03-02 11:00:00","$GPGGA,170057	ªbjŠ¢r²bjŠ¢rªªbjŠ¢r²²bjŠ¢rŠÂbjŠšrÊºbjŠšršÊbjŠ’rÊbjŠšrª¢bjŠ’rÊºbjŠšr²ºbjŠšr¢ªb"2011-03-02 10:30:00","$GPGGA,163057.99,4949.64704,N,09713.17102,W,1,9,1.04,235.6,M,-24.5,M,,*50",2011,3,2,61,10,30,0,-15.12,12.79,-21.82,100.8468,"R1.14",1.14,1.431,190,1.373,-15.66,-9.79,-7.0200,-5.438,-4.295,-3.083,-2.048,-1.087,-0.193,0.27,0.656,1.49,0.9830,-14.65,-14.44,-14.42,-14.98,-15.36,-15.16,-15.13,-14.52,-14.24,-13.53,-13.02,-13.67,-13.08,-13.85,-13.64,-14.23,-14.29,-14.58,-14.54,-14.61,-14.88,-15.04,-15.91,-16.57,-16.18
"2011-03-02 10:00:00","$GPGGA,160057.99,4949.64764,N,09713.17095,W,1,9,0.96,235.1,M,-24.5,M,,*57",2011,3,2,61,10,0,0,-17.51,12.75,-22.88,100.8468,"R1.10",1.1,1.435,189,1.374,-17.17,-10.04,-7.0"2011-03-02 09:30:00","$GPGGA,153057.00,4949.64796,N,09713.16885,W,1,9,0.98,233.6,M,-24.5,M,,*5D",2011,3,2,61,9,30,0,-19.86,12.72,-23.84,100.8644,"R1.02",1.02,1.437,189,1.373,-18.37,-10.22,-7.0190,-5.386,-4.231,-3.035,-2.022,-1.065,-0.188,0.27,0.6620,1.464,0.946,-16.82,-16.73,-16.45,-16.61,-16.61,-16.05,-15.81,-14.99,-14.57,-13.74,-13.19,-13.78,-13.2,-14.08,-13.86,-14.63,-14.73,-15.19,-15.2"2011-03-02 09:00:00","$GPGGA,150057.00,4949.64795,N,09713.16943,W,1,10,0.75,234.5,M,-24.5,M,,*69",2011,3,2,61,9,0,0,-22.4,12.69,-25.05,100.8817,"R1.15",1.15,1.44,189,1.372,-19.37,-10.33,-7.004,-5.348,-4.204,-3.008,-1.999,-1.043,-0.181,0.271,0.664,1.487,0.9580,-17.69,-17.68,-17.29,-17.29,-17.05,-16.31,-15.99,-15.11"2011-03-02 08:30:00","$GPGGA,143057.99,4949.64658,N,09713.17163,W,1,9,0.80,234.5,M,-24.5,M,,*52",2011,3,2,61,8,30,0,-24.79,12.66,-25.58,100.8775,"R1.15",1.1)ªršÊbjŠªrª’bjŠªr²ÊbjŠ²rŠ²bjŠ²r¢ÂbjŠºršÊbjŠÂr’ªbjŠÂr‚Šj
"2011-03-02 08:00:00","$GPGGA,140057.99,4949.64585,N,09713.16851,W,1,9,1.02,233.1,M,-24.5,M,,*53",2011,3,2,61,8,0,0,-26.34,12.63,-28.5,100.8662,"R1.13",1.13,1.448,190,1.37,-20.59,-10.43,-6.9480,-5.276,-4.149,-2.959,-1.977,-1.043,-0.186,0.267,0.648,1.455,0.97,-18.68,-18.84,-18.24,-18.05,-17.42,-16.53,-16.07,-15.15,-14.64,-13.67,-13.17,-13.73,-13.17,-14.12,-13.87,-14.78,-14.88,-15.44,-15.58,-15.76,-16.27,-16.62,-17.53,-18.38,-18.16
"2011-03-02 07:30:00","$GPGGA,133057.99,4949.64627,N,09713.16941,W,1,8,1.16,228.9,M,-24.5,M,,*5A",2011,3,2,61,7.0000,30,0,-26.86,12.57,-29.77,100.8332,"R1.15",1.15,1.452,191,1.371,-20.82,-10.46,-6.909,-5.237,-4.116,-2.937,-1.966,-1.037,-0.186,0.267,0.654,1.477,0.9860,-18.88,-19.07,-18.46,-18.19,-17.54,-16.6,-16.11,-15.18,-14.64,-13.63,-13.11,-13.64,-13.08,-14.06,-13.81,-14END TRANSMIT

