

RING

RING

CONNECT 4800
--------------------------------------------
CEOS_IMBB06
----------------IMB_data--------------------
"2011-03-03 01:00:00","$GPGGA,070057.00,4949.64700,N,09713.17047,W,1,9,0.98,227.7,M,-24.5,M,,*51",2011,3,3,62,1,0,0,-14.77,13.05,-17.2,99.8917,"R1.14",1.14,1.417,190,1.372,-12.61,-8.0200,-6.247,-5.191,-4.36,-3.274,-2.266,-1.234,-0.237,0.253,0.645,1.489,0.901,-11.86,-11.81,-11.57,-11.47,-11.31,-10.97,-10.83,-10.47,-10.24,-9.8,-9.5200,-9.7700,-9.41,-9.84,-9.7,-10.05,-10.08,-10.27,-10.23,-10.28,-10.52,-10.65,-11.09,-11.43,-11.35
"2011-03-03 00:30:00","$GPGGA,063057.99,4949.64603,N,09713.17074,W,1,8,1.07,228.0,M,-24.5,M,,*5F",2011,3,3,62,0,30,0,-14.89,13.06,-17.34,99.94106,"R1.15",1.15,1.417,168,1.371,-12.83,-8.08,-6.262,-5.195,-4.358,-3.272,-2.264,-1.231,-0.234,0.245,0.621,1.459,0.947,-12,-11.98,-11.71,-11.61,-11.44,-11.07,-10.93,-10.55,-10.31,-9.83,-9.54,-9.79,-9.46,-9.8900,-9.75,-10.12,-10.15,-10.34,-10.32,-10.38,-10.64,-10.76,-11.21,-11.57,-11.47
"2011-03-03 00:00:00","$GPGGA,060057.99,4949.64633,N,09713.17020,W,1,10,0.86,229.6,M,-24.5,M,,*68",2011,3,3,62,0,0,0,-14.94,13.06,-17.44,99.9904,"R1.14",1.14,1.417,168,1.371,-12.95,-8.13,-6.27,-5.197,-4.36,-3.269,-2.26,-1.228,-0.225,0.259,0.6620,1.496,0.864,-12.12,-12.11,-11.83,-11.74,-11.57,-11.18,-11.02,-10.61,-10.36,-9.86,-9.55,-9.84,-9.5,-9.96,-9.8100,-10.18,-10.23,-10.43,-10.41,-10.5,-10.76,-10.91,-11.35,-11.69,-11.61
"2011-03-02 23:30:00","$GPGGA,053057.99,4949.64642,N,09713.16939,W,1,9,0.87,230.6,M,-24.5,M,,*5F",2011,3,2,61,23,30,0,-15.04,13.06,-17.48,100.0069,"R1.14",1.14,1.417,170,1.371,-13.05,-8.17,-6.279,-5.201,-4.352,-3.272,-2.258,-1.226,-0.223,0.251,0.659,1.514,0.9590,-12.28,-12.27,-11.99,-11.88,-11.71,-11.3,-11.12,-10.7,-10.42,-9.88,-9.5600,-9.84,-9.51,-9.9800,-9.84,-10.22,-10.28,-10.49,-10.49,-10.58,-10.87,-11.03,-11.49,-11.84,-11.75
"2011-03-02 23:00:00","$GPGGA,050057.99,4949.64643,N,09713.17082,W,1,9,0.88,227.7,M,-24.5,M,,*5D",2011,3,2,61,23,0,0,-15.19,13.06,-17.63,100.0401,"R1.16",1.16,1.417,168,1.371,-13.1,-8.22,-6.289,-5.206,-4.363,-3.271,-2.257,-1.219,-0.222,0.263,0.671,1.477,0.9320,-12.48,-12.46,-12.19,-12.09,-11.88,-11.44,-11.23,-10.78,-10.47,-9.91,-9.5600,-9.82,-9.5,-9.9800,-9.84,-10.23,-10.29,-10.52,-10.53,-10.62,-10.93,-11.11,-11.59,-11.96,-11.88
"2011-03-02 22:30:00","$GPGGA,043057.99,4949.64566,N,09713.17005,W,1,10,0.82,228.2,M,-24.5,M,,*6C",2011,3,2,61,22,30,0,-15.49,13.06,-17.72,100.07,"R1.15",1.15,1.417,170,1.37,-13.44,-8.2700,-6.295,-5.206,-4.363,-3.277,-2.257,-1.219,-0.222,0.268,0.628,1.493,0.905,-12.75,-12.78,-12.48,-12.36,-12.1,-11.58,-11.33,-10.85,-10.5,-9.9,-9.54,-9.79,-9.49,-9.96,-9.83,-10.22,-10.29,-10.52,-10.54,-10.66,-10.99,-11.18,-11.67,-12.03,-11.95
"2011-03-02 22:00:00","$GPGGA,040057.00,4949.64527,N,09713.17155,W,1,10,0.91,228.9,M,-24.5,M,,*67",2011,3,2,61,22,0,0,-15.9,13.06,-17.87,100.0734,"R1.15",1.15,1.418,169,1.371,-13.94,-8.32,-6.301,-5.206,-4.363,-3.282,-2.257,-1.219,-0.222,0.268,0.671,1.499,0.9540,-13.05,-13.1,-12.75,-12.58,-12.24,-11.67,-11.37,-10.87,-10.5,-9.88,-9.51,-9.79,-9.49,-9.95,-9.84,-10.21,-10.28,-10.49,-10.53,-10.67,-11.01,-11.23,-11.68,-12.02,-11.94
"2011-03-02 21:30:00","$GPGGA,033057.00,4949.64606,N,09713.17040,W,1,10,0.97,233.3,M,-24.5,M,,*60",2011,3,2,61,21,30,0,-16.24,13.05,-17.92,100.1048,"R1.15",1.15,1.418,170,1.371,-14.42,-8.3500,-6.295,-5.206,-4.374,-3.282,-2.257,-1.219,-0.222,0.246,0.644,1.537,0.9320,-13.2,-13.29,-12.92,-12.7,-12.29,-11.68,-11.37,-10.85,-10.49,-9.86,-9.49,-9.7200,-9.4300,-9.8900,-9.75,-10.13,-10.19,-10.42,-10.43,-10.55,-10.9,-11.11,-11.58,-11.93,-11.87
"2011-03-02 21:00:00","$GPGGA,030057.00,4949.64554,N,09713.16981,W,1,10,0.97,233.8,M,-24.5,M,,*69",2011,3,2,61,21,0,0,-16.13,13.05,-18.21,100.1208,"R1.14",1.14,1.419,168,1.371,-14.62,-8.3500,-6.289,-5.211,-4.374,-3.277,-2.257,-1.214,-0.216,0.246,0.644,1.499,0.9220,-13.15,-13.27,-12.9,-12.67,-12.25,-11.66,-11.35,-10.83,-10.47,-9.86,-9.4800,-9.71,-9.42,-9.87,-9.7200,-10.09,-10.15,-10.36,-10.38,-10.49,-10.83,-11.04,-11.49,-11.83,-11.77
"2011-03-02 20:30:00","$GPGGA,023057.00,4949.64700,N,09713.16940,W,1,9,0.94,234.3,M,-24.5,M,,*52",2011,3,2,61,20,30,0,-15.75,13.05,-18.11,100.1732,"R1.14",1.14,1.419,168,1.371,-14.47,-8.32,-6.289,-5.217,-4.379,-3.282,-2.252,-1.208,-0.216,0.29,0.671,1.521,0.9540,-13,-13.17,-12.85,-12.62,-12.27,-11.67,-11.37,-10.84,-10.48,-9.88,-9.4700,-9.74,-9.45,-9.88,-9.74,-10.08,-10.14,-10.33,-10.35,-10.49,-10.82,-11.03,-11.45,-11.73,-11.68
"2011-03-02 20:00:00","$GPGGA,020057.00,4949.64759,N,09713.16812,W,1,10,0.86,233.6,M,-24.5,M,,*62",2011,3,2,61,20,0,0,-15.32,13.03,-18.12,100.1878,"R1.11",1.11,1.419,168,1.371,-14.3,-8.29,-6.285,-5.224,-4.375,-3.279,-2.248,-1.21,-0.213,0.266,0.637,1.497,0.947,-12.9,-13.12,-12.83,-12.61,-12.27,-11.66,-11.36,-10.84,-10.48,-9.87,-9.4800,-9.75,-9.46,-9.88,-9.7300,-10.05,-10.09,-10.29,-10.31,-10.45,-10.78,-10.99,-11.4,-11.64,-11.61
"2011-03-02 19:30:00","$GPGGA,013057.99,4949.64831,N,09713.16855,W,1,11,0.78,234.4,M,-24.5,M,,*65",2011,3,2,61,19,30,0,-15.12,13,-18.13,100.3021,"R1.14",1.14,1.419,169,1.371,-14.38,-8.2700,-6.285,-5.235,-4.392,-3.284,-2.249,-1.216,-0.219,0.254,0.657,1.479,0.957,-12.88,-13.15,-12.93,-12.69,-12.34,-11.76,-11.42,-10.87,-10.5,-9.9400,-9.5200,-9.78,-9.49,-9.8900,-9.75,-10.04,-10.07,-10.24,-10.28,-10.43,-10.74,-10.97,-11.32,-11.53,-11.5
"2011-03-02 19:00:00","$GPGGA,010057.99,4949.64818,N,09713.16945,W,1,9,1.16,236.0,M,-24.5,M,,*5B",2011,3,2,61,19,0,0,-14.97,13.14,-18.28,100.2285,"R1.14",1.14,1.419,168,1.371,-14.36,-8.24,-6.277,-5.249,-4.401,-3.293,-2.252,-1.209,-0.223,0.273,0.648,1.487,0.9530,-12.81,-13.11,-12.84,-12.61,-12.27,-11.65,-11.31,-10.8,-10.46,-9.8900,-9.5200,-9.78,-9.49,-9.86,-9.6800,-9.9700,-9.99,-10.15,-10.16,-10.29,-10.6,-10.81,-11.17,-11.36,-11.34
"2011-03-02 18:30:00","$GPGGA,003057.99,4949.64726,N,09713.17101,W,1,10,0.92,230.3,M,-24.5,M,,*62",2011,3,2,61,18,30,0,-14.5,13.14,-18.48,100.2693,"R1.14",1.14,1.42,168,1.371,-14.5,-8.1800,-6.277,-5.26,-4.406,-3.282,-2.246,-1.203,-0.217,0.273,0.659,1.487,0.9040,-12.7,-13.06,-12.84,-12.61,-12.26,-11.66,-11.3,-10.79,-10.44,-9.9300,-9.5600,-9.87,-9.5600,-9.91,-9.75,-9.9700,-9.95,-10.1,-10.13,-10.26,-10.54,-10.77,-11.02,-11.13,-11.12
"2011-03-02 18:00:00","$GPGGA,000057.99,4949.64635,N,09713.17175,W,1,7,1.07,227.0,M,-24.5,M,,*5F",2011,3,2,61,18,0,0,-13.83,13.15,-18.67,100.2857,"R1.13",1.13,1.42,168,1.371,-14.4,-8.11,-6.277,-5.271,-4.412,-3.282,-2.235,-1.198,-0.217,0.327,0.6860,1.487,0.975,-12.38,-12.77,-12.54,-12.37,-12.01,-11.42,-11.1,-10.67,-10.38,-9.8900,-9.57,-9.87,-9.55,-9.86,-9.66,-9.87,-9.8500,-9.9800,-9.9400,-10.03,-10.27,-10.46,-10.74,-10.86,-10.83
"2011-03-02 17:30:00","$GPGGA,233057.99,4949.64599,N,09713.17197,W,1,8,1.00,230.6,M,-24.5,M,,*5C",2011,3,2,61,17,30,0,-12.6,13.14,-18.53,100.3844,"R1.13",1.13,1.42,170,1.371,-13.8,-7.9790,-6.287,-5.288,-4.417,-3.277,-2.23,-1.193,-0.207,0.289,0.664,1.491,0.974,-11.84,-12.27,-12.13,-12.04,-11.79,-11.29,-11.02,-10.63,-10.38,-9.95,-9.66,-9.99,-9.65,-9.9300,-9.7200,-9.8900,-9.8500,-9.9400,-9.9,-9.9400,-10.14,-10.32,-10.55,-10.61,-10.58
"2011-03-02 17:00:00","$GPGGA,230057.99,4949.64632,N,09713.16941,W,1,9,1.14,230.6,M,-24.5,M,,*5B",2011,3,2,61,17,0,0,-11.37,13.14,-18.4,100.4348,"R1.14",1.14,1.42,168,1.371,-13.16,-7.87,-6.309,-5.315,-4.428,-3.282,-2.219,-1.188,-0.213,0.261,0.642,1.463,0.9410,-11.27,-11.75,-11.85,-11.8,-11.65,-11.25,-11,-10.65,-10.45,-10.06,-9.8,-10.14,-9.78,-10.03,-9.8100,-9.95,-9.88,-9.96,-9.88,-9.9,-10.05,-10.19,-10.41,-10.45,-10.39
"2011-03-02 16:30:00","$GPGGA,223057.99,4949.64629,N,09713.16892,W,1,7,1.67,233.0,M,-24.5,M,,*53",2011,3,2,61,16,30,0,-9.75,13.13,-18.26,100.5145,"R0.97",0.97,1.419,169,1.371,-11.79,-7.701,-6.34,-5.345,-4.43,-3.268,-2.211,-1.186,-0.216,0.251,0.621,1.465,0.9260,-10.59,-10.96,-11.26,-11.37,-11.42,-11.14,-10.96,-10.68,-10.52,-10.19,-9.95,-10.34,-9.95,-10.18,-9.9400,-10.06,-9.9800,-10.04,-9.95,-9.95,-10.07,-10.19,-10.35,-10.36,-10.26
"2011-03-02 16:00:00","$GPGGA,220057.00,4949.64605,N,09713.16957,W,1,10,0.92,233.8,M,-24.5,M,,*63",2011,3,2,61,16,0,0,-8.71,13.11,-18.07,100.5311,"R0.86",0.86,1.42,169,1.372,-10.69,-7.646,-6.387,-5.364,-4.438,-3.271,-2.203,-1.177,-0.213,0.282,0.6950,1.544,1,-10.19,-10.43,-10.85,-11.09,-11.26,-11.04,-10.95,-10.73,-10.63,-10.34,-10.13,-10.47,-10.07,-10.3,-10.04,-10.16,-10.07,-10.11,-9.9800,-9.96,-10.04,-10.13,-10.34,-10.38,-10.23
"2011-03-02 15:30:00","$GPGGA,213057.00,4949.64693,N,09713.16989,W,1,10,0.88,237.3,M,-24.5,M,,*6B",2011,3,2,61,15,30,0,-8.08,13.08,-18.76,100.58,"R1.14",1.14,1.421,169,1.371,-10.54,-7.6970,-6.431,-5.392,-4.438,-3.254,-2.192,-1.166,-0.208,0.276,0.7000,1.495,0.989,-10.02,-10.17,-10.69,-10.96,-11.21,-11.05,-11.02,-10.85,-10.79,-10.56,-10.33,-10.76,-10.33,-10.56,-10.29,-10.4,-10.29,-10.33,-10.19,-10.16,-10.24,-10.32,-10.5,-10.51,-10.32
"2011-03-02 15:00:00","$GPGGA,210057.00,4949.64555,N,09713.16990,W,1,10,0.82,232.6,M,-24.5,M,,*63",2011,3,2,61,15,0,0,-7.8600,13.05,-18.8,100.6128,"R1.18",1.18,1.422,168,1.372,-10.4,-7.7880,-6.499,-5.414,-4.438,-3.249,-2.186,-1.155,-0.208,0.303,0.6950,1.484,0.9720,-9.92,-9.99,-10.45,-10.83,-11.14,-11.07,-11.11,-10.99,-10.99,-10.78,-10.58,-10.99,-10.56,-10.79,-10.51,-10.64,-10.53,-10.57,-10.38,-10.33,-10.38,-10.44,-10.67,-10.73,-10.5
"2011-03-02 14:30:00","$GPGGA,203057.00,4949.64665,N,09713.17079,W,1,10,0.79,236.9,M,-24.5,M,,*61",2011,3,2,61,14,30,0,-7.659,13.01,-18.95,100.6786,"R1.16",1.16,1.422,178,1.372,-10.34,-7.89,-6.566,-5.436,-4.438,-3.227,-2.165,-1.15,-0.208,0.26,0.657,1.457,0.994,-9.8900,-9.8900,-10.31,-10.8,-11.18,-11.16,-11.3,-11.21,-11.26,-11.07,-10.88,-11.33,-10.85,-11.1,-10.81,-10.96,-10.85,-10.89,-10.69,-10.6,-10.63,-10.69,-10.96,-11.05,-10.79
"2011-03-02 14:00:00","$GPGGA,200057.00,4949.64906,N,09713.17340,W,1,10,1.12,242.9,M,-24.5,M,,*6E",2011,3,2,61,14,0,0,-7.438,12.96,-19.54,100.7114,"R1.15",1.15,1.423,172,1.371,-10.47,-8.04,-6.634,-5.459,-4.427,-3.221,-2.148,-1.144,-0.208,0.26,0.6620,1.473,0.9780,-9.9,-9.84,-10.32,-10.84,-11.32,-11.35,-11.54,-11.49,-11.57,-11.39,-11.19,-11.74,-11.22,-11.5,-11.2,-11.36,-11.25,-11.29,-11.09,-11.02,-11.04,-11.09,-11.38,-11.47,-11.16
"2011-03-02 13:30:00","$GPGGA,193057.99,4949.64581,N,09713.17168,W,1,9,1.09,242.3,M,-24.5,M,,*54",2011,3,2,61,13,30,0,-7.483,12.88,-19.29,100.7278,"R1.09",1.09,1.422,177,1.371,-10.38,-8.1900,-6.707,-5.47,-4.416,-3.205,-2.143,-1.139,-0.203,0.271,0.673,1.506,1.005,-9.96,-9.82,-10.2,-10.92,-11.52,-11.65,-11.93,-11.87,-11.96,-11.75,-11.54,-12.1,-11.56,-11.86,-11.56,-11.77,-11.68,-11.74,-11.5,-11.42,-11.43,-11.47,-11.84,-12.01,-11.67
"2011-03-02 13:00:00","$GPGGA,190057.99,4949.64711,N,09713.17089,W,1,10"2011-03-02 10:30:00","$GPGGA,163057.99,4949.64704,N,09713.17102,W,1,9,1.04,235.6,M,-24.5,M,,*50",2011,3,2,61,10,30,0,-15.12,12.79,-21.82,100.8468,"R1.14",1.14,1.431,190,1.373,-15.66,-9.79,-7.0200ŠbjŠ²rªºbjŠ²rŠÂj
"2011-03-02 10:00:00","$GPGGA,160057.99,4949.64764,N,09713.17095,W,1,9,0.96,235.1,M,-24.5,M,,*57",2011,3,2,61,10,0,0,-17.51,12.75,-22.88,100.8468,"R1.10",1.1,1.435,189,1.374,-17.17,-10.04,-7.023,-5.418,-4.264,-3.052,-2.038,-1.077,-0.194,0.28,0.661,1.484,0.9770,-15.81,-15.64,-15.49,-15.85,-16.04,-15.67,-15.54,-14.81,-14.44,-13.66,-13.11,-13.78,-13.18,-14.03,-13.83,-14.48,-14.58,-14.9,-14.9,-15.05,-15.41,-15.62,-16.49,-17.2,-16.83
"2011-03-02 09:30:00","$GPGGA,153057.00,4949.64796,N,09713.16885,W,1,9,0.98,233.6,M,-24.5,M,,*5D",2011,3,2,61,9,30,0,-19.86,12.72,-23.84,100"2011-03-02 09:00:00","$GPGGA,150057.00,4949.64795,N,09713.16943,W,1,10,0.75,234.5,M,-24.5,M,,*69",2011,3,2,61,9,0,0,-22.4,12.69,-25.05,100.8817,"R1.15",1.15,1.44,189,1.372,-19.37,-10.33,-7.004,-5.348,-4.204,-3.008,-1.999,-1.043,-0.181,0.271,0.664,1.487,0.9580,-17.69,-17.68,-17.29,-17.29,-17.05,-16.31,-15.99,-15.11,-14.63,-13.74,-13.2,-13.79,-13.22,-14.11,-13.92,-14.7,-14.85,-15.34,-15.4,-15.57,-16.02,-16.28,-17.21,-18.04,-17.76
"2011-03-02 08:30:00","$GPGGA,143057.99,4949.64658,N,09713.17163,W,1,9,0.80,234.5,M,-24.5,M,,*52",2011,3,2,61,8,30,0,-24.79,12.66,-25.58,100.8775,"R1.15",1.15,1.441,190,1.372,-20.15,-10.39,-6.977,-5.321,-4.178,-2.982,-1.995,-1.049,-0.193,0.265,0.647,1.448,0.9300,-18.32,-18.43,-17.89,-17.75,-17.29,-16.44,-16.03,-15.13,-14.65,-13.71,-13.22,-13.78,-13.22"2011-03-02 08:00:00","$GPGGA,140057.99,4949.64585,N,09713.16851,W,1,9,1.02,233.1,M,-24.5,M,,*53",2011,3,2,61,8,0,0,-26.34,12.63,-28.5,100.8662,"R1.13",1.13,"2011-03-02 07:30:00","$GPGGA,133057.99,4949.64627,N,09713.16941,W,1,8,1.16,228.9,M,-24.5,M,,*5A",2011,3,2,61,7.0000,30,0,-26.86,12.57,-29.77,100.8332,"R1.15",1.15,1.452,191,1.371,-20.82,-10.46,-6.909,-5.237,-4.116,-2.937,-1.966,-1.037,-0.186,0.267,0.654,1.477,0.9860,-18.88,-19.07,-18.46,-18.19,-17.54,-16.6,-16.11,-15.18,-14.64,-13.63,-13.11,-13.64,-13.08,-14.06,-13.81,-14.74,-14.85,-15.44,-15.59,-15.8,-16.33,-16.68,-17.61,-18.46,-18.27
"2011-03-02 07:00:00","$GPGGA,130057.99,4949.64426,N,09713.17050,W,1,8,1.28,217.6,M,-24.5,M,,*5C",2011,3,2,61,7.0000,0,0,-27.18,12.67,-29.19,100.833"2011-03-02 06:30:00","$GPGGA,123057.00,4949.64695,N,09713.17037,W,1,9,1.00,228.9,M,-24.5,M,,*5D",2011,3,2,61,6,30,0,-27.4,12.67,-29.09,100.8335,"R1.14",1.14,1.451,190,1.372,-21.14,-10.46,-6.8300,-5.159,-4.055,-2.898,-1.939,-1.026,-0.186,0.283,0.643,1.455,0.9480,-19.15,-19.35,-18.77,-18.46,-17.75,-16.72,-16.17,-15.15,-14.54,-13.47,-12.89,-13.39,-12.82,-13.83,-13.62,-14.57,-14.72,-15.33,-15.51,-15.78,-16.33,-16.7"2011-03-02 06:00:00","$GPGGA,120057.00,4949.64727,N,09713.16970,W,1,9,0.88,232.3,M,-24.5,M,,*5D",2011,3,2,61,6,0,0,-27.69,12.67,-28.79,100.8533,"R1.14",1.14,1.448,190,1.37,-21.29,-10.45,-6.785,-5.12,-4.022,-2.876,-1.934,-1.021,-0.186,0.272,0.632,1.455,0.9480,-19.24,-19.48,-1"2011-03-02 05:30:00","$GPGGA,113057.00,4949.64667,N,09713.17002,W,1,8,0.96,236.7,M,-24.5,M,,*5B",2011,3,2,61,5,30,0,-27.9,12.67,-30.16,100.7985,"R1.14",1.14,1.449,190,1.367,-21.47,-10.41,-6.734,-5.076,-3.995,-2.854,-1.917,-1.015,-0.186"2011-03-02 05:00:00","$GPGGA,110057.00,4949.64792,N,09713.17049,W,1,8,1.00,236.4,M,-24.5,M,,*51",2011,3,2,61,5,0,0,-28.05,12.67,-30.46,100.8164,"R1.14",1.14,1.454,192,1.371,-21.78,-10.39,-6.677,-5.031,-3.972,-2.838,-1.912,-1.01,-0.186,0.267,0.648,1.455,0.9480,-19.48,-19.74,-19.05,-18.66,-17.82,-16.67,-16.04,-14.93,-14.24,-13.07,-12.43,-12.87,-12.33,-13.32,-13.14,-14.12,-14.31,-14.95,-15.18,-15.48,-16.09,-16.54,-17.5,-18.38,-18.23.17097,W,1,7,1.02,232.1,M,-24.5,M,,*56",2011,3,2,61,4,30,0,-28.12,12.68,-29.53"2011-03-02 04:00:00","$GPGGA,100057.00,4949.64660,N,09713.17083,W,1,10,0.85,230.2,M,-24.5,M,,*6F",2011,3,2,61,4,0,0,-28.12,12.68,-28.6,100.7982,"R1.14",1.14,1.448,189,1.37,-21.96,-10.27,-6.565,-4.942,-3.906,-2.8,-1.89,-0.9990,-0.186,0.245,0.637,1.455,0.9480,-19.42,-19.71,-19,-18.56,-17.67,-16.48,-15.81,-14.69,-13.96,-12.75,-12.07,-12.46,-11.94,-12.91,-12.77,-13.73,-13.95,-14.61,-14.82,-15.15,-15.79,-16.25,-17.21,-18.07,-17.91
"2011-03-02 03:30:00","$GPGGA,093057.00,4949.64638,N,09713.17052,W,1,11,0.76,228.2,M,-24.5,M,,*61",2011,3,2,61,3,30,0,-28.09,12.69,-29.48,100.7713,"R1.14",1.1"2011-03-02 03:00:00","$GPGGA,090057.00,4949.64653,N,09713.16979,W,1,10,0.78,230.9,M,-24.5,M,,*63",2011,3,2,61,3,0,0,-27.76,12.69,-31.14,100.7509,"R1.15",1.15,1.455,190,1.37,-21.87,-10.1,-6.441,-4.853,-3.856,-2.756,-1.862,-0.9830,-0.186,0.272,0.665,1.455,0.9320,-19.17,-19.44,-18.7,-18.27,-17.37,-16.17,-15.51,-14.36,-13.63,-12.38,-11.67,-12,-11.5,-12.45,-12.35,-13.31,-13.53,-14.19,-14.44,-14.74,-15.41,-15.89,-16.83,-17.67,-17.53
"2011-03-02 02:30:00","$GPGGA,083057.00,4949.64662,N,09713.17081,W,1,8,1.00,232.8,M,-24.5,M,,*58",2011,3,2,61,2,30,0,-27.36,12.69,-30.31,100.7509,"R1.14",1.14,1.455,189,1.372,-21.6,-10.01,-6.373,-4.809,-3.818,-2.745,-1.857,-0.9830,-0.18"2011-03-02 02:00:00","$GPGGA,080057.00,4949.64567,N,09713.17194,W,1,8,1.10,235.5,M,-24.5,M,,*53",2011,3,2,61,2,0,0,-26.97,12.68,-28.99,100.7509,"R1.15",1.15,1.448,190,1.369,-21.29,-9.92,-6.317,-4.764,-3.796,-2.728,-1.846,-0.9770,-0.18,0.272,0.643,1.466,0.97,-18.88,-19.14,-18.41,-17.99,-17.08,-15.88,-15.2,-14.06,-13"2011-03-02 01:30:00","$GPGGA,073057.00,4949.64644,N,09713.17009,W,1,10,0.88,230.0,M,-24.5,M,,*61",2011,3,2,61,1,30,0,-27.04,12.65,-27.57,100.7014,"R1.14",1.14,1.443,190,1.368,-21.51,-9.8500,-6.25,-4.72,-3.768,-2.712,-1.841,-0.9720,-0.181,0.272,0.632,1.477,0.97,-18.83,-19.09,-18.35,-17.9,-16.95,-15.72,-15.02,-13.91,-13.12,-11.84,-11.03,-11.27,-10.77,-11.7,-11.63,-12.55,-12.82,-13.46,-13.72,-"2011-03-02 01:00:00","$GPGGA,070057.99,4949.64620,N,09713.16947,W,1,9,0.98,226.2,M,-24.5,M,,*5E",2011,3,2,61,1,0,0,-2"2011-03-02 00:30:00","$GPGGA,063057.99,4949.64713,N,09713.16887,W,1,8,1.40,231.4,M,-24.5,M,,*55",2011,3,2,61,0,30,0,-26.62,12.8,-29.58,100.6519,"R1.14",1.14,1.451,190,1.37,-21.21,-9.65,-6.119,-4.647,-3.734,-2.695,-1.829,-0.9710,-0.18,0.261,0.638,1.499,0.965,-18.5,-18.73,-18,-17.54,-16.57,-15.34,-14.65,-13.52,-12.75,-11.42,-10.57,-10.7,-10.23,-11.14,-11.08,-12,-12.26,-12.92,-13.18,-13.51,-14.21,-14.7,-15.62,-16.41,-16.29
"2011-03-02 00:00:00","$GPGGA,060057.99,4949.64723,N,09713.17017,W,1,11,0.78,229.2,M,-24.5,M,,*68",2011,3,2,61,0,0,0,-26.3,12"2011-03-01 23:30:00","$GPGGA,053057.99,4949.64626,N,09713.16884,W,1,9,0.86,229.7,M,-24.5,M,,*52",2011,3,1,60,23,30,0,-25.72,12.84,-28.86,100.5853,"R1.14",1.14,1.45,192,1.371,-20.94,-9.41,-5.99,-4.575,-3.702,-2.668,-1.819,-0.9670,-0.181,0.26,0.631,1.465,0.952,-18.03,-18.28,-17.54,-17.08,-16.1,-14.87,-14.19,-13.11,-12.34,-10.99,-10.09,-10.14,-9.6900,-10.54,-10.53,-11.41,-11.68,-12.31,-12.57,-12.9,-13.62,-14.07,-14.96,-15.7,-15.6
"2011-03-01 23:00:00","$GPGGA,050057.00,4949.64656,N,09713.17065,W,1,12,0.69,230.7,M,-24.5,M,,*63",2011,3,1,60,23,0,0,-25.19,12.85,-29.84,100.5853,"R1.14",1.14,1.451,190,1.369,-20.88,-9.2700,-5.923,-4.542,-3.68,-2.662,-1.813,-0.961,-0.1"2011-03-01 22:30:00","$GPGGA,043057.00,4949.64651,N,09713.16962,W,1,10,0.83,230.0,M,-24.5,M,,*68",2011,3,1,60,22,30,0,-24.47,12.88,-28.42,100.5523,"R1.15",1.15,1.449,190,1.372,-20.48,-9.13,-5.867,-4.508,-3.663,-2.646,-1.808,-0.956,-0.176,0.255,0.653,1.454,0.9580,-17.43,-17.65,-16.94,-16.47,-15.5,-14.3,-13.67,-12.65,-11.92,-10.58,-9.62,-9.57,-9.13,-9.9"2011-03-01 22:00:00","$GPGGA,040057.99,4949.64583,N,09713.16951,W,1,11,0.90,232.2,M,-24.5,M,,*64",2011,3,1,60,22,0,0,-23.7,12.89,-28.82,100.5361,"R1.13",1.13,1.449,189,1.37,-20.18,-9,-5.816,-4.491,-3.652,-2.651,-1.808,-0.9620,-0.182,0.281,0.652,1.485,0.989,-17.06,-17.25,-16.55,-16.1,-15.15,-14,-13.38,-12.42,-11.73,-10.38,-9.4,-9.3100,-8.8900,-9.6400,-9"2011-03-01 21:30:00","$GPGGA,033057.00,4949.64551,N,09713.17113,W,1,11,0.91,232.6,M,-24.5,M,,*65",2011,3,1,60,21,30,0,-22.83,12.91,-27.36,100.5029,"R0.95",0"2011-03-01 21:00:00","$GPGGA,030057.00,4949.64441,N,09713.17002,W,1,9,1.22,235.8,M,-24.5,M,,*5E",2011,3,1,60,21,0,0,-21.92,12.93,-26.1,100.4687,"R1.15",1.15,1.441,192,1.37,-19.3,-8.7300,-5.713,-4.435,-3.634,-2.634,-1.796,-0.956,-0.176,0.265,0.657,1.475,0.9630,-16.19,-16.28,-15.64,-15.28,-14.43,-13.39,-12.84,-12,-11.39,-10.07,-9.01,-8.8100,-8.4,-9.12,-9.13,-9.86,-10.11,-10.64,-10.86,-11.15,-11.82,-12.21,-12.94,-13.53,-13.5
"2011-03-01 20:30:00","$GPGGA,023057.00,4949."2011-03-01 20:00:00","$GPGGA,020057.00,4949.64711,N,09713.16878,W,1,11,0.77,236.2,M,-24.5,M,,*6C",2011,3,1,60,20,0,0,-19.83,12.93,-22.83,100.386,"R1.15",1.15,1.431,190,1.37,-18.27,-8.5,-5.641,-4.396,-3.602,-2.624,-1.792,-0.946,-0.177,0.258,0.656,1.462,0.988,-15.23,-15.22,-14.64,-14.4,-13.75,-12.89,-12.4,-11.68,-11.2,-9.9,-8.74,-8.4300,-8.05,-8.7,-8.6900,-9.34,-9.58,-10.05,-10.24,-10.51,-11.11,-11.48,-12.12,-12.6,-12.62
"2011-03-01 19:30:00","$GPGGA,013057.00,4949.64817,N,09713.17039,W,1,11,0.79,237.0,M,-24.5,M,,*64",2011,3,1,60,19,30,0,-18.72,12.92,-22.06,100.386,"R1.04",1.04,1.431,190,1.372,-17.61,-8.41,-5.598,-4.376,-3.597,-2.614,-1.788,-0.947,-0.179,0.273,0.638,1.461,0.9490,-14.67,-14.64,-14.11,--------------------------------------------
END TRANSMIT

