
RING

RING

CONNECT 4800
--------------------------------------------
CEOS_IMBB06
----------------IMB_data--------------------
"2011-03-02 19:00:00","$GPGGA,010057.99,4949.64818,N,09713.16945,W,1,9,1.16,236.0,M,-24.5,M,,*5B",2011,3,2,61,19,0,0,-14.97,13.14,-18.28,100.2285,"R1.14",1.14,1.419,168,1.371,-14.36,-8.24,-6.277,-5.249,-4.401,-3.293,-2.252,-1.209,-0.223,0.273,0.648,1.487,0.9530,-12.81,-13.11,-12.84,-12.61,-12.27,-11.65,-11.31,-10.8,-10.46,-9.8900,-9.5200,-9.78,-9.49,-9.86,-9.6800,-9.9700,-9.99,-10.15,-10.16,-10.29,-10.6,-10.81,-11.17,-11.36,-11.34
"2011-03-02 18:30:00","$GPGGA,003057.99,4949.64726,N,09713.17101,W,1,10,0.92,230.3,M,-24.5,M,,*62",2011,3,2,61,18,30,0,-14.5,13.14,-18.48,100.2693,"R1.14",1.14,1.42,168,1.371,-14.5,-8.1800,-6.277,-5.26,-4.406,-3.282,-2.246,-1.203,-0.217,0.273,0.659,1.487,0.9040,-12.7,-13.06,-12.84,-12.61,-12.26,-11.66,-11.3,-10.79,-10.44,-9.9300,-9.5600,-9.87,-9.5600,-9.91,-9.75,-9.9700,-9.95,-10.1,-10.13,-10.26,-10.54,-10.77,-11.02,-11.13,-11.12
"2011-03-02 18:00:00","$GPGGA,000057.99,4949.64635,N,09713.17175,W,1,7,1.07,227.0,M,-24.5,M,,*5F",2011,3,2,61,18,0,0,-13.83,13.15,-18.67,100.2857,"R1.13",1.13,1.42,168,1.371,-14.4,-8.11,-6.277,-5.271,-4.412,-3.282,-2.235,-1.198,-0.217,0.327,0.6860,1.487,0.975,-12.38,-12.77,-12.54,-12.37,-12.01,-11.42,-11.1,-10.67,-10.38,-9.8900,-9.57,-9.87,-9.55,-9.86,-9.66,-9.87,-9.8500,-9.9800,-9.9400,-10.03,-10.27,-10.46,-10.74,-10.86,-10.83
"2011-03-02 17:30:00","$GPGGA,233057.99,4949.64599,N,09713.17197,W,1,8,1.00,230.6,M,-24.5,M,,*5C",2011,3,2,61,17,30,0,-12.6,13.14,-18.53,100.3844,"R1.13",1.13,1.42,170,1.371,-13.8,-7.9790,-6.287,-5.288,-4.417,-3.277,-2.23,-1.193,-0.207,0.289,0.664,1.491,0.974,-11.84,-12.27,-12.13,-12.04,-11.79,-11.29,-11.02,-10.63,-10.38,-9.95,-9.66,-9.99,-9.65,-9.9300,-9.7200,-9.8900,-9.8500,-9.9400,-9.9,-9.9400,-10.14,-10.32,-10.55,-10.61,-10.58
"2011-03-02 17:00:00","$GPGGA,230057.99,4949.64632,N,09713.16941,W,1,9,1.14,230.6,M,-24.5,M,,*5B",2011,3,2,61,17,0,0,-11.37,13.14,-18.4,100.4348,"R1.14",1.14,1.42,168,1.371,-13.16,-7.87,-6.309,-5.315,-4.428,-3.282,-2.219,-1.188,-0.213,0.261,0.642,1.463,0.9410,-11.27,-11.75,-11.85,-11.8,-11.65,-11.25,-11,-10.65,-10.45,-10.06,-9.8,-10.14,-9.78,-10.03,-9.8100,-9.95,-9.88,-9.96,-9.88,-9.9,-10.05,-10.19,-10.41,-10.45,-10.39
"2011-03-02 16:30:00","$GPGGA,223057.99,4949.64629,N,09713.16892,W,1,7,1.67,233.0,M,-24.5,M,,*53",2011,3,2,61,16,30,0,-9.75,13.13,-18.26,100.5145,"R0.97",0.97,1.419,169,1.371,-11.79,-7.701,-6.34,-5.345,-4.43,-3.268,-2.211,-1.186,-0.216,0.251,0.621,1.465,0.9260,-10.59,-10.96,-11.26,-11.37,-11.42,-11.14,-10.96,-10.68,-10.52,-10.19,-9.95,-10.34,-9.95,-10.18,-9.9400,-10.06,-9.9800,-10.04,-9.95,-9.95,-10.07,-10.19,-10.35,-10.36,-10.26
"2011-03-02 16:00:00","$GPGGA,220057.00,4949.64605,N,09713.16957,W,1,10,0.92,233.8,M,-24.5,M,,*63",2011,3,2,61,16,0,0,-8.71,13.11,-18.07,100.5311,"R0.86",0.86,1.42,169,1.372,-10.69,-7.646,-6.387,-5.364,-4.438,-3.271,-2.203,-1.177,-0.213,0.282,0.6950,1.544,1,-10.19,-10.43,-10.85,-11.09,-11.26,-11.04,-10.95,-10.73,-10.63,-10.34,-10.13,-10.47,-10.07,-10.3,-10.04,-10.16,-10.07,-10.11,-9.9800,-9.96,-10.04,-10.13,-10.34,-10.38,-10.23
"2011-03-02 15:30:00","$GPGGA,213057.00,4949.64693,N,09713.16989,W,1,10,0.88,237.3,M,-24.5,M,,*6B",2011,3,2,61,15,30,0,-8.08,13.08,-18.76,100.58,"R1.14",1.14,1.421,169,1.371,-10.54,-7.6970,-6.431,-5.392,-4.438,-3.254,-2.192,-1.166,-0.208,0.276,0.7000,1.495,0.989,-10.02,-10.17,-10.69,-10.96,-11.21,-11.05,-11.02,-10.85,-10.79,-10.56,-10.33,-10.76,-10.33,-10.56,-10.29,-10.4,-10.29,-10.33,-10.19,-10.16,-10.24,-10.32,-10.5,-10.51,-10.32
"2011-03-02 15:00:00","$GPGGA,210057.00,4949.64555,N,09713.16990,W,1,10,0.82,232.6,M,-24.5,M,,*63",2011,3,2,61,15,0,0,-7.8600,13.05,-18.8,100.6128,"R1.18",1.18,1.422,168,1.372,-10.4,-7.7880,-6.499,-5.414,-4.438,-3.249,-2.186,-1.155,-0.208,0.303,0.6950,1.484,0.9720,-9.92,-9.99,-10.45,-10.83,-11.14,-11.07,-11.11,-10.99,-10.99,-10.78,-10.58,-10.99,-10.56,-10.79,-10.51,-10.64,-10.53,-10.57,-10.38,-10.33,-10.38,-10.44,-10.67,-10.73,-10.5
"2011-03-02 14:30:00","$GPGGA,203057.00,4949.64665,N,09713.17079,W,1,10,0.79,236.9,M,-24.5,M,,*61",2011,3,2,61,14,30,0,-7.659,13.01,-18.95,100.6786,"R1.16",1.16,1.422,178,1.372,-10.34,-7.89,-6.566,-5.436,-4.438,-3.227,-2.165,-1.15,-0.208,0.26,0.657,1.457,0.994,-9.8900,-9.8900,-10.31,-10.8,-11.18,-11.16,-11.3,-11.21,-11.26,-11.07,-10.88,-11.33,-10.85,-11.1,-10.81,-10.96,-10.85,-10.89,-10.69,-10.6,-10.63,-10.69,-10.96,-11.05,-10.79
"2011-03-02 14:00:00","$GPGGA,200057.00,4949.64906,N,09713.17340,W,1,10,1.12,242.9,M,-24.5,M,,*6E",2011,3,2,61,14,0,0,-7.438,12.96,-19.54,100.7114,"R1.15",1.15,1.423,172,1.371,-10.47,-8.04,-6.634,-5.459,-4.427,-3.221,-2.148,-1.144,-0.208,0.26,0.6620,1.473,0.9780,-9.9,-9.84,-10.32,-10.84,-11.32,-11.35,-11.54,-11.49,-11.57,-11.39,-11.19,-11.74,-11.22,-11.5,-11.2,-11.36,-11.25,-11.29,-11.09,-11.02,-11.04,-11.09,-11.38,-11.47,-11.16
"2011-03-02 13:30:00","$GPGGA,193057.99,4949.64581,N,09713.17168,W,1,9,1.09,242.3,M,-24.5,M,,*54",2011,3,2,61,13,30,0,-7.483,12.88,-19.29,100.7278,"R1.09",1.09,1.422,177,1.371,-10.38,-8.1900,-6.707,-5.47,-4.416,-3.205,-2.143,-1.139,-0.203,0.271,0.673,1.506,1.005,-9.96,-9.82,-10.2,-10.92,-11.52,-11.65,-11.93,-11.87,-11.96,-11.75,-11.54,-12.1,-11.56,-11.86,-11.56,-11.77,-11.68,-11.74,-11.5,-11.42,-11.43,-11.47,-11.84,-12.01,-11.67
"2011-03-02 13:00:00","$GPGGA,190057.99,4949.64711,N,09713.17089,W,1,10,0.96,237.6,M,-24.5,M,,*6A",2011,3,2,61,13,0,0,-7.8600,12.97,-19.68,100.7679,"R1.12",1.12,1.424,181,1.372,-10.66,-8.4300,-6.791,-5.481,-4.411,-3.183,-2.126,-1.133,-0.208,0.271,0.651,1.484,0.951,-10.3,-10.07,-10.46,-11.22,-11.86,-12.02,-12.36,-12.28,-12.36,-12.1,-11.87,-12.52,-11.95,-12.32,-12.03,-12.28,-12.18,-12.26,-12.05,-12,-12.04,-12.1,-12.49,-12.68,-12.29
"2011-03-02 12:30:00","$GPGGA,183057.99,4949.64803,N,09713.17107,W,1,11,0.83,238.6,M,-24.5,M,,*69",2011,3,2,61,12,30,0,-8.55,12.93,-20.15,100.7955,"R1.15",1.15,1.425,190,1.371,-11.27,-8.67,-6.8490,-5.482,-4.384,-3.161,-2.104,-1.111,-0.196,0.283,0.669,1.496,0.9680,-10.84,-10.58,-10.89,-11.73,-12.4,-12.58,-12.92,-12.76,-12.79,-12.46,-12.19,-12.83,-12.28,-12.68,-12.43,-12.71,-12.64,-12.77,-12.57,-12.54,-12.58,-12.66,-13.14,-13.42,-13
"2011-03-02 12:00:00","$GPGGA,180057.99,4949.64755,N,09713.17058,W,1,11,0.79,235.4,M,-24.5,M,,*67",2011,3,2,61,12,0,0,-9.55,12.89,-21.03,100.8284,"R1.15",1.15,1.427,190,1.371,-12.02,-8.97,-6.917,-5.488,-4.361,-3.15,-2.093,-1.111,-0.207,0.277,0.663,1.523,0.9030,-11.51,-11.25,-11.51,-12.29,-12.99,-13.11,-13.44,-13.24,-13.23,-12.84,-12.53,-13.19,-12.65,-13.15,-12.92,-13.21,-13.16,-13.31,-13.18,-13.2,-13.29,-13.4,-13.9,-14.24,-13.81
"2011-03-02 11:30:00","$GPGGA,173057.00,4949.64728,N,09713.17074,W,1,10,0.90,237.1,M,-24.5,M,,*6E",2011,3,2,61,11,30,0,-11.07,12.86,-20.62,100.8284,"R1.15",1.15,1.426,189,1.371,-12.99,-9.24,-6.958,-5.472,-4.345,-3.117,-2.077,-1.1,-0.195,0.256,0.665,1.465,0.975,-12.42,-12.15,-12.32,-13.12,-13.78,-13.85,-14.09,-13.74,-13.63,-13.16,-12.72,-13.33,-12.79,-13.39,-13.16,-13.59,-13.58,-13.73,-13.62,-13.64,-13.8,-13.88,-14.57,-15.07,-14.63
"2011-03-02 11:00:00","$GPGGA,170057.00,4949.64712,N,09713.17092,W,1,10,0.88,234.7,M,-24.5,M,,*60",2011,3,2,61,11,0,0,-12.91,12.82,-21.06,100.8257,"R1.11",1.11,1.428,190,1.372,-14.2,-9.5200,-6.996,-5.459,-4.327,-3.11,-2.075,-1.098,-0.199,0.253,0.623,1.483,0.9710,-13.48,-13.24,-13.33,-14.05,-14.6,-14.55,-14.66,-14.18,-13.97,-13.39,-12.9,-13.54,-12.97,-13.67,-13.45,-13.95,-14.01,-14.18,-14.11,-14.18,-14.41,-14.52,-15.28,-15.86,-15.45
"2011-03-02 10:30:00","$GPGGA,163057.99,4949.64704,N,09713.17102,W,1,9,1.04,235.6,M,-24.5,M,,*50",2011,3,2,61,10,30,0,-15.12,12.79,-21.82,100.8468,"R1.14",1.14,1.431,190,1.373,-15.66,-9.79,-7.0200,-5.438,-4.295,-3.083,-2.048,-1.087,-0.193,0.27,0.656,1.49,0.9830,-14.65,-14.44,-14.42,-14.98,-15.36,-15.16,-15.13,-14.52,-14.24,-13.53,-13.02,-13.67,-13.08,-13.85,-13.64,-14.23,-14.29,-14.58,-14.54,-14.61,-14.88,-15.04,-15.91,-16.57,-16.18
"2011-03-02 10:00:00","$GPGGA,160057.99,4949.64764,N,09713.17095,W,1,9,0.96,235.1,M,-24.5,M,,*57",2011,3,2,61,10,0,0,-17.51,12.75,-22.88,100.8468,"R1.10",1.1,1.435,189,1.374,-17.17,-10.04,-7.023,-5.418,-4.264,-3.052,-2.038,-1.077,-0.194,0.28,0.661,1.484,0.9770,-15.81,-15.64,-15.49,-15.85,-16.04,-15.67,-15.54,-14.81,-14.44,-13.66,-13.11,-13.78,-13.18,-14.03,-13.83,-14.48,-14.58,-14.9,-14.9,-15.05,-15.41,-15.62,-16.49,-17.2,-16.83
"2011-03-02 09:30:00","$GPGGA,153057.00,4949.64796,N,09713.16885,W,1,9,0.98,233.6,M,-24.5,M,,*5D",2011,3,2,61,9,30,0,-19.86,12.72,-23.84,100.8644,"R1.02",1.02,1.437,189,1.373,-18.37,-10.22,-7.0190,-5.386,-4.231,-3.035,-2.022,-1.065,-0.188,0.27,0.6620,1.464,0.946,-16.82,-16.73,-16.45,-16.61,-16.61,-16.05,-15.81,-14.99,-14.57,-13.74,-13.19,-13.78,-13.2,-14.08,-13.86,-14.63,-14.73,-15.19,-15.23,-15.38,-15.73,-15.95,-16.87,-17.68,-17.37
"2011-03-02 09:00:00","$GPGGA,150057.00,4949.64795,N,09713.16943,W,1,10,0.75,234.5,M,-24.5,M,,*69",2011,3,2,61,9,0,0,-22.4,12.69,-25.05,100.8817,"R1.15",1.15,1.44,189,1.372,-19.37,-10.33,-7.004,-5.348,-4.204,-3.008,-1.999,-1.043,-0.181,0.271,0.664,1.487,0.9580,-17.69,-17.68,-17.29,-17.29,-17.05,-16.31,-15.99,-15.11,-14.63,-13.74,-13.2,-13.79,-13.22,-14.11,-13.92,-14.7,-14.85,-15.34,-15.4,-15.57,-16.02,-16.28,-17.21,-18.04,-17.76
"2011-03-02 08:30:00","$GPGGA,143057.99,4949.64658,N,09713.17163,W,1,9,0.80,234.5,M,-24.5,M,,*52",2011,3,2,61,8,30,0,-24.79,12.66,-25.58,100.8775,"R1.15",1.15,1.441,190,1.372,-20.15,-10.39,-6.977,-5.321,-4.178,-2.982,-1.995,-1.049,-0.193,0.265,0.647,1.448,0.9300,-18.32,-18.43,-17.89,-17.75,-17.29,-16.44,-16.03,-15.13,-14.65,-13.71,-13.22,-13.78,-13.22,-14.15,-13.89,-14.77,-14.88,-15.39,-15.52,-15.69,-16.16,-16.48,-17.39,-18.25,-18.01
"2011-03-02 08:00:00","$GPGGA,140057.99,4949.64585,N,09713.16851,W,1,9,1.02,233.1,M,-24.5,M,,*53",2011,3,2,61,8,0,0,-26.34,12.63,-28.5,100.8662,"R1.13",1.13,1.448,190,1.37,-20.59,-10.43,-6.9480,-5.276,-4.149,-2.959,-1.977,-1.043,-0.186,0.267,0.648,1.455,0.97,-18.68,-18.84,-18.24,-18.05,-17.42,-16.53,-16.07,-15.15,-14.64,-13.67,-13.17,-13.73,-13.17,-14.12,-13.87,-14.78,-14.88,-15.44,-15.58,-15.76,-16.27,-16.62,-17.53,-18.38,-18.16
"2011-03-02 07:30:00","$GPGGA,133057.99,4949.64627,N,09713.16941,W,1,8,1.16,228.9,M,-24.5,M,,*5A",2011,3,2,61,7.0000,30,0,-26.86,12.57,-29.77,100.8332,"R1.15",1.15,1.452,191,1.371,-20.82,-10.46,-6.909,-5.237,-4.116,-2.937,-1.966,-1.037,-0.186,0.267,0.654,1.477,0.9860,-18.88,-19.07,-18.46,-18.19,-17.54,-16.6,-16.11,-15.18,-14.64,-13.63,-13.11,-13.64,-1"2011-03-02 07:00:00","$GPGGA,130057.99,4949.64426,N,09713.17050,W,1,8,1.28,217.6,M,-24.5,M,,*5C",2011,3,2,61,7.0000,0,0,-27.18,12.67,-29.19,100.8332,"R1.14",1.14,1.45,189,1.37,-20.91,-10.46,-6.8690,-5.204,-4.083,-2.915,-1.955,-1.032,-0.186,0.272,0.643,1.488,0.97,-19,-19.21,-18.63,-18.33,-17.67,-16.67,-16.17,-15.18,-14.6,-13.58,-12.99,-13.53,-12.96,-13.93,-13.76,-14.65,-14.82,-15.41,-15.57,-15.82,-16.35,-16.74,-17.68,-18.52,-18.33
"2011-03-02 06:30:00","$GPGGA,123057.00,4949.64695,N,09713.17037,W,1,9,1.00,228.9,M,-24.5,M,,*5D",2011,3,2,61,6,30,0,-27.4,12.67,-29.09,100.8335,"R1.14",1.14,1.451,190,1.372,-21.14,-10.46,-6.8300,-5.159,-4.055,-2.898,-1.939,-1.026,-0.186,0.283,0.643,1.455,0.9480,-19.15,-1"2011-03-02 06:00:00","$GPGGA,120057.00,4949.64727,N,09713.16970,W,1,9,0.88,232.3,M,-24.5,M,,*5D",2011,3,2,61,6,0,0,-27.69,12.67,-28.79,100.8533,"R1.14",1.14,1.448,190,1.37,-21.29,-10.45,-6.785,-5.12,-4.022,-2.876,-1.934,-1.021,-0.186,0"2011-03-02 05:30:00","$GPGGA,113057.00,4949.64667,N,09713.17002,W,1,8,0.96,236.7,M,-24.5,M,,*5B",2011,3,2,61,5,30,0,-27.9,12.67,-30.16,100.7985,"R1.14",1.14,1.449,190,1.367,-21.47,-10.41,-6.734,-5.076,-3.995,-2.854,-1.917,-1.015,-0.186,0.272,0.654,1.466,0.9480,-19.36,-19.61,-18.97,-18.61,-17.83,-16.7,-16.11,-15.02,-14.36,-13.21,-12.6,-13.06,-12.52,-13.51,-13.32,-14.29,-14.46,-15.11,-15.32,-15.62,-16.21,-16.64,-17.6,-18.48,-18.3
"2011-03-02 05:00:00","$GPGGA,110057.0bjªr‚šŠbjšrÊº’bj’rÂšÂbjŠrÊŠ’bjŠr‚Šbj‚rŠÂ²b‚r’²ºb‚r²¢ÂbŠr¢ªªb‚rÊ¢Â‚bjŠÊr¢ÂbjŠÊrº"2011-03-02 04:30:00","$GPGGA,103057.00,4949.64723,N,09713.17097,W,1,7,1.02,232.1,M,-24.5,M,,*56",2011,3,2,61,4,30,0,-28.12,12.68,-29.53,100.8011,"R1.14",1.14,1.45,190,1.369,-21.93,-10.35,-6.627,-4.987,-3.934,-2.822,-1.895,-1.004,-0.186,0.267,0.637,1.472,0.97,-19.48,-19.75,-19.05,-18.63,-17.75,-16.59,-15.93,-14.82,-14.11,-12.91,-12.25,-12.67,-12.13,-13.11,-12.96,-13.94,-14.14,-14.79,-15.01,-15.31,-15.94,-16.4,-17.37,-18.24,-18.08
"2011-03-02 04:00:00","$GPGGA,100057.00,4949.64660,N,09713.17083,W,1,10,0.85,230.2,M,-24.5,M,,*6F",2011,3,2,61,4,0,0,-28.12,12.68,-28.6,100.7982,"R1.14",1.14,1.448,189,1.37,-21.96,-10.27,-6.565,-4.942,-3.906,-2.8,-1.89,-0.9990,-0.186,0.245,0.637,1.455,0.9480,-19.42,-19.71,-19,-18.56,-17.67,-16.48,-15.81,-14.69,-13.96,-12.75,-12.07,-12.46,-11.94,-12.9"2011-03-02 03:30:00","$GPGGA,093057.00,4949.64638,N,09713.17052,W,1,11,0.76,228.2,M,-24.5,M,,*61",2011,3,2,61,3,30,0,-28.09,12.69,-29.48,100.7713,"R1.14",1."2011-03-02 03:00:00","$GPGGA,090057.00,4949.64653,N,09713.16979,W,1,10,0.78,230.9,M,-24.5,M,,*63",2011,3,2,61,3,0,0,-27.76,12.69,-31.14,100.7509,"R1.15",1.15,1.455,190,1.37,-21.87,-10.1,-6.441,-4.853,-3.856,-2.756,-1.862,-0.9830,-0.186,0.272,0.665,1.455,0.9320,-19.17,-19.44,-18.7,-18.27,-17.37,-16.17,-15.51,-14.36,-13.63,-12.38,-11.67,-12,-11.5,-12.45,-12.35,-13.31,-13.53,-14.19,-14.44,-14.74,-15.41,-15.89,-16.83,-17.67,-17.53
"2011-03-02 02:30:00","$GPGGA,083057.00,4949.64662,N,09713.17081,W,1,8,1.00,232.8,M,-24.5,M,,*58",2011,3,2,61,2,30,0,-"2011-03-02 02:00:00","$GPGGA,080057.00,4949.64567,N,09713.17194,W,1,8,1.10,235.5,M,-24.5,M,,*53",2011,3,2,61,2,0,0,-26.97,12.68,-28.99,100.7509,"R1.15",1.15,1.448,190,1.369,-21.29,-9.92,-6.317,-4.764,-3.796,-2.728,-1.846,-0.9770,-0.18,0.272,0.643,1.466,0.97,-18.88,-19.14,-18.41,-17.99,-17.08,-15.88,-15.2,-14.06,-13.3,-12.02,-11.27,-11.51,-11.02,-11.96,-11.87,-12.82,-13.06,-13.73,-13.98,-14.31,-14.99,-15.48,-16.4,-17.25,-17.12
"2011-03-02 01:30:00","$GPGGA,073057.00,4949.64644,N,09713.17009,W,1,10,0.88,230.0,M,-24.5,M,,*61",2011,3,2,61,1,30,0,-27.04,12.65,-27.57,100.7014,"R1.14",1.14,1.443,190,1.368,-21.51,-9.8500,-6.25,-4.72,-3.768,-2.712,-1.841,-0.9720,-0.181,0.272,0.632,1.477,0.97,-18.83,-19.09,-18.35,-17.9,-16.95,-15.72,-15.02,-13.91,-13.12,-11.84,-11.03,-11.27,-10.77,-11.7,-11.63,-12.55,-12.82,-13.46,-13.72,-14.06,-14.75,-15.23,-16.17,-16.99,-16.86"2011-03-02 01:00:00","$GPGGA,070057.99,4949.64620,N,09713.16947,W,1,9,0.98,22SbjŠŠr¢šbjŠŠrš²bjŠ’ršbjŠ’rªªbjŠšrŠÊbjŠšr¢²bjŠšrºÂbjŠ¢r¢ÊbjŠ¢rÊÂbjŠªrÊbjŠ²rºbjŠ²"2011-03-02 00:30:00","$GPGGA,063057.99,4949.64713,N,09713.16887,W,1,8,1.40,231.4,M,-24.5,M,,*55",2011,3,2,61,0,30,0,-26.62,12.8,-29.58,100.6519,"R1.14",1.14,1.451,190,1.37,-21.21,-9.65,-6.119,-4.647,-3.734,-2.695,-1.829,-0.9710,-0.18,0.261,0.638,1.499,0.965,-18.5,-18.73,-18,-17.54,-16.57,-15.34,-14.65,-13.52,-12.75,-11.42,-10.57,-10.7,-10.23,-11.14,-11.08,-12,-12.26,-12.92,-13.18,-13.51,-14.21,-14.7,-15.62,-16.41,-16.29
"2011-03-02 00:00:00","$GPGGA,060057.99,4949.64723,N,09713.17017,W,1,11,0.78,229.2,M,-24.5,M,,*68",2011,3,2,61,0,0,0,-26.3,12.81,-27.98,100.6223,"R1.14",1.14,1.449,189,1.373,-21.15,-9.53,-6.056,-4.617,-3."2011-03-01 23:30:00","$GPGGA,053057.99,4949.64626,N,09713.16884,W,1,9,0.86,229.7,M,-24.5,M,,*52",2011,3,1,60,23,30,0,-25.72,12.84,-28.86,100.5853,"R1.14",1.14,1.45,192,1.371,-20.94,-9.41,-5.99,-4.575,-3.702,-2.668,-1.819,-0.9670,-0.181,0.26,0.631,1.465,0.952,-18.03,-18.28,-17.54,-17.08,-16.1,-14.87,-14.19,-13.11,-12.34,-10.99,-10.09,-10.14,-9.6900,-10"2011-03-01 23:00:00","$GPGGA,050057.00,4949.64656,N,09713.17065,W,1,12,0.69,230.7,M,-24.5,M,,*63",2011,3,1,60,23,0,0,-25.19,12.85,-29.84,100.5853,"R1.14",1.14,1.451,190,1.369,-20.88,-9.2700,-5.923,-4.542,-3.68,-2.662,-1.813,-0.961,-0.176,0.255,0.642,1.46,0.9310,-17.76,-18,-17.25,-16.78,-15.81,-14.57,-13.92,-12.87,-12.12,-10.77,-9.8500,-9.86,-9.42,-10.23,-10.23,-11.09,-11.35,-11.97,-12.23,-12.56,-13.26,-13.72,-14.57,-15.3,-15.21IÉÂb’‚ŠŠbšbŠb²‚b’’bš‚b‚bj’¢r¢ºbŠ’rÂÂbj’Âr¢’bŠ‚‚rªª’šb’Å.15",1.15"2011-03-01 22:00:00","$GPGGA,040057.99,4949.64583,N,09713.16951,W,1,11,0.90,232.2,M,-24.5,M,,*64",2011,3,1,60,22,0,0,-23.7,12.89,-28.82,100.5361,"R1.13",1.13,1.449,189,1.37,-20.18,-9,-5.816,-4.491,-3.652,-2.651,-1.808,-0.9620,-0.182,0.281,0.652,1.485,0.989,-17.06,-17.25,-16.55,-16.1,-15.15,-14,-13.38,-12.42,-11.73,-10.38,-9.4,-9.3100,-8.8900,-9.6400,-9.67,-10.45,-10.71,-11.31,-11.56,-11.86,-12.55,-12.98,-13.78,-14.44,-14.38
"2011-03-01 21:30:00","$GPGGA,033057.00,4949.64551,N,09713.17113,W,1,11,0.91,232.6,M,-24.5,M,,*65",2011,3,1,60,21,30,0,-22.83,12.91,-27.36,100.5029,"R0.95",0.9500,1.444,189,1.37,-19.72,-8.86,-5.76,-4."2011-03-01 21:00:00","$GPGGA,030057.00,4949.64441,N,09713.17002,W,1,9,1.22,235.8,M,-24.5,M,,*5E",2011,3,1,60,21,0,0,-21.92,12.93,-26.1,100.4687,"R1.15",1.15,1.441,192,1.37,-19.3,-8.7300,-5.713,-4.435,-3.634,-2.634,-1.796,-0.956,-0.176,0.265,0.657,1.475,0.9630,-16.19,-16.28,-15.64,-15.28,-14.43,-13.39,-12.84,-12,-11.39,-10.07,-9.01,-8.8100,-8.4,-9.12,-9.13,-9.86,-10.11,-10.64,-10.86,-11.15,-11.82,-12.21,-12.94,-13.53,-13.5
"2011-03-01 20:30:00","$GPGGA,023057.00,4949.64624,N,09713.16836,W,1,11,0.83,233.3,M,-24.5,M,,*6D",2011,3,1,60,20,30,0,-20.86,12.93,-24.25,100.4189,"R1.12",1.12,1.438,190,1.373,-18.6,-8.6000,-5.675,-4.419,-3.618,-2.635,-1.798,-0.957,-0.183,0"2011-03-01 20:00:00","$GPGGA,020057.00,4949.64711,N,09713.16878,W,1,11,0.77,236.2,M,-24.5,M,,*6C",2011,3,1,60,20,0,0,-19.83,12.93,-22.83,100.386,"R1.15",1.15,1.431,190,1.37,-18.27,-8.5,-5.641,-4.396,-3.602,-2.624,-1.792,-0.946,-0.177,0.258,0.656,1.462,0.988,-15.23,-15.22,-1"2011-03-01 19:30:00","$GPGGA,013057.00,4949.64817,N,09713.17039,W,1,11,0.79,237.0,M,-24.5,M,,*64",2011,3,1,60,19,30,0,-18.72,12.92,-22.06,100.386,"R1.04",1.04,1.431,190,1.372,-17.61,-8.41,-5.598,-4.376,-3.597,-2.614,-1.788,-0.947,-0.179,0.273,0.638,1.461,0.9490,-14.67,-14.64,-14.11,-13.96,-13.45,-12.69,-12.23,-11.56,-11.15,-9.8500,-8.66,-8.3,-7.962,-8.58,-8.53,-9.13,-9.36,-9.8,-9.99,-10.25,"2011-03-01 19:00:00","$GPGGA,010057.00,4949.65020,N,09713.17091,W,1,9,1.18,23²bjŠŠrªbjŠŠrŠ¢bjÊrÊÊbjÂrºbjÂr’ÂbjºrÊÊ’‚bjÂrª¢bjÂrª’‚‚bjÊr‚šbjÊr’²bjÊr²ŠbjÊrÂ’bj"2011-03-01 18:30:00","$GPGGA,003057.00,4949.64678,N,09713.17099,W,1,9,1.08,231.4,M,-24.5,M,,*54",2011,3,1,60,18,30,0,-16.83,13.09,-21.14,100.3139,"R1.15",1.15,1.426,190,1.37,-17.59,-8.29,-5.54,-4.341,-3.574,-2.602,-1.782,-0.947,-0.173,0.279,0.66,1.466,0.9760,-13.67,-13.62,-13.2,-13.21,-13,-12.44,-12,-11.39,-11.07,-9.99,-8.7,-8.3100,-8.04,-8.53,-8.51,-8.9400,-9.13,-9.4400,-9.65,-9.95,-10.4,-10.75,-11.1,-11.28,-11.4
"2011-03-01 18:00:00","$GPGGA,000057.00,4949.64614,N,09713.17053,W,1,9,0.90,230.3,M,-24.5,M,"2011-03-01 17:30:00","$GPGGA,233057.00,4949.64728,N,09713.17109,W,1,8,1.05,231.6,M,-24.5,M,,*57",2011,3,1,60,17,30,0,-14.15,13.11,-20.33,100.2528,"R1.16",1.16,1.424,190,1.37,-16.95,-8.08,-5.472,-4.318,-3.563,-2.591,-1.776,-0.942,-0.179,0.251,0.67,1.459,0.9690,-12.29,-12.1,-11.96,-12.28,-12.4,-12.06,-11.69,-11.14,-10.95,-10.08,-8.82,-8.37,-8.11,-8.4800,-8.4300,-8.7300,-8.8500,-9.1000,-9.29,-9.54,-9.8900,-10.17,-10.38,-10.46,-10.6
"2011-03-01 17:00:00","$GPGGA,230057.00,4949.64738,N,09713.16926,W,1,10,0.80,232.5,M,-24.5,M,,*64",2011,3,1,60,17,0,0,-12.81,13.11,-20.14,100.2199,"R1.12",1.12,1.424,181,1.37,-15.97,-7.87,-5.443,-4.301,-3.557,-2.596,-1.776,-0.947,-0.179,0.251,0.664,1.486,1.013,-11.67,-11.25,-11."2011-03-01 16:30:00","$GPGGA,223057.99,4949.64583,N,09713.17135,W,1,9,0.98,226.1,M,-24.5,M,,*5F",2011,3,1,60,16,30,0,-11.7,13.12,-20.2,100.1856,"R1.13",1.13,1.425,178,1.371,-14.69,-7.778,-5.421,-4.29,-3.551,-2.597,-1.777,-0.9480,-0.175,0.25,0.653,1.469,1.006,-11.24,-10.64,-10.72,-11.39,-11.82,-11.63,-11.3,-10.85"2011-03-01 16:00:00","$GPGGA,220057.99,4949.64622,N,09713.17125,W,1,9,0.97,234.5,M,-24.5,M,,*5D",2011,3,1,60,16,0,0,-10.67,13.1,-19.96,100.1546,"R1.14",1.14,1.423,186,1.37,-14.13,-7.693,-5.393,-4.273,-3.54,-2.58,-1.766,-0.942,-0.175,0.25,0.669,1.491,1.006,-10.82,-10.11,-10.25,-11.03,-11.58,-11.53,-11.23,-10.77,-10.72,-9.99,-8.8100,-8.54,-8.24,-8.5,-8.4"2011-03-01 15:30:00","$GPGGA,213057.99,4949.64668,N,09713.16995,W,1,10,0.87,234.6,M,-24.5,M,,*6B",2011,3,1,60,15,30,0ºš‚‚bjÂrÊbjÊr‚šbjÊrŠ²bjÊrššbjÊr¢ªbjÊrª’‚‚bjÊrª’‚‚bjÊr²²j
"2011-03-01 15:00:00","$GPGGA,210057.00,4949.64794,N,09713.17013,W,1,10,0.81,235.2,M,-24.5,M,,*6F",2011,3,1,60,15,0,0,-9.32,13.08,-20.12,100.0639,"R1.13",1.13,1.425,177,1.372,-13.87,-7.622,-5.369,-4.261,-3.539,-2.591,-1.776,-0.9480,-0.18,0.255,0.641,1.474,1.011,-10.17,-9.36,-9.6000,-10.5,-11.18,-11.21,-10.96,-10.52,-10.48,-9.79,-8.71,-8.62,-8.3100,-8.54,-8.42,-8.63,-8.65,-8.8,-8.9,-9.03,-9.1900,-9.3,-9.42,-9.4400,-9.55
"2011-03-01 14:30:00","$GPGGA,203057.00,4949.64844,N,09713.17239,W,1,9"2011-03-01 14:00:00","$GPGGA,200057.00,4949.64713,N,09713.17084,W,1,11,0.81,237.3,M,-24.5,M,,*6D",2011,3,1,60,14,0,0,-8.49,13.02,-20.37,99.98838,"R1.14",1.14,1.425,169,1.371,-13.97,-7.5780,-5.342,-4.239,-3.518,-2.575,-1.771,-0.9480,-0.181,0.254,0.668,1.457,0.994,-9.7700,-8.9300,-9.26,-10.21,-10.96,-11.07,-10.86,-10.43,-10.35,-9.6800,-8.6900,-8.82,-8.49,-8.72,-8.62,-8.86,-8.84,-9,-9.1000,-9.2,-9.32,-9.4,-9.5200,-9.54,-9.57
"2011-03-01 13:30:00","$GPGGA,193057.99,4949.64678,N,09713.17104,W,1,10,0.97,236.6,M,-24.5,M,,*63",2011,3,1,60,13,30,0,-8.22,12.98,-20.61,99.9555,"R1.13",1.13,1.425,186,1.37,-13.62,-7.5660,-5.331,-4.217,-3.512,-2.58,-1.771,-0.9480,-0.181,0.265,0.635,1.478,1.01,-9.61,-8.82,-9.1400--------------------------------------------
END TRANSMIT

