

RING

RING

CONNECT 4800
--------------------------------------------
CEOS_IMBB06
----------------IMB_data--------------------
"2011-03-04 01:00:00","$GPGGA,070057.99,4949.64604,N,09713.17151,W,1,10,0.96,229.2,M,-24.5,M,,*6F",2011,3,4,63,1,0,0,-10.14,13.27,-12.79,99.34931,"R1.14",1.14,1.405,192,1.372,-9.5600,-5.789,-4.616,-3.997,-3.535,-2.733,-1.962,-1.111,-0.256,0.277,0.712,1.485,0.897,-7.9610,-7.87,-7.6650,-7.5050,-7.347,-7.0980,-6.962,-6.68,-6.511,-6.242,-6.001,-6.068,-5.906,-6.08,-6.04,-6.192,-6.231,-6.337,-6.337,-6.377,-6.562,-6.691,-6.939,-7.0520,-7.0130
"2011-03-04 00:30:00","$GPGGA,063057.99,4949.64678,N,09713.17141,W,1,9,0.94,231.6,M,-24.5,M,,*50",2011,3,4,63,0,30,0,-10.03,13.27,-12.59,99.34871,"R1.11",1.11,1.405,192,1.372,-9.34,-5.75,-4.621,-4.008,-3.551,-2.755,-1.973,-1.122,-0.256,0.239,0.647,1.469,0.897,-7.9150,-7.824,-7.6190,-7.4600,-7.2900,-7.03,-6.8940,-6.624,-6.466,-6.197,-5.962,-6.024,-5.861,-6.029,-5.979,-6.141,-6.175,-6.287,-6.276,-6.304,-6.495,-6.613,-6.86,-6.996,-6.951
"2011-03-04 00:00:00","$GPGGA,060057.99,4949.64651,N,09713.17079,W,1,9,0.90,229.3,M,-24.5,M,,*5A",2011,3,4,63,0,0,0,-9.8900,13.28,-12.3,99.31512,"R1.13",1.13,1.404,192,1.372,-9.11,-5.711,-4.627,-4.019,-3.568,-2.766,-1.984,-1.128,-0.256,0.239,0.625,1.458,0.897,-7.87,-7.784,-7.596,-7.432,-7.239,-6.9680,-6.832,-6.579,-6.422,-6.152,-5.928,-5.996,-5.828,-5.99,-5.928,-6.085,-6.113,-6.22,-6.208,-6.22,-6.422,-6.517,-6.7700,-6.923,-6.8890
"2011-03-03 23:30:00","$GPGGA,053057.99,4949.64713,N,09713.16969,W,1,10,0.84,232.4,M,-24.5,M,,*64",2011,3,3,62,23,30,0,-9.78,13.28,-12.2,99.28219,"R1.13",1.13,1.404,192,1.372,-9.0200,-5.695,-4.633,-4.031,-3.585,-2.784,-1.996,-1.129,-0.257,0.238,0.641,1.462,0.891,-7.825,-7.7560,-7.574,-7.393,-7.2,-6.923,-6.788,-6.529,-6.383,-6.131,-5.913,-5.974,-5.806,-5.963,-5.896,-6.052,-6.069,-6.176,-6.153,-6.17,-6.361,-6.456,-6.704,-6.85,-6.8160
"2011-03-03 23:00:00","$GPGGA,050057.99,4949.64623,N,09713.17056,W,1,10,0.80,230.2,M,-24.5,M,,*61",2011,3,3,62,23,0,0,-9.6400,13.28,-12.16,99.29042,"R1.17",1.17,1.404,192,1.372,-9,-5.682,-4.643,-4.057,-3.611,-2.804,-2.011,-1.138,-0.261,0.234,0.625,1.469,0.897,-7.7430,-7.692,-7.5320,-7.351,-7.153,-6.8820,-6.758,-6.493,-6.342,-6.112,-5.905,-5.955,-5.799,-5.944,-5.871,-6.017,-6.034,-6.134,-6.112,-6.123,-6.314,-6.403,-6.645,-6.775,-6.741
"2011-03-03 22:30:00","$GPGGA,043057.99,4949.64612,N,09713.16905,W,1,10,0.82,233.2,M,-24.5,M,,*6E",2011,3,3,62,22,30,0,-9.46,13.28,-12.07,99.28137,"R1.07",1.07,1.403,192,1.372,-8.8900,-5.653,-4.647,-4.073,-3.632,-2.825,-2.027,-1.149,-0.267,0.245,0.626,1.442,0.914,-7.673,-7.616,-7.469,-7.2760,-7.084,-6.819,-6.695,-6.43,-6.296,-6.088,-5.893,-5.943,-5.781,-5.921,-5.854,-5.982,-5.999,-6.094,-6.072,-6.072,-6.251,-6.346,-6.565,-6.7,-6.655
"2011-03-03 22:00:00","$GPGGA,040057.99,4949.64554,N,09713.16998,W,1,10,0.85,231.5,M,-24.5,M,,*6A",2011,3,3,62,22,0,0,-9.25,13.28,-11.93,99.2619,"R1.11",1.11,1.403,192,1.372,-8.78,-5.62,-4.648,-4.09,-3.661,-2.843,-2.039,-1.155,-0.268,0.249,0.624,1.462,0.896,-7.583,-7.515,-7.379,-7.1980,-7.0060,-6.746,-6.622,-6.375,-6.252,-6.062,-5.871,-5.933,-5.771,-5.905,-5.827,-5.95,-5.961,-6.045,-6.017,-6.022,-6.19,-6.274,-6.493,-6.611,-6.566
"2011-03-03 21:30:00","$GPGGA,033057.99,4949.64677,N,09713.16849,W,1,11,0.93,235.7,M,-24.5,M,,*61",2011,3,3,62,21,30,0,-9.05,13.28,-11.73,99.22093,"R1.00",1,1.402,192,1.372,-8.6900,-5.592,-4.648,-4.107,-3.677,-2.865,-2.055,-1.161,-0.268,0.238,0.63,1.462,0.9070,-7.4920,-7.424,-7.2880,-7.107,-6.9150,-6.662,-6.544,-6.314,-6.19,-6.028,-5.849,-5.916,-5.76,-5.877,-5.804,-5.916,-5.922,-5.994,-5.961,-5.961,-6.123,-6.207,-6.409,-6.521,-6.476
"2011-03-03 21:00:00","$GPGGA,030057.99,4949.64639,N,09713.17094,W,1,10,0.92,231.6,M,-24.5,M,,*64",2011,3,3,62,21,0,0,-8.82,13.28,-11.54,99.19958,"R1.10",1.1,1.401,193,1.371,-8.5,-5.553,-4.659,-4.129,-3.694,-2.881,-2.061,-1.166,-0.268,0.249,0.657,1.484,0.923,-7.385,-7.3280,-7.1980,-7.0060,-6.82,-6.572,-6.465,-6.252,-6.134,-5.989,-5.838,-5.911,-5.754,-5.86,-5.782,-5.883,-5.883,-5.944,-5.905,-5.894,-6.05,-6.123,-6.314,-6.415,-6.381
"2011-03-03 20:30:00","$GPGGA,023057.00,4949.64627,N,09713.17006,W,1,11,0.85,234.2,M,-24.5,M,,*64",2011,3,3,62,20,30,0,-8.51,13.27,-11.44,99.19958,"R1.14",1.14,1.401,194,1.371,-8.38,-5.514,-4.665,-4.151,-3.727,-2.898,-2.077,-1.177,-0.268,0.26,0.635,1.484,0.9020,-7.271,-7.1980,-7.068,-6.898,-6.707,-6.476,-6.381,-6.173,-6.078,-5.961,-5.827,-5.905,-5.749,-5.849,-5.76,-5.849,-5.838,-5.894,-5.849,-5.827,-5.983,-6.028,-6.213,-6.308,-6.274
"2011-03-03 20:00:00","$GPGGA,020057.00,4949.64657,N,09713.16908,W,1,10,0.88,236.0,M,-24.5,M,,*6A",2011,3,3,62,20,0,0,-8.17,13.26,-11.39,99.19958,"R1.14",1.14,1.401,193,1.371,-8.24,-5.47,-4.671,-4.173,-3.749,-2.92,-2.083,-1.177,-0.268,0.26,0.635,1.462,0.9020,-7.13,-7.062,-6.938,-6.7690,-6.594,-6.387,-6.297,-6.106,-6.028,-5.939,-5.827,-5.911,-5.76,-5.838,-5.743,-5.821,-5.804,-5.849,-5.804,-5.771,-5.911,-5.961,-6.117,-6.207,-6.162
"2011-03-03 19:30:00","$GPGGA,013057.00,4949.64815,N,09713.16993,W,1,9,0.93,234.4,M,-24.5,M,,*54",2011,3,3,62,19,30,0,-7.7950,13.23,-11.25,99.16672,"R1.04",1.04,1.401,193,1.372,-8.04,-5.425,-4.687,-4.206,-3.776,-2.942,-2.099,-1.183,-0.262,0.249,0.651,1.484,0.9070,-6.972,-6.8820,-6.791,-6.634,-6.476,-6.274,-6.207,-6.034,-5.972,-5.916,-5.827,-5.922,-5.765,-5.838,-5.737,-5.804,-5.771,-5.804,-5.749,-5.715,-5.827,-5.871,-6.017,-6.095,-6.05
"2011-03-03 19:00:00","$GPGGA,010057.00,4949.64953,N,09713.16992,W,1,9,1.14,237.5,M,-24.5,M,,*59",2011,3,3,62,19,0,0,-7.5050,13.36,-11.05,99.13385,"R1.14",1.14,1.4,194,1.371,-7.89,-5.375,-4.693,-4.228,-3.798,-2.953,-2.104,-1.183,-0.262,0.26,0.651,1.473,0.9020,-6.791,-6.69,-6.589,-6.471,-6.319,-6.14,-6.095,-5.961,-5.922,-5.894,-5.838,-5.944,-5.793,-5.849,-5.743,-5.793,-5.749,-5.765,-5.704,-5.648,-5.76,-5.771,-5.905,-5.983,-5.939
"2011-03-03 18:30:00","$GPGGA,003057.00,4949.64799,N,09713.17087,W,1,11,0.89,233.8,M,-24.5,M,,*6A",2011,3,3,62,18,30,0,-6.972,13.36,-10.77,99.10921,"R1.14",1.14,1.4,194,1.372,-7.837,-5.329,-4.719,-4.266,-3.83,-2.979,-2.12,-1.187,-0.262,0.266,0.652,1.463,0.9020,-6.57,-6.452,-6.368,-6.278,-6.15,-6.01,-5.987,-5.898,-5.887,-5.898,-5.876,-5.982,-5.831,-5.887,-5.764,-5.797,-5.742,-5.742,-5.675,-5.591,-5.68,-5.68,-5.792,-5.859,-5.814
"2011-03-03 18:00:00","$GPGGA,000057.99,4949.64629,N,09713.17034,W,1,10,0.79,236.1,M,-24.5,M,,*69",2011,3,3,62,18,0,0,-6.313,13.37,-10.62,99.11742,"R1.05",1.05,1.399,195,1.372,-7.6570,-5.276,-4.743,-4.306,-3.865,-3.003,-2.128,-1.195,-0.264,0.269,0.65,1.46,0.905,-6.236,-6.124,-6.079,-6.051,-5.967,-5.861,-5.878,-5.833,-5.855,-5.9,-5.9,-6.017,-5.872,-5.911,-5.788,-5.81,-5.738,-5.721,-5.632,-5.543,-5.615,-5.593,-5.688,-5.744,-5.699
"2011-03-03 17:30:00","$GPGGA,233057.99,4949.64693,N,09713.17016,W,1,10,0.92,236.5,M,-24.5,M,,*6B",2011,3,3,62,17,30,0,-5.461,13.37,-10.63,99.08456,"R1.06",1.06,1.399,195,1.371,-7.168,-5.196,-4.769,-4.338,-3.897,-3.018,-2.143,-1.199,-0.258,0.259,0.623,1.461,0.9110,-5.814,-5.714,-5.725,-5.787,-5.77,-5.725,-5.775,-5.792,-5.837,-5.926,-5.949,-6.072,-5.926,-5.949,-5.82,-5.831,-5.759,-5.725,-5.625,-5.525,-5.569,-5.525,-5.603,-5.658,-5.591
"2011-03-03 17:00:00","$GPGGA,230057.99,4949.64736,N,09713.16886,W,1,10,0.85,234.0,M,-24.5,M,,*67",2011,3,3,62,17,0,0,-4.657,13.36,-10.1,99.06812,"R1.09",1.09,1.399,196,1.373,-6.329,-5.108,-4.803,-4.382,-3.919,-3.04,-2.154,-1.199,-0.258,0.259,0.656,1.477,0.906,-5.413,-5.285,-5.369,-5.525,-5.591,-5.603,-5.703,-5.759,-5.837,-5.96,-6.004,-6.133,-5.993,-6.016,-5.876,-5.87,-5.781,-5.731,-5.614,-5.502,-5.525,-5.458,-5.525,-5.575,-5.502
"2011-03-03 16:30:00","$GPGGA,223057.99,4949.64614,N,09713.16930,W,1,9,0.94,232.5,M,-24.5,M,,*53",2011,3,3,62,16,30,0,-4.202,13.35,-10,99.07616,"R1.15",1.15,1.399,197,1.373,-5.949,-5.069,-4.847,-4.427,-3.947,-3.051,-2.154,-1.199,-0.258,0.248,0.623,1.477,0.9170,-5.124,-4.969,-5.08,-5.308,-5.447,-5.508,-5.658,-5.748,-5.865,-6.016,-6.072,-6.223,-6.077,-6.083,-5.943,-5.926,-5.826,-5.77,-5.636,-5.508,-5.502,-5.413,-5.491,-5.547,-5.458
"2011-03-03 16:00:00","$GPGGA,220057.99,4949.64645,N,09713.17016,W,1,10,0.91,234.5,M,-24.5,M,,*63",2011,3,3,62,16,0,0,-3.751,13.34,-10.36,99.05772,"R1.14",1.14,1.404,185,1.377,-5.665,-5.054,-4.898,-4.478,-3.981,-3.069,-2.167,-1.213,-0.266,0.251,0.68,1.469,0.914,-4.832,-4.666,-4.832,-5.131,-5.331,-5.465,-5.665,-5.799,-5.939,-6.118,-6.185,-6.347,-6.19,-6.185,-6.045,-6.028,-5.922,-5.855,-5.71,-5.576,-5.554,-5.459,-5.52,-5.559,-5.465
"2011-03-03 15:30:00","$GPGGA,213057.00,4949.64561,N,09713.16867,W,1,9,0.91,234.8,M,-24.5,M,,*5C",2011,3,3,62,15,30,0,-3.084,13.31,-10.12,99.03478,"R1.13",1.13,1.405,195,1.379,-5.024,-5.029,-4.957,-4.525,-4.012,-3.095,-2.181,-1.216,-0.269,0.236,0.644,1.459,0.8990,-4.514,-4.327,-4.581,-4.996,-5.273,-5.468,-5.713,-5.892,-6.054,-6.249,-6.328,-6.485,-6.322,-6.328,-6.177,-6.16,-6.037,-5.959,-5.813,-5.663,-5.624,-5.496,-5.557,-5.624,-5.512
"2011-03-03 15:00:00","$GPGGA,210057.00,4949.64651,N,09713.16998,W,1,12,0.71,236.5,M,-24.5,M,,*65",2011,3,3,62,15,0,0,-2.655,13.29,-10.26,99.02834,"R1.14",1.14,1.399,198,1.372,-4.63,-5.062,-5.024,-4.57,-4.034,-3.106,-2.187,-1.222,-0.264,0.231,0.633,1.454,0.8940,-4.321,-4.128,-4.409,-4.913,-5.268,-5.512,-5.802,-6.003,-6.188,-6.389,-6.474,-6.637,-6.468,-6.474,-6.322,-6.305,-6.182,-6.098,-5.936,-5.78,-5.719,-5.579,-5.652,-5.735,-5.602
"2011-03-03 14:30:00","$GPGGA,203057.00,4949.64669,N,09713.17047,W,1,10,0.79,238.0,M,-24.5,M,,*67",2011,3,3,62,14,30,0,-2.334,13.26,-9.63,99.03658,"R1.13",1.13,1.397,187,1.372,-4.183,-5.107,-5.096,-4.614,-4.056,-3.117,-2.192,-1.222,-0.264,0.247,0.633,1.481,0.9320,-4.183,-3.99,-4.316,-4.891,-5.323,-5.607,-5.936,-6.16,-6.361,-6.552,-6.631,-6.811,-6.631,-6.653,-6.496,-6.485,-6.361,-6.272,-6.104,-5.936,-5.869,-5.713,-5.802,-5.892,-5.741
"2011-03-03 14:00:00","$GPGGA,200057.99,4949.64526,N,09713.17096,W,1,9,0.89,233.5,M,-24.5,M,,*59",2011,3,3,62,14,0,0,-2.142,13.21,-9.78,99.07237,"R1.14",1.14,1.397,192,1.372,-4.095,-5.196,-5.179,-4.658,-4.084,-3.139,-2.198,-1.222,-0.264,0.247,0.633,1.448,0.8670,-4.172,-3.941,-4.288,-4.94,-5.423,-5.758,-6.115,-6.35,-6.547,-6.738,-"2011-03-03 13:30:00","$GPGGA,193057.99,4949.64638,N,09713.17070,W,1,10,0.97,240.2,M,-24.5,M,,*60",2011,3,3,62,13,30,0,-2.099,13.15,-10.61,99.12212,"R1.15",1.15,1.397,174,1.37,-3.968,-5.307,-5.257,-4.702,-4.111,-3.144,-2.209,-1.227,-0.264,0.252,0.644,1.47,0.91,-4.227,-3.963,-4.338,-5.068,-5.602,-5.959,-6.35,-6.586,-6.7830,-6.946,-6.991,-7.1720,-6.969,-7.0140,-6.8560,-6.879,-6.755,-6.698,-6.519,-6.361,-6.294,-6.137,-6.272,-6.39,-6.221
"2011-03-03 13:00:00","$GPGGA,190057.00,4949.64750,N,09713.17001,W,1,10,0.96,235.4,M,-24.5,M,,*6F",2011,3,3,62,1"2011-03-03 12:30:00","$GPGGA,183057.00,4949.64750,N,09713.17109,W,1,10,0.87,236.2,M,-24.5,M,,*61",2011,3,3,62,12,30,0,-3.15,13.23,-10.49,99.1503,"R1.11",1.11,1.397,170,1.37,-4.239,-5.642,-5.413,-4.781,-4.145,-3.172,-2.214,-1.221,-0.252,0.259,0.65,1.472,0.9390,-4.836,-4.537,-4.897,-5.669,-6.262,-6.599,-6.982,-7.162,-7.304,-7.366,-7.3550,-7.5530,-7.338,-7.423,-7.2750,-7.332,-7.2300,-7.208,-7.0320,-6.891,-6.863,-6.722,-6.925,-7.1,-6.9140
"2011-03-03 12:00:00","$GPGGA,180057.00,4949.64713,N,09713.17029,W,1,11,0.80,236.6,M,-24.5,M,,*64",2011,3,3,62,12,0,0,-4.096,13.2,-10.92,99.1996,"R1.14",1.14,1.399,169,1.371,-4.835,-5.864,-5.496,-4.813,-4.161,-3.171,-2.219,-1.23"2011-03-03 11:30:00","$GPGGA,173057.00,4949.64680,N,09713.17098,W,1,10,0.90,237.3,M,-24.5,M,,*6D",2011,3,3,62,11,30,0,-5.221,13.17,-11.16,99.1996,"R1.08",1.08,1.399,169,1.37,-5.581,-6.089,-5.564,-4.847,-4.178,-3.188,-2.225,-1.232,-0.252,0.265,0.656,1.489,0.928,-6.078,-5.765,-6.033,-6.689,-7.1910,-7.406,-7.702,-7.793,-7.8610,-7.8150,-7.7360,-7.958,-7."2011-03-03 11:00:00","$GPGGA,170057.99,4949.64629,N,09713.17055,W,1,11,0.75,234.6,M,-24.5,M,,*60",2011,3,3,62,11,0,0,-6.466,13.16,-11.73,99.23246,"R1.14",1.14,1.4,169,1.37,-6.387,-6.302,-5.631,-4.881,-4.19,-3.188,-2.23,-1.232,-0.252,0.282,0.6900,1.506,0.9780,-6.7240,-6.443,-6.679,-7.266,-7.674,-7.8280,-8.0600,-8.0"2011-03-03 10:30:00","$GPGGA,163057.99,4949.64723,N,09713.17043,W,1,10,1.01,236.7,M,-24.5,M,,*6E",2011,3,3,62,10,30,0,-7.659,13.13,-12.12,99.23418,"R1.14",1.14,1.4,1"2011-03-03 10:00:00","$GPGGA,160057.00,4949.64629,N,09713.17185,W,1,11,0.93,231.3,M,-24.5,M,,*65",2011,3,3,62,10,0,0,-8.92,13.11,-12.79,99.25352,"R1.15",1.15,1.402,168,1.369,-7.9150,-6.691,-5.738,-4.926,-4.218,-3.205,-2.235,-1.231,-0.251,0.255,0.647,1.469,0.9250,-8.04,-7.813,-7.9150,-8.28,-8.51,-8.53,-8.66,-8.58,-8.57,-8.3900,-8.24,-8.47,-8.1900,-8.41,-8.2700,-8.42,-8.4,-8.46,-8.36,-8.33,-8.42,-8.45,-8.71,-8.91,-8.7700
"2011-03-03 09:30:00","$GPGGA,153057.00,4949.64665,N,09713.17157,W,1,9,0.88,234.7,M,-24.5,M,,*50",2011,3,3,62,9,30,0,-10.12,13."2011-03-03 09:00:00","$GPGGA,150057.00,4949.64768,N,09713.17002,W,1,10,0.75,235.1,M,-24.5,M,,*63",2011,3,3,62,9,0,0,-10.84,13.07,-13.61,99.31553,"R1.14",1.14,1.404,169,1.369,-9.22,-6.988,-5.826,-4.974,-4.249,-3.225,-2.244,-1.234,-0.254,0.23,0.633,1.477,0.9110,-9.05,-8.88,-8.8500,-9.03,-9.13,-9.04,-9.08,-8.95,-8.9,-8.66,-8.4800,-8.72,-8.41,-8.66,-8.51,-8.72,-8.7,-8.79,-8.6900,-8.6800,-8.8100,-8.88,-9.17,-9.3900,-9.2700
"2011-03-03 08:30:00","$GPGGA,143057.00,4949.64794,N,09713.16930,W,1,10,0.75,237.2,M,-24.5,M,,*6A",2011,3,3,62,8,30,0,-11.72,13.04,-14.09,99.33197,"R1.14",1.14,1.405,170,1.368,-9.92,-7.117,-5.858,-4.989,-4.252,-3.228,-2.247,-1.231,-0.245,0.234,0"2011-03-03 08:00:00","$GPGGA,140057.99,4949.64690,N,09713.16829,W,1,10,0.79,232.6,M,-24.5,M,,*68",2011,3,3,62,8,0,0,-12.34,13.01,-14.52,99.34841,"R1.15",1.15,1.406,169,1.368,-10.46,-7.2180,-5.89,-5.005,-4.257,-3.227,-2.252,-1.231,-0.244,0.256,0.659,1.503,0.9260,-9.84,-9.74,-9.59,-9.58,-9.54,-9.38,-9.38,-9.1900,-9.13,-8.88,-8.6800,-8.8900,-8.57,-8.8500"2011-03-03 07:30:00","$GPGGA,133057.99,4949.64752,N,09713.16995,W,1,9,1.05,230.2,M,-24.5,M,,*51",2011,3,3,62,7.0000,30,0,-12.67,12.96,-14.91,99.36486,"R1.06",1.06,1.407,170,1.368,-10.76,-7.286,-5.918,-5.027,-4.274,-3.233,-2.252,-1.236,-0.244,0.256,0.632,1.443,0.937,-10.01,-9.9300,-9.7700,-9.7300,-9.67,-9.49,-9.47"2011-03-03 07:00:00","$GPGGA,130057.99,4949.64624,N,09713.16984,W,1,9,1.13,228.5,M,-24.5,M,,*5B",2011,3,3,62,7.0000,0,0,-12.93,13.09,-15.06,99.3813,"R1.14",1.14,1.407,170,1.368,-10.86,-7.331,-5.9"2011-03-03 06:30:00","$GPGGA,123057.99,4949.64635,N,09713.16945,W,1,10,0.97,227.3,M,-24.5,M,,*68",2011,3,3,62,6,30,0,-13.03,13.08,-15.16,99.41419,"R1.14",1.14,1.407,170,1.367,-10.93,-7.3820,-5.974,-5.06,-4.296,-3.249,-2.257,-1.236,-0.244,0.24,0.659,1.487,0.8930,-10.18,-10.1,-9.96,-9.91,-9.86,-9.6800,-9.66,-9.46,-9.38,-9.12,-8.92,-9.13,-8.8,-9.1000,-8.9400,-9.2,-9.1900,-9.3100,-9.24,-9.22,-9.4,-9.46,-9.8,-10.06,-9.96
"2011-03-03 06:00:00","$GPGGA,120057.99,4949.64677,N,09713.16839,W,1,9,0.89,232.2,M,-24.5,"2011-03-03 05:30:00","$GPGGA,113057.00,4949.64630,N,09713.16821,W,1,10,0.80,235.5,M,-24.5,M,,*6E",2011,3,3,62,5,30,0,-13.27,13.07,-15.45,99.46352,"R1.14",1.14,1.408,170,1.368,-11.15,-7.484,-6.03,-5.094,-4.312,-3.249,-2.257,-1.236,-0.244,0.262,0.637,1.465,0.915,-10.38,-10.31,-10.16,-10.13,-10.07,-9.8900,-9.8500,-9.63,-9.54,-9.25,-9.03,-9.2700,-8.9400,-9.26,-9.11,-9.38,-9.38,-9.5,-9.4300,-9.4400,-9.62,-9.7,-10.04,-10.3,-10.21
"2011-03-03 05:00:00","$GPGGA,110057.00,4949.64634,N,09713.17073,W,1,9,0.87,234.4,M,-24.5,M,,*58",2011,3,3,62,5,0,0,-13.39,13.06,-15.69,99.49642,"R1.15",1.15,1.409,171,1.368,-11.26,-7.541,-6.058,-5.105,-4.318,-3.26,-2.257,-1.236,-0.244,0.2"2011-03-03 04:30:00","$GPGGA,103057.99,4949.64668,N,09713.16953,W,1,10,0.80,233.4,M,-24.5,M,,*61",2011,3,3,62,4,30,0,-13.56,13.05,-15.94,99.56218,"R1.12",1.12,1.41,171,1.368,-11.31,-7.5920,-6.086,-5.127,-4.323,-3.26,-2.257,-1.236,-0.239,0.273,0.632,1.438,0.915,-10.63,-10.57,-10.41,-10.37,-10.31,-10.1,-10.08,-9.83,-9.7,-9.41,-9.1800,-9.41,-9.07,-9.41,-9.25,-9.54,-9.54,-9.6800,-9.61,-9.63,-9"2011-03-03 04:00:00","$GPGGA,100057.99,4949.64664,N,09713.17058,W,1,10,0.86,231.3,M,-24.5,M,,*6E",2011,3,3,62,4,0,0,-13.71,13.04,-16.04,99.59508,"R1.15",1.15,1.41,175,1.368,-11.48,-7.655,-6.114,-5.132,-4.334,-3.266,-2.257,-1.236,-0.239,0.262,0.643,1.454,0.8990,-10.77,-10.73,"2011-03-03 03:30:00","$GPGGA,093057.99,4949.64549,N,09713.16986,W,1,11,0.77,228.5,M,-24.5,M,,*63",2011,3,3,62,3,30,0,-13.88,13.03,-16.23,99.62797,"R1.15",1.15,1.41,187,1.367,-11.62,-7.7230,-6.142,-5.149,-4.34,-3.271,-2.263,-1.236,-0.23"2011-03-03 03:00:00","$GPGGA,090057.99,4949.64708,N,09713.17029,W,1,10,0.78,231.2,M,-24.5,M,,*6B",2011,3,3,62,3,0,0,-14.05,13.01,-16.47,99.71018,"R1.14",1.14,1.412,191,1.369,-11.86,-7.78,-6.165,-5.16,-4.34,-3.271,-2.263,-1.236,-0.239,0.273,0.643,1.454,0.85,-11.12,-11.08,-10.89,-10.83,-10.74,-10.49,-10.41,-10.13,-9.96,-9.59,-9.33,-9.59,-9.24,-9.62,-9.4800,-9.8,-9.8,-9.96,-9.9,-9.9400,-10.15,-10.27,-10.65,-10.95,-10.86
"2011-03-03 02:30:00","$GPGGA,083057.99,4949.64657,N,09713.17004,W,1,10,0.82,233.6,M,-24.5,M,,*6"2011-03-03 02:00:00","$GPGGA,080057.00,4949.64557,N,09713.17085,W,1,8,1.00,230.9,M,-24.5,M,,*59",2011,3,3,62,2,0,0,-14.3,12.97,-16.96,99.77969,"R1.13",1.13,1.413,192,1.368,-12.2,-7.905,-6.209,-5.182,-4.356,-3.271,-2.268,-1.236,-0.239,0.262,0.632,1.465,0.8930,-11.49,-11.44,-11.23,-11.15,-11.05,-10.74,-10.63,-10.3,-10.11,-9.7,-9.4300,-9.7,-9.36,-9.75,-9.62,-9.9400,-9.96,-10.13,-10.08,-10.14,-10.37,-10.5,-10.89,-11.19,-11.1
"2011-03-03 01:30:00","$GPGGA,073057.00,4949.64626,N,09713.17030,W,1,8,0.96,227.2,M,-24.5,M,,*5D",2011,3,3,62,1,30,0,-14.45,12.93,-17.11,99.8833,"R1.15",1.15,1.414,191,1.369,-12.41,-7.957,-6.232,-5.188,-"2011-03-03 01:00:00","$GPGGA,070057.00,4949.64700,N,09713.17047,W,1,9,0.98,227.7,M,-24.5,M,,*51",2011,3,3,62,1,0,0,-14.77,13.05,-17.2,99.8917,"R1.14",1.14,1.417,190,1.372,-12.61,-8.0200,-6.247,-5.191,-4.36,-3.274,-2.266,-1.234,-0.237,0.253,0.645,1.489,0.901,-11.86,-11.81,-11.57,-11.47,-11.31,-10.97,-10.83,-10.47,-10.24,-9.8,-9.5200,-9.7700,-9.41,-9.84,-9.7,-10.05,-10.08,-10.27,-10.23,-10.28,-10.52,-10.65,-11.09,-11.43,-11.35
"2011-03-03 00:30:00","$GPGGA,063057.99,4949.64603,N,09713.17074,W,1,8,1.07,228.0,M,-24.5,M,,*5F",2011,3,3,62,0,30,0,-14.89,13.06,-17.34,99.94106,"R1.15",1.15,1.417,168,1.371,-12.83,-8.08,-6.262,-5.195,-4.358,-3.272,-2.264,-1.231,-0.234,0"2011-03-03 00:00:00","$GPGGA,060057.99,4949.64633,N,09713.17020,W,1,10,0.86,229.6,M,-24.5,M,,*68",2011,3,3,62,0,0,0,-14.94,13.06,-17.44,99.9904,"R1.14",1.14,1.417,168,1.371,-12.95,-8.13,-6.27,-5.197,-4.36,-3.269,-2.26,-1.228,-0.225,0.259,0.6620,1.496,0.864,-12.12,-12.11,-11"2011-03-02 23:30:00","$GPGGA,053057.99,4949.64642,N,09713.16939,W,1,9,0.87,230.6,M,-24.5,M,,*5F",2011,3,2,61,23,30,0,-15.04,13.06,-17.48,100.0069,"R1.14",1.14,1.417,170,1.371,-13.05,-8.17,-6.279,-5.201,-4.352,-3.272,-2.258,-1.226,-0.223,0.251,0.659,1.514,0.9590,-12.28,-12.27,-11.99,-11.88,-11.71,-11.3,-11.12,-10.7,-10.42,-9.88,-9.5600,-9.84,-9.51,-9.9800,-9.84,-10.22,-10.28,-10.49,-10.49,-1"2011-03-02 23:00:00","$GPGGA,050057.99,4949.64643,N,09713.17082,W,1,9,0.88,227.7,M,-24.5,M,,*5D",2011,3,2"2011-03-02 22:30:00","$GPGGA,043057.99,4949.64566,N,09713.17005,W,1,10,0.82,228.2,M,-24.5,M,,*6C",2011,3,2,61,22,30,0,-15.49,13.06,-17.72,100.07,"R1.15",1.15,1.417,170,1.37,-13.44,-8.2700,-6.295,-5.206,-4.363,-3.277,-2.257,-1.219,-0.222,0.268,0.628,1.493,0.905,-12.75,-12.78,-12.48,-12.36,-12.1,-11.58,-11.33,-10.85,-10.5,-9.9,-9.54,-9.79,-9.49,-9.96,-9.83,-10.22,-10.29,-10.52,-10.54,-10.66,-10.99,-11.18,-11.67,-12.03,-11.95
"2011-03-02 22:00:00","$GPGGA,040057.00,4949.64527,N,09713.17155,W,1,10,0.91,228.9,M,-24.5,M,,*67",2011,3,2,61,22,0,0,-15.9,13.06,-17.87,100.0734,"R1.15",1.15,1."2011-03-02 21:30:00","$GPGGA,033057.00,4949.64606,N,09713.17040,W,1,10,0.97,233.3,M,-24.5,M,,*60",2011,3,2,61,21,30,0,-16.24,13.05,-17.92,100.1048,"R1.15",1.15,1.418,170,1.371,-14.42,-8.3500,-6.295,-5.206,-4.374,-3.282,-2.257,-1.219,-0.222,0.246,0.644,1.537,0.9320,-13.2,-13.29,-12.92,-12.7,-12.29,-11.68,-11.37,-10.85,-10.49,-9.86,-9.49,-9.7200,-9.4300,-9.8900,-9.75,-10.13,-10.19,-10.42,-10.43,-10.55,-10.9,-11.11,-11.58,-11.93,-11.87
"2011-03-02 21:00:00","$GPGGA,030057.00,4949.64554,N,09713.16981,W,1,10,0.97,233.8,M,-24.5,M,,*69",2011,3,2,61,21,0,0,-16.13,13.05,-18.21,100.1208,"R1.14",1.14,1.419,168,1.371,-14.62,-8.3500,-6.289,-5.211,-4.374,-3.277,-2.257,-1.2"2011-03-02 20:30:00","$GPGGA,023057.00,4949.64700,N,09713.16940,W,1,9,0.94,234.3,M,-24.5,M,,*52",2011,3,2,61,20,30,0,-15.75,13.05,-18.11,100.1732,"R1.14",1.14,1.419,168,1.371,-14.47,-8.32,-6.289,-5.217,-4.379,-3.282,-2.252,-1.208,-0.216,0.29,0.671,1.521,0.9540,-13,-13.17,-12.85,-12.62,-12.27,-11.67,-11.37,-10.84,"2011-03-02 20:00:00","$GPGGA,020057.00,4949.64759,N,09713.16812,W,1,10,0.86,233.6,M,-24.5,M,,*62",2011,3,2,61,20,0,0,-15.32,13.03,-18.12,100.1878,"R1.11",1.11,1.419,168,1.371,-14.3,-8.29,-6.285,-5.224,-4.375,-3.279,-2.248,-1.21,-0.213,0.266,0.637,1.497,0.947,-12.9,-13.12,-12.83,-12.61,-12.27,-11.66,-11.36,-10.84,-10.48,-9.87,-9.4800,-9.75,-9.46,-9.88,"2011-03-02 19:30:00","$GPGGA,013057.99,4949.64831,N,09713.16855,W,1,11,0.78,234.4,M,-24.5,M,,*65",2011,3,2,61,19,30,0,-15.12,13,-18.13,100.3021,"R1.14",1.14--------------------------------------------
END TRANSMIT

