

RING

RING

CONNECT 4800
--------------------------------------------
CEOS_IMBB06
----------------IMB_data--------------------
"2011-03-04 07:00:00","$GPGGA,130057.00,4949.64653,N,09713.17021,W,1,8,1.41,230.6,M,-24.5,M,,*50",2011,3,4,63,7.0000,0,0,-10.79,13.2,-13.32,99.76626,"R1.13",1.13,1.403,170,1.368,-10.18,-6.012,-4.616,-3.898,-3.403,-2.591,-1.853,-1.051,-0.262,0.255,0.647,1.491,0.897,-8.17,-8.12,-7.9610,-7.8470,-7.7950,-7.6190,-7.511,-7.2110,-7.0520,-6.691,-6.337,-6.382,-6.225,-6.455,-6.399,-6.579,-6.635,-6.7760,-6.7820,-6.827,-7.0130,-7.154,-7.392,-7.528,-7.4940
"2011-03-04 06:30:00","$GPGGA,123057.99,4949.64675,N,09713.16907,W,1,10,0.99,229.2,M,-24.5,M,,*6B",2011,3,4,63,6,30,0,-10.77,13.2,-13.27,99.73338,"R1.14",1.14,1.403,170,1.368,-10.21,-6.001,-4.616,-3.898,-3.403,-2.602,-1.864,-1.057,-0.262,0.25,0.663,1.48,0.892,-8.16,-8.1000,-7.9150,-7.824,-7.7560,-7.5850,-7.477,-7.1650,-7.0070,-6.652,-6.309,-6.382,-6.22,-6.444,-6.393,-6.568,-6.624,-6.759,-6.7760,-6.827,-7.0070,-7.143,-7.386,-7.5050,-7.471
"2011-03-04 06:00:00","$GPGGA,120057.99,4949.64643,N,09713.16969,W,1,10,0.86,229.2,M,-24.5,M,,*6B",2011,3,4,63,6,0,0,-10.72,13.2,-13.18,99.69806,"R1.13",1.13,1.403,192,1.369,-10.04,-5.973,-4.616,-3.909,-3.408,-2.613,-1.869,-1.057,-0.262,0.261,0.647,1.463,0.919,-8.1400,-8.09,-7.9150,-7.813,-7.7500,-7.574,-7.4600,-7.148,-6.9790,-6.646,-6.309,-6.365,-6.203,-6.433,-6.393,-6.568,-6.624,-6.748,-6.7700,-6.827,-7.0130,-7.1650,-7.3750,-7.483,-7.4540
"2011-03-04 05:30:00","$GPGGA,113057.99,4949.64636,N,09713.17158,W,1,9,0.87,234.8,M,-24.5,M,,*5D",2011,3,4,63,5,30,0,-10.7,13.21,-13.18,99.6319,"R1.14",1.14,1.403,192,1.369,-9.9700,-5.962,-4.616,-3.915,-3.425,-2.624,-1.875,-1.062,-0.262,0.261,0.669,1.474,0.887,-8.15,-8.07,-7.898,-7.8010,-7.7100,-7.528,-7.403,-7.0980,-6.923,-6.573,-6.242,-6.309,-6.152,-6.377,-6.332,-6.511,-6.562,-6.691,-6.703,-6.753,-6.945,-7.0860,-7.3300,-7.4600,-7.4150
"2011-03-04 05:00:00","$GPGGA,110057.00,4949.64649,N,09713.16927,W,1,9,0.87,236.8,M,-24.5,M,,*55",2011,3,4,63,5,0,0,-10.7,13.2,-13.23,99.59823,"R1.14",1.14,1.404,192,1.37,-10.04,-5.956,-4.616,-3.92,-3.43,-2.635,-1.886,-1.068,-0.256,0.261,0.647,1.458,0.8700,-8.15,-8.07,-7.8810,-7.778,-7.687,-7.483,-7.3690,-7.0520,-6.877,-6.534,-6.214,-6.292,-6.13,-6.349,-6.292,-6.472,-6.534,-6.669,-6.669,-6.725,-6.917,-7.0520,-7.301,-7.4200,-7.392
"2011-03-04 04:30:00","$GPGGA,103057.00,4949.64579,N,09713.17036,W,1,10,0.81,235.2,M,-24.5,M,,*68",2011,3,4,63,4,30,0,-10.63,13.2,-13.18,99.56532,"R1.14",1.14,1.404,183,1.37,-9.95,-5.934,-4.616,-3.931,-3.447,-2.646,-1.891,-1.078,-0.256,0.25,0.636,1.463,0.8810,-8.1400,-8.0600,-7.87,-7.7560,-7.6650,-7.4600,-7.324,-7.024,-6.844,-6.511,-6.197,-6.27,-6.108,-6.32,-6.281,-6.455,-6.511,-6.646,-6.646,-6.697,-6.8940,-7.041,-7.279,-7.392,-7.358
"2011-03-04 04:00:00","$GPGGA,100057.00,4949.64479,N,09713.17013,W,1,8,0.90,232.9,M,-24.5,M,,*58",2011,3,4,63,4,0,0,-10.58,13.2,-13.08,99.5124,"R1.13",1.13,1.405,171,1.371,-9.74,-5.912,-4.616,-3.942,-3.452,-2.657,-1.908,-1.078,-0.262,0.261,0.647,1.48,0.897,-8.12,-8.05,-7.8750,-7.7560,-7.642,-7.4200,-7.301,-6.985,-6.804,-6.466,-6.164,-6.225,-6.063,-6.276,-6.22,-6.399,-6.455,-6.585,-6.596,-6.641,-6.832,-6.962,-7.228,-7.358,-7.324
"2011-03-04 03:30:00","$GPGGA,093057.00,4949.64611,N,09713.17105,W,1,11,0.78,231.7,M,-24.5,M,,*6A",2011,3,4,63,3,30,0,-10.56,13.2,-13.03,99.46358,"R1.13",1.13,1.405,171,1.371,-9.8100,-5.906,-4.616,-3.942,-3.469,-2.668,-1.913,-1.084,-0.262,0.239,0.631,1.474,0.9080,-8.12,-8.05,-7.87,-7.733,-7.6190,-7.398,-7.279,-6.951,-6.765,-6.455,-6.169,-6.208,-6.04,-6.253,-6.203,-6.377,-6.427,-6.556,-6.562,-6.613,-6.804,-6.939,-7.188,-7.313,-7.279
"2011-03-04 03:00:00","$GPGGA,090057.99,4949.64548,N,09713.17043,W,1,9,0.98,230.4,M,-24.5,M,,*50",2011,3,4,63,3,0,0,-10.47,13.19,-13.13,99.46316,"R1.13",1.13,1.405,170,1.371,-9.8500,-5.895,-4.616,-3.953,-3.48,-2.679,-1.919,-1.089,-0.262,0.239,0.625,1.474,0.897,-8.1000,-8.01,-7.818,-7.687,-7.557,-7.347,-7.2110,-6.8940,-6.708,-6.405,-6.124,-6.186,-6.018,-6.22,-6.18,-6.343,-6.399,-6.517,-6.528,-6.579,-6.765,-6.906,-7.143,-7.2620,-7.233
"2011-03-04 02:30:00","$GPGGA,083057.99,4949.64630,N,09713.17064,W,1,11,0.74,232.8,M,-24.5,M,,*6E",2011,3,4,63,2,30,0,-10.33,13.18,-13.18,99.4497,"R1.14",1.14,1.405,171,1.371,-9.88,-5.878,-4.616,-3.964,-3.496,-2.695,-1.929,-1.089,-0.256,0.239,0.647,1.485,0.919,-8.1000,-7.9610,-7.7560,-7.6300,-7.5050,-7.279,-7.143,-6.832,-6.646,-6.354,-6.085,-6.169,-6.001,-6.197,-6.158,-6.32,-6.365,-6.489,-6.5,-6.54,-6.7360,-6.872,-7.103,-7.2160,-7.1770
"2011-03-04 02:00:00","$GPGGA,080057.99,4949.64657,N,09713.17209,W,1,8,1.13,234.4,M,-24.5,M,,*57",2011,3,4,63,2,0,0,-10.17,13.16,-13.08,99.39752,"R1.14",1.14,1.403,192,1.369,-9.74,-5.845,-4.616,-3.975,-3.507,-2.706,-1.94,-1.1,-0.256,0.244,0.647,1.48,0.914,-8.07,-7.938,-7.733,-7.596,-7.449,-7.2110,-7.075,-6.7820,-6.601,-6.298,-6.04,-6.113,-5.951,-6.141,-6.091,-6.259,-6.304,-6.422,-6.422,-6.466,-6.652,-6.7820,-7.041,-7.1650,-7.12
"2011-03-04 01:30:00","$GPGGA,073057.99,4949.64628,N,09713.17106,W,1,8,1.06,230.5,M,-24.5,M,,*5E",2011,3,4,63,1,30,0,-10.1,13.13,-13.03,99.36845,"R1.14",1.14,1.405,170,1.371,-9.74,-5.822,-4.616,-3.986,-3.518,-2.723,-1.957,-1.106,-0.256,0.283,0.663,1.469,0.9300,-8.03,-7.9150,-7.7040,-7.5510,-7.403,-7.1650,-7.03,-6.7370,-6.556,-6.264,-6.018,-6.091,-5.928,-6.108,-6.063,-6.225,-6.27,-6.382,-6.388,-6.422,-6.618,-6.7370,-6.985,-7.115,-7.069
"2011-03-04 01:00:00","$GPGGA,070057.99,4949.64604,N,09713.17151,W,1,10,0.96,229.2,M,-24.5,M,,*6F",2011,3,4,63,1,0,0,-10.14,13.27,-12.79,99.34931,"R1.14",1.14,1.405,192,1.372,-9.5600,-5.789,-4.616,-3.997,-3.535,-2.733,-1.962,-1.111,-0.256,0.277,0.712,1.485,0.897,-7.9610,-7.87,-7.6650,-7.5050,-7.347,-7.0980,-6.962,-6.68,-6.511,-6.242,-6.001,-6.068,-5.906,-6.08,-6.04,-6.192,-6.231,-6.337,-6.337,-6.377,-6.562,-6.691,-6.939,-7.0520,-7.0130
"2011-03-04 00:30:00","$GPGGA,063057.99,4949.64678,N,09713.17141,W,1,9,0.94,231.6,M,-24.5,M,,*50",2011,3,4,63,0,30,0,-10.03,13.27,-12.59,99.34871,"R1.11",1.11,1.405,192,1.372,-9.34,-5.75,-4.621,-4.008,-3.551,-2.755,-1.973,-1.122,-0.256,0.239,0.647,1.469,0.897,-7.9150,-7.824,-7.6190,-7.4600,-7.2900,-7.03,-6.8940,-6.624,-6.466,-6.197,-5.962,-6.024,-5.861,-6.029,-5.979,-6.141,-6.175,-6.287,-6.276,-6.304,-6.495,-6.613,-6.86,-6.996,-6.951
"2011-03-04 00:00:00","$GPGGA,060057.99,4949.64651,N,09713.17079,W,1,9,0.90,229.3,M,-24.5,M,,*5A",2011,3,4,63,0,0,0,-9.8900,13.28,-12.3,99.31512,"R1.13",1.13,1.404,192,1.372,-9.11,-5.711,-4.627,-4.019,-3.568,-2.766,-1.984,-1.128,-0.256,0.239,0.625,1.458,0.897,-7.87,-7.784,-7.596,-7.432,-7.239,-6.9680,-6.832,-6.579,-6.422,-6.152,-5.928,-5.996,-5.828,-5.99,-5.928,-6.085,-6.113,-6.22,-6.208,-6.22,-6.422,-6.517,-6.7700,-6.923,-6.8890
"2011-03-03 23:30:00","$GPGGA,053057.99,4949.64713,N,09713.16969,W,1,10,0.84,232.4,M,-24.5,M,,*64",2011,3,3,62,23,30,0,-9.78,13.28,-12.2,99.28219,"R1.13",1.13,1.404,192,1.372,-9.0200,-5.695,-4.633,-4.031,-3.585,-2.784,-1.996,-1.129,-0.257,0.238,0.641,1.462,0.891,-7.825,-7.7560,-7.574,-7.393,-7.2,-6.923,-6.788,-6.529,-6.383,-6.131,-5.913,-5.974,-5.806,-5.963,-5.896,-6.052,-6.069,-6.176,-6.153,-6.17,-6.361,-6.456,-6.704,-6.85,-6.8160
"2011-03-03 23:00:00","$GPGGA,050057.99,4949.64623,N,09713.17056,W,1,10,0.80,230.2,M,-24.5,M,,*61",2011,3,3,62,23,0,0,-9.6400,13.28,-12.16,99.29042,"R1.17",1.17,1.404,192,1.372,-9,-5.682,-4.643,-4.057,-3.611,-2.804,-2.011,-1.138,-0.261,0.234,0.625,1.469,0.897,-7.7430,-7.692,-7.5320,-7.351,-7.153,-6.8820,-6.758,-6.493,-6.342,-6.112,-5.905,-5.955,-5.799,-5.944,-5.871,-6.017,-6.034,-6.134,-6.112,-6.123,-6.314,-6.403,-6.645,-6.775,-6.741
"2011-03-03 22:30:00","$GPGGA,043057.99,4949.64612,N,09713.16905,W,1,10,0.82,233.2,M,-24.5,M,,*6E",2011,3,3,62,22,30,0,-9.46,13.28,-12.07,99.28137,"R1.07",1.07,1.403,192,1.372,-8.8900,-5.653,-4.647,-4.073,-3.632,-2.825,-2.027,-1.149,-0.267,0.245,0.626,1.442,0.914,-7.673,-7.616,-7.469,-7.2760,-7.084,-6.819,-6.695,-6.43,-6.296,-6.088,-5.893,-5.943,-5.781,-5.921,-5.854,-5.982,-5.999,-6.094,-6.072,-6.072,-6.251,-6.346,-6.565,-6.7,-6.655
"2011-03-03 22:00:00","$GPGGA,040057.99,4949.64554,N,09713.16998,W,1,10,0.85,231.5,M,-24.5,M,,*6A",2011,3,3,62,22,0,0,-9.25,13.28,-11.93,99.2619,"R1.11",1.11,1.403,192,1.372,-8.78,-5.62,-4.648,-4.09,-3.661,-2.843,-2.039,-1.155,-0.268,0.249,0.624,1.462,0.896,-7.583,-7.515,-7.379,-7.1980,-7.0060,-6.746,-6.622,-6.375,-6.252,-6.062,-5.871,-5.933,-5.771,-5.905,-5.827,-5.95,-5.961,-6.045,-6.017,-6.022,-6.19,-6.274,-6.493,-6.611,-6.566
"2011-03-03 21:30:00","$GPGGA,033057.99,4949.64677,N,09713.16849,W,1,11,0.93,235.7,M,-24.5,M,,*61",2011,3,3,62,21,30,0,-9.05,13.28,-11.73,99.22093,"R1.00",1,1.402,192,1.372,-8.6900,-5.592,-4.648,-4.107,-3.677,-2.865,-2.055,-1.161,-0.268,0.238,0.63,1.462,0.9070,-7.4920,-7.424,-7.2880,-7.107,-6.9150,-6.662,-6.544,-6.314,-6.19,-6.028,-5.849,-5.916,-5.76,-5.877,-5.804,-5.916,-5.922,-5.994,-5.961,-5.961,-6.123,-6.207,-6.409,-6.521,-6.476
"2011-03-03 21:00:00","$GPGGA,030057.99,4949.64639,N,09713.17094,W,1,10,0.92,231.6,M,-24.5,M,,*64",2011,3,3,62,21,0,0,-8.82,13.28,-11.54,99.19958,"R1.10",1.1,1.401,193,1.371,-8.5,-5.553,-4.659,-4.129,-3.694,-2.881,-2.061,-1.166,-0.268,0.249,0.657,1.484,0.923,-7.385,-7.3280,-7.1980,-7.0060,-6.82,-6.572,-6.465,-6.252,-6.134,-5.989,-5.838,-5.911,-5.754,-5.86,-5.782,-5.883,-5.883,-5.944,-5.905,-5.894,-6.05,-6.123,-6.314,-6.415,-6.381
"2011-03-03 20:30:00","$GPGGA,023057.00,4949.64627,N,09713.17006,W,1,11,0.85,234.2,M,-24.5,M,,*64",2011,3,3,62,20,30,0,-8.51,13.27,-11.44,99.19958,"R1.14",1.14,1.401,194,1.371,-8.38,-5.514,-4.665,-4.151,-3.727,-2.898,-2.077,-1.177,-0.268,0.26,0.635,1.484,0.9020,-7.271,-7.1980,-7.068,-6.898,-6.707,-6.476,-6.381,-6.173,-6.078,-5.961,-5.827,-5.905,-5.749,-5.849,-5.76,-5.849,-5.838,-5.894,-5.849,-5.827,-5.983,-6.028,-6.213"2011-03-03 20:00:00","$GPGGA,020057.00,4949.64657,N,09713.16908,W,1,10,0.88,236.0,M,-24.5,M,,*6A",2011,3,3,62,20,0,0,-8.17,13.26,-11.39,99.19958,"R1.14",1.14,1.401,193,1.371,-8.24,-5.47,-4.671,-4.173,-3.749,-2.92,-2.083,-1.177,-0.268,0.26,0.635,1.462,0.9020,-7.13,-7.062,-6.938,-6.7690,-6.594,-6.387,-6.297,-6.106,-6.028,-5.939,-5.827,-5.911,-5.76,-5.838,-5.743,-5.821,-5.804,-5.849,-5.804,-5.7"2011-03-03 19:30:00","$GPGGA,013057.00,4949.64815,N,09713.16993,W,1,9,0.93,234.4,M,-24.5,M,,*54",2011,3,3,62,19,30,0,-7.7950,13.23,-11.25,99.16672,"R1.04",1.04,1.401,193,1.372,-8.04,-5.425,-4.687,-4.206,-3.776,-2.942,-2.099,-1.183,-0.262,0.249,0.651,1.484,0.9070,-6.972,-6.8820,-6.791,-6.634,-6.476,-6.274,-6.207,-6"2011-03-03 19:00:00","$GPGGA,010057.00,4949.64953,N,09713.16992,W,1,9,1.14,237.5,M,-24.5,M,,*59",2011,3,3,62,19,0,0,-7.5050,13.36,-11.05,99.13385,"R1.14",1.rº‚¢bjªr²¢Âbjªrº²bjªrººŠbjªrÊ‚ªbjªrÊÂšbjªrÊšÊj
"2011-03-03 18:30:00","$GPGGA,003057.00,4949.64799,N,09713.17087,W,1,11,0.89,233.8,M,-24.5,M,,*6A",2011,3,3,62,18,30,0,-6.972,13.36,-10.77,99.10921,"R1.14",1.14,1.4,194,1.372,-7.837,-5.329,-4.719,-4.266,-3.83,-2.979,-2.12,-1.187,-0.262,0.266,0.652,1.463,0.9020,-6.57,-6.452,-6.368,-6.278,-6.15,-6.01,-5.987,-5.898,-5.887,-5.898,-5.876,-5.982,-5.831,-5.887,-5.764,-5.797,-5.742,-5.742,-5.675,-5.591,-5.68,-5.68,-5.792,-5.859,-5.814
"2011-03-03 18:00:00","$GPGGA,000bjªrÊ²ºbjªrÂ²ŠbjªrÂºÂbjªrÂššbjªrÂªªbjªrÊbjªrÊbj²r‚ŠºbjªrÂº’bjªrÊŠŠbjªrºÂÂbjªrÂŠ"2011-03-03 17:30:00","$GPGGA,233057.99,4949.64693,N,09713.17016,W,1,10,0.92,236.5,M,-24.5,M,,*6B",2011,3,3,62,17,30,0,-5.461,13.37,-10.63,99.08456,"R1.06",1.06,1.399,195,1.371,-7.168,-5.196,-4.769,-4.338,-3.897,-3.018,-2.143,-1.199,-0.258,0.259,0.623,1.461,0.9110,-5.814,-5.714,-5.725,-5.787,-5.77,-5.725,-5.775,-5.792,-5.837,-5.926,-5.949,-6.072,-5.926,-5.949,-5.82,-5.831,-5.759,-5.725,-5.625,-5.525,-5.569,-5.525,-5.603,-5.658,-5.591
"2011-03-03 17:00:00","$GPGGA,230057.99,4949.64736,N,09713.16886,W,1,10,0.85,234.0,M,-24.5,M,,*67",2011,3,3,62,17,0,0,-4.657,13.36,-10.1,99.06812,"R1.0"2011-03-03 16:30:00","$GPGGA,223057.99,4949.64614,N,09713.16930,W,1,9,0.94,232.5,M,-24.5,M,,*53",2011,3,3,62,16,30,0,-4.202,13.35,-10,99.07616,"R1.15",1.15,1.399,197,1.373,-5.949,-5.069,-4.847,-4.427,-3.947,-3.051,-2.154,-1.199,-0.258,0.248,0.623,1.477,0.9170,-5.124,-4.969,-5.08,-5.308,-5.447,-5.508,-5.658,-5.748,-5.865,-6.016,-6.072,-6.223,-6.077,-6.083,-5.943,-5.926,-5.826,-5.77,-5.636,-5.508,-5.502,-5.413,-5.491,-5.547,-5.45"2011-03-03 16:00:00","$GPGGA,220057.99,4949.64645,N,09713.17016,W,1,10,0.91,234.5,M,-24.5,M,,*63",2011,3,3,62,16,0,0,-3.751,13.34,-10.36,99.05772,"R1.14",1.14,1.404,185,1.377,-5.665,-5.054,-4.898,-4.478,-3.981,-3.069,-2.167,-1.213,-0.266,0.251,0.68,1.469,0.914,-4.832,-4.666,"2011-03-03 15:30:00","$GPGGA,213057.00,4949.64561,N,09713.16867,W,1,9,0.91,234.8,M,-24.5,M,,*5C",2011,3,3,62,15,30,0,-3.084,13.31,-10.12,99.03478,"R1.13",1.13,1.405,195,1.379,-5.024,-5.029,-4.957,"2011-03-03 15:00:00","$GPGGA,210057.00,4949.64651,N,09713.16998,W,1,12,0.71,236.5,M,-24.5,M,,*65",2011,3,3,62,15,0,0,-2.655,13.29,-10.26,99.02834,"R1.14",1.14,1.399,198,1.372,-4.63,-5.062,-5.024,-4.57,-4.034,-3.106,-2.187,-1.222,-0.264,0.231,0.633,1.454,0.8940,-4.321,-4.128,-4.409,-4.913,-5.268,-5.512,-5.802,-6.003,-6.188,-6.389,-6.474,-6.637,-6.468,-6.474,-6.322,-6.305,-6.182,-6.098,-5.936,-5.78,-5.719,-5.579,-5.652,-5.735,-5.602
"2011-03-03 14:30:00","$GPGGA,203057.00,4949.64669,N,09713.17047,W,1,10,0.©ª’bj²r²šŠbj²rÂŠŠbj²r²šŠbj²r²ªšbj²r¢Ê²bj²r¢Âªbj²rš²Šbj²r’º’bj²rŠ‚¢bjªrÊš²bjªrÂ²"2011-03-03 14:00:00","$GPGGA,200057.99,4949.64526,N,09713.17096,W,1,9,0.89,233.5,M,-24.5,M,,*59",2011,3,3,62,14,0,0,-2.142,13.21,-9.78,99.07237,"R1.14",1.14,1.397,192,1.372,-4.095,-5.196,-5.179,-4.658,-4.084,-3.139,-2.198,-1.222,-0.264,0.247,0.633,1.448,0.8670,-4.172,-3.941,-4.288,-4.94,-5.423,-5.758,-6.115,-6.35,-6.547,-6.738,-6.811,-6.9860,-6.8,-6.834,-6.676,-6.682,-6.552,-6.474,-6.294,-6.137,-6.059,-5.892,-6.003,-6.109,-5.947
"2011-03-03 13:30:00","$GPGGA,193057.99,4949.64638,N,09713.17070,W,1,10,0.97,240.2,M,-24.5,M,,*60",2011,3,3,62,13,30"2011-03-03 13:00:00","$GPGGA,190057.00,4949.64750,N,09713.17001,W,1,10,0.96,235.4,M,-24.5,M,,*6F",2011,3,3,62,13,0,0,-2.483,13.25,-10.11,99.15424,"R1.12",1.12,1.396,170,1.37,-3.829,-5.444,-5.339,-4.745,-4.132,-3.159,-2.212,-1.225,-0.262,0.238,0.651,1.461,0.9120,-4.424,-4.137,-4.535,-5.322,-5.912,-6.27,-6.658,-6.877,-7.041,-7.159,-7.1710,-7.363,-7.159,-7.238,-7.0800,-7.1250,-7.0070,-6.945,-6.7760,-6.63,-6.562,-6.405,-6.562,-6.725,-6.54
"2011-03-03 12:30:00","$GPGGA,183057.00,4949.64750,N,09713.17109,W,1,10,0.87,236.2,M,-24.5,M,,*61",2011,3,3,62,12,30,0,-3.15,13.23,-10.49,99.1503,"R1.11",1.11,1.397,170,1.37,-4.239,-5.642,-5.413,-4.781,-4.145,-3.172,-2.214,-1.22"2011-03-03 12:00:00","$GPGGA,180057.00,4949.64713,N,09713.17029,W,1,11,0.80,236.6,M,-24.5,M,,*64",2011,3,3,62,12,0,0,-4.096,13.2,-10.92,99.1996,"R1.14",1.14,1.399,169,1.371,-4.835,-5.864,-5.496,-4.813,-4.161,-3.171,-2.219,-1.231,-0.257,0.259,0.618,1.499,0.9450,-5.413,-5.102,-5.39,-6.127,-6.699,-6.97,-7.331,-7.467"2011-03-03 11:30:00","$GPGGA,173057.00,4949.64680,N,09713.17098,W,1,10,0.90,237.3,M,-24.5,M,,*6D",2011,3,3,62,11,30,0,-5.221,13.17,-11.16,99.1996,"R1.08",1.08,1.399,169,1.37,-5.581,-6.089,-5.564,-4.847,-4.178,-3.188,-2.225,-1.232,-0.252,0.265,0.656,1.489,0.928,-6.078,-5.765,-6.033,-6.689,-7.1910,-7.406,-7.702,-7.793,-7.8610,-7.8150,-7.7360,-7.958,-7.707,-7.844,-7.702,-7.804,-7.7360,-7.753,-"2011-03-03 11:00:00","$GPGGA,170057.99,4949.64629,N,09713.17055,W,1,11,0.75,23ÊbjÂr‚²‚‚bjºrÊ‚Â‚bjÂr‚¢bjºrÊÂ’bjÂr‚’‚‚bjºrÂÊbjºrÂŠŠbjºrÂ²Â‚bjºrÂ’’‚bjÂr‚ÂbjÂr’"2011-03-03 10:30:00","$GPGGA,163057.99,4949.64723,N,09713.17043,W,1,10,1.01,236.7,M,-24.5,M,,*6E",2011,3,3,62,10,30,0,-7.659,13.13,-12.12,99.23418,"R1.14",1.14,1.4,177,1.369,-7.062,-6.504,-5.693,-4.903,-4.212,-3.205,-2.236,-1.232,-0.257,0.249,0.63,1.462,0.896,-7.379,-7.1190,-7.305,-7.7880,-8.12,-8.2,-8.38,-8.36,-8.37,-8.22,-8.1000,-8.32,-8.05,-8.24,-8.09,-8.24,-8.2,-8.25,-8.13,-8.07,-8.15,-8.13,-8.4,-8.61,-8.46
"2011-03-03 10:00:00","$GPGGA,160057.00,4949.64629,N,09713.17185,W,1,11,0.93,231.3,M,-24.5,M,,*"2011-03-03 09:30:00","$GPGGA,153057.00,4949.64665,N,09713.17157,W,1,9,0.88,234.7,M,-24.5,M,,*50",2011,3,3,62,9,30,0,-10.12,13.09,-13.13,99.29717,"R1.13",1.13,1.403,169,1.369,-8.86,-6.872,-5.794,-4.954,-4.234,-3.216,-2.241,-1.237,-0.256,0.234,0.631,1.474,0.946,-8.65,-8.46,-8.49,-8.72,-8.87,-8.8100,-8.9,-8.79,-8.76,-8.54,-8.38,-8.61,-8.32,-8.54,-8.4,-8.59,-8.57,-8.65,-8.5600,-8.5200,-8.65,-8.6800,-8.97,-9.1800,-9.0600
"2011-03-03 09:00:00","$GPGGA,150057.00,4949.64768,N,09713.17002,W,1,10,0.75,235.1,M,-24.5,M,,*63",2011,3,3,62,9,0,0,-10.84,13.07,-13.61,99.31553,"R1.14",1.14,1.404,169,1.369,-9.22,-6.988,-5.826,-4.974,-4.249,-3.225,-2.244,-1.234,-0.254,0.23,0.633"2011-03-03 08:30:00","$GPGGA,143057.00,4949.64794,N,09713.16930,W,1,10,0.75,237.2,M,-24.5,M,,*6A",2011,3,3,62,8,30,0,-11.72,13.04,-14.09,99.33197,"R1.14",1.14,1.405,170,1.368,-9.92,-7.117,-5.858,-4.989,-4.252,-3.228,-2.247,-1.231,-0.245,0.234,0.631,1.486,0.914,-9.5200,-9.38,-9.29,-9.34,-9.37,-9.2300,-9.24,-9.08,"2011-03-03 08:00:00","$GPGGA,140057.99,4949.64690,N,09713.16829,W,1,10,0.79,232.6,M,-24.5,M,,*68",2011,3,3,62,8,0,0,-12.34,13.01,-14.52,99.34841,"R1.15",1.15,1.406,169,1.368,-10.46,-7.2180,-5.89,-5.005,-4.257,-3.227,-2.252,-1.231,-0.244,0.256,0.659,1.503,0.9260,-9.84,-9.74,-9.59,-9.58,-9.54,-9.38,-9.38,-9.1900,-9.13,-8.88,-8.6800,-8.8900,-8.57,-8.8500,-8.6900,-8.9400,-8.92,-9.03,-8.95,-8.93"2011-03-03 07:30:00","$GPGGA,133057.99,4949.64752,N,09713.16995,W,1,9,1.05,230.2,M,-24.5,M,,*51",2011,3,3,62,7.0000,3"2011-03-03 07:00:00","$GPGGA,130057.99,4949.64624,N,09713.16984,W,1,9,1.13,228.5,M,-24.5,M,,*5B",2011,3,3,62,7.0000,0,0,-12.93,13.09,-15.06,99.3813,"R1.14",1.14,1.407,170,1.368,-10.86,-7.331,-5.946,-5.038,-4.29,-3.244,-2.252,-1.236,-0.244,0.24,0.659,1.465,0.92,-10.1,-10.02,-9.87,-9.82,-9.76,-9.59,-9.5600,-9.38,-9.29,-9.05,-8.8500,-9.05,-8.72,-9.01,-8.86,-9.12,-9.1000,-9.22,-9.15,-9.12,-9.3,-9.36,-9.6900,-9.9400,-9.8500
"2011-03-03 06:30:00","$GPGGA,123057.99,4949.64635,N,09713.16945,W,1,10,0.97,227.3,M,-24.5,M,,*68",2011,3,3,62,6,30,0,-13.03,1"2011-03-03 06:00:00","$GPGGA,120057.99,4949.64677,N,09713.16839,W,1,9,0.89,232.2,M,-24.5,M,,*55",2011,3,3,62,6,0,0,-13.15,13.08,-15.25,99.43063,"R1.14",1.14,1.408,170,1.368,-11.07,-7.4330,-6.008,-5.077,-4.301,-3.249,-2.257,-1.236,-0.244,0.256,0.637,1.465,0.915,-10.27,-10.2,-10.05,-10.01,-9.96,-9.7700,-9.75,-9.54,-9.45,-9.1800,-8.97,-9.22,-8.88,-9.1900,-9.05,-9.3100,-9.3,-9.4300,-9.34,-9.3500,-9.5200,-9.61,-9.9400,-10.17,-10.08
"2011-03-03 05:30:00","$GPGGA,113057.00,4949.64630,N,09713.16821,W,1,10,0.80,235.5,M,-24.5,M,,*6E",2011,3,3,62,5,30,0,-13.27,13.07,-15.45,99.46352,"R1.14",1.14,1.408,170,1.368,-11.15,-7.484,-6.03,-5.094,-4.312,-3.249,-2.257,-1.236,-0.24"2011-03-03 05:00:00","$GPGGA,110057.00,4949.64634,N,09713.17073,W,1,9,0.87,234.4,M,-24.5,M,,*58",2011,3,3,62,5,0,0,-13.39,13.06,-15.69,99.49642,"R1.15",1.15,1.409,171,1.368,-11.26,-7.541,-6.058,-5.105,-4.318,-3.26,-2.257,-1.236,-0.244,0.251,0.643,1.459,0.8330,-10.5,-10.44,-10.28,-10.24,-10.19,-9.99,-9.96,-9.7300,-9.62,-9.32,-9.1000,-9.36,-9.0200,-9.3"2011-03-03 04:30:00","$GPGGA,103057.99,4949.64668,N,09713.16953,W,1,10,0.80,233.4,M,-24.5,M,,*61",2011,3,3,62,4,30,0,-13.56,13.05,-15.94,99.56218,"R1.12",1.12,1.41,171,1.368,-11.31,-7.5920,-6.086,-5.127,-4.323,-3.26,-2.257,-1.236,-0.239,0.273,0.632,1.438,0.915,-10.63,-10.57,-10.41,-10.37,-10.31,-10.1,-10.08,-9.83,"2011-03-03 04:00:00","$GPGGA,100057.99,4949.64664,N,09713.17058,W,1,10,0.86,231.3,M,-24.5,M,,*6E",2011,3,3,62,4,0,0,-13.71,13.04,-16.04,99.59508,"R1.15",1.15,1.41,175,1.368,-11.48,-7.655,-6.114,-"2011-03-03 03:30:00","$GPGGA,093057.99,4949.64549,N,09713.16986,W,1,11,0.77,228.5,M,-24.5,M,,*63",2011,3,3,62,3,30,0,-13.88,13.03,-16.23,99.62797,"R1.15",1.15,1.41,187,1.367,-11.62,-7.7230,-6.142,-5.149,-4.34,-3.271,-2.263,-1.236,-0.239,0.262,0.654,1.487,0.915,-10.95,-10.9,-10.72,-10.67,-10.6,-10.36,-10.29,-10.02,-9.87,-9.5200,-9.2700,-9.53,-9.1900,-9.5600,-9.42,-9.71,-9.7300,-9.87,-9.82,-9.84,-10.06,-10.16,-10.54,-10.82,-10.73
"2011-03-03 03:00:00","$GPGGA,090057.99,4949.64708,N,09713.17029,W,1,10,0.78,2"2011-03-03 02:30:00","$GPGGA,083057.99,4949.64657,N,09713.17004,W,1,10,0.82,233.6,M,-24.5,M,,*6E",2011,3,3,62,2,30,0,-14.22,13,-16.72,99.76122,"R1.14",1.14,1.412,192,1.368,-12.06,-7.8430,-6.187,-5.171,-4.345,-3.271,-2.268,-1.236,-0.239,0.256,0.637,1.443,0.8710,-11.31,-11.26,-11.07,-11,-10.91,-10.62,-10.53,-10.21,-10.03,-9.65,-9.38,-9.66,-9.3100,-9.7,-9.5600,-9.87,-9.8900,-10.05,-10,-10.05,-10.27,-10.4,-10.79,-11.07,-10.98
"2011-03-03 02:00:00","$GPGGA,080057.00,4949.64557,N,09713.17085,W,1,8,1.00,230.9,M,-24.5,M,,*59",2011,3,3,62,2,0,0,-14.3,12.97,-16.96,99.77969,"R1.13",1.13,1.413,192,1.368,-12.2,-7.905,-6.209,-5.182,-4.356,-3.271,-2.268,-1.236,-0.239,0.262,"2011-03-03 01:30:00","$GPGGA,073057.00,4949.64626,N,09713.17030,W,1,8,0.96,227.2,M,-24.5,M,,*5D",2011,3,3,62,1,30,0,-14.45,12.93,-17.11,99.8833,"R1.15",1.15,1.414,191,1.369,-12.41,-7.957,-6.232,-5.188,-4.362,-3.277,-2.268,-1.236,-0.239,0.262,0.632,1.465,0.882,-11.68,-11.63,-11.41,-11.31,-11.19,-10.86,-10.74,-10.38,-10.18,-9.75,-9.4700,-9.7300,-9.38,-9--------------------------------------------
END TRANSMIT

