

RING

RING

CONNECT 4800
--------------------------------------------
CEOS_IMBB06
----------------IMB_data--------------------
"2011-03-04 13:00:00","$GPGGA,190057.99,4949.64774,N,09713.17182,W,1,10,0.96,238.2,M,-24.5,M,,*68",2011,3,4,63,13,0,0,-0.9040,13.29,-11,100.1841,"R0.97",0.97,1.399,189,1.371,-5.869,-5.035,-4.387,-3.776,-3.292,-2.493,-1.772,-1.009,-0.264,0.236,0.633,1.503,0.905,-5.312,-5.223,-5.468,-5.858,-6.093,-6.171,-6.317,-6.272,-6.227,-5.964,-5.59,-5.468,-5.312,-5.379,-5.334,-5.39,-5.384,-5.407,-5.334,-5.251,-5.301,-5.34,-5.59,-5.624,-5.379
"2011-03-04 12:30:00","$GPGGA,183057.99,4949.64782,N,09713.17061,W,1,10,0.95,234.6,M,-24.5,M,,*64",2011,3,4,63,12,30,0,-1.5,13.27,-11.58,100.1682,"R1.15",1.15,1.399,189,1.369,-6.16,-5.162,-4.431,-3.798,-3.303,-2.504,-1.777,-1.009,-0.269,0.236,0.622,1.481,0.9540,-5.624,-5.501,-5.691,-6.048,-6.294,-6.361,-6.496,-6.44,-6.384,-6.104,-5.735,-5.629,-5.479,-5.557,-5.507,-5.579,-5.574,-5.607,-5.535,-5.479,-5.54,-5.59,-5.825,-5.869,-5.635
"2011-03-04 12:00:00","$GPGGA,180057.99,4949.64767,N,09713.17134,W,1,11,0.80,237.5,M,-24.5,M,,*68",2011,3,4,63,12,0,0,-2.42,13.25,-11.72,100.1696,"R1.01",1.01,1.402,190,1.372,-6.63,-5.305,-4.474,-3.818,-3.318,-2.513,-1.787,-1.018,-0.268,0.243,0.656,1.483,0.9550,-5.979,-5.823,-5.974,-6.293,-6.5,-6.562,-6.691,-6.607,-6.54,-6.242,-5.857,-5.823,-5.667,-5.745,-5.689,-5.767,-5.767,-5.823,-5.756,-5.712,-5.784,-5.823,-6.058,-6.119,-5.912
"2011-03-04 11:30:00","$GPGGA,173057.99,4949.64690,N,09713.17181,W,1,11,0.76,237.4,M,-24.5,M,,*6B",2011,3,4,63,11,30,0,-3.428,13.23,-12.19,100.1527,"R1.14",1.14,1.405,177,1.373,-7.061,-5.435,-4.509,-3.826,-3.32,-2.514,-1.788,-1.02,-0.258,0.248,0.667,1.504,0.9170,-6.329,-6.127,-6.239,-6.509,-6.7110,-6.7560,-6.8690,-6.7560,-6.677,-6.352,-5.982,-5.999,-5.848,-5.932,-5.865,-5.954,-5.965,-6.021,-5.971,-5.949,-6.027,-6.072,-6.296,-6.38,-6.189
"2011-03-04 11:00:00","$GPGGA,170057.00,4949.64744,N,09713.16994,W,1,11,0.77,235.4,M,-24.5,M,,*6E",2011,3,4,63,11,0,0,-4.699,13.21,-12.28,100.1198,"R1.14",1.14,1.403,185,1.371,-7.68,-5.571,-4.544,-3.838,-3.332,-2.521,-1.8,-1.021,-0.264,0.269,0.671,1.498,0.9490,-6.679,-6.46,-6.505,-6.707,-6.893,-6.9330,-7.023,-6.899,-6.82,-6.494,-6.129,-6.196,-6.023,-6.124,-6.056,-6.146,-6.168,-6.236,-6.191,-6.191,-6.275,-6.325,-6.544,-6.668,-6.505
"2011-03-04 10:30:00","$GPGGA,163057.00,4949.64641,N,09713.17116,W,1,10,0.99,235.5,M,-24.5,M,,*6B",2011,3,4,63,10,30,0,-6.116,13.2,-12.71,100.0623,"R1.14",1.14,1.404,177,1.371,-8.3100,-5.682,-4.56,-3.842,-3.337,-2.531,-1.799,-1.025,-0.268,0.26,0.641,1.489,0.956,-6.904,-6.634,-6.645,-6.8360,-7.034,-7.0850,-7.1580,-7.017,-6.949,-6.622,-6.252,-6.347,-6.185,-6.314,-6.258,-6.375,-6.381,-6.476,-6.46,-6.476,-6.589,-6.668,-6.8480,-6.972,-6.853
"2011-03-04 10:00:00","$GPGGA,160057.99,4949.64695,N,09713.17086,W,1,11,0.96,237.5,M,-24.5,M,,*65",2011,3,4,63,10,0,0,-7.838,13.18,-12.71,100.0213,"R1.13",1.13,1.406,169,1.373,-8.61,-5.816,-4.587,-3.859,-3.353,-2.542,-1.815,-1.03,-0.268,0.238,0.635,1.489,0.9070,-7.113,-6.8870,-6.87,-7.062,-7.2490,-7.254,-7.305,-7.13,-7.0400,-6.707,-6.342,-6.364,-6.207,-6.392,-6.325,-6.465,-6.504,-6.611,-6.6,-6.622,-6.752,-6.8360,-7.062,-7.2030,-7.1190
"2011-03-04 09:30:00","$GPGGA,153057.99,4949.64678,N,09713.17119,W,1,9,0.85,237.6,M,-24.5,M,,*59",2011,3,4,63,9,30,0,-8.76,13.17,-13.2,100.0218,"R1.14",1.14,1.407,192,1.373,-8.9400,-5.893,-4.604,-3.87,-3.358,-2.558,-1.82,-1.035,-0.267,0.233,0.652,1.49,0.9130,-7.3560,-7.175,-7.1520,-7.311,-7.469,-7.43,-7.4350,-7.22,-7.113,-6.7630,-6.386,-6.454,-6.296,-6.493,-6.431,-6.577,-6.622,-6.735,-6.746,-6.78,-6.926,-7.0390,-7.2430,-7.3560,-7.2880
"2011-03-04 09:00:00","$GPGGA,150057.99,4949.64611,N,09713.17148,W,1,9,0.88,232.7,M,-24.5,M,,*58",2011,3,4,63,9,0,0,-9.5,13.15,-13.37,99.98915,"R1.13",1.13,1.404,192,1.369,-9.57,-5.968,-4.605,-3.865,-3.359,-2.553,-1.826,-1.035,-0.256,0.266,0.68,1.48,0.887,-7.647,-7.528,-7.4600,-7.5510,-7.642,-7.5510,-7.5050,-7.2560,-7.1370,-6.7820,-6.399,-6.45,-6.292,-6.511,-6.466,-6.624,-6.663,-6.7820,-6.804,-6.8490,-7.0130,-7.143,-7.3410,-7.449,-7.392
"2011-03-04 08:30:00","$GPGGA,143057.00,4949.64687,N,09713.16983,W,1,10,0.75,233.7,M,-24.5,M,,*60",2011,3,4,63,8,30,0,-10.07,13.13,-13.37,99.95766,"R1.05",1.05,1.404,169,1.369,-9.78,-5.996,-4.616,-3.876,-3.364,-2.564,-1.826,-1.04,-0.256,0.261,0.625,1.458,0.9410,-7.9150,-7.8470,-7.733,-7.733,-7.7500,-7.6190,-7.5510,-7.279,-7.1320,-6.759,-6.377,-6.405,-6.253,-6.478,-6.427,-6.601,-6.652,-6.7820,-6.793,-6.838,-7.0130,-7.148,-7.3810,-7.5050,-7.4660
"2011-03-04 08:00:00","$GPGGA,140057.00,4949.64625,N,09713.16983,W,1,11,0.73,233.2,M,-24.5,M,,*69",2011,3,4,63,8,0,0,-10.4,13.11,-13.37,99.89058,"R1.13",1.13,1.404,170,1.369,-10.07,-6.018,-4.616,-3.887,-3.381,-2.569,-1.837,-1.04,-0.262,0.244,0.636,1.496,0.914,-8.09,-8.05,-7.892,-7.824,-7.8010,-7.642,-7.5510,-7.267,-7.12,-6.7360,-6.349,-6.405,-6.253,-6.483,-6.422,-6.601,-6.658,-6.787,-6.804,-6.8490,-7.03,-7.1650,-7.403,-7.534,-7.5050
"2011-03-04 07:30:00","$GPGGA,133057.00,4949.64621,N,09713.16977,W,1,9,1.03,228.4,M,-24.5,M,,*51",2011,3,4,63,7.0000,30,0,-10.6,13.07,-13.42,99.82664,"R1.14",1.14,1.403,170,1.368,-10.28,-6.029,-4.616,-3.887,-3.386,-2.58,-1.842,-1.046,-0.262,0.244,0.625,1.496,0.919,-8.15,-8.1400,-7.984,-7.8870,-7.8470,-7.687,-7.574,-7.279,-7.115,-6.759,-6.399,-6.444,-6.281,-6.511,-6.455,-6.624,-6.68,-6.8100,-6.827,-6.883,-7.0580,-7.2110,-7.432,-7.5450,-7.511
"2011-03-04 07:00:00","$GPGGA,130057.00,4949.64653,N,09713.17021,W,1,8,1.41,230.6,M,-24.5,M,,*50",2011,3,4,63,7.0000,0,0,-10.79,13.2,-13.32,99.76626,"R1.13",1.13,1.403,170,1.368,-10.18,-6.012,-4.616,-3.898,-3.403,-2.591,-1.853,-1.051,-0.262,0.255,0.647,1.491,0.897,-8.17,-8.12,-7.9610,-7.8470,-7.7950,-7.6190,-7.511,-7.2110,-7.0520,-6.691,-6.337,-6.382,-6.225,-6.455,-6.399,-6.579,-6.635,-6.7760,-6.7820,-6.827,-7.0130,-7.154,-7.392,-7.528,-7.4940
"2011-03-04 06:30:00","$GPGGA,123057.99,4949.64675,N,09713.16907,W,1,10,0.99,229.2,M,-24.5,M,,*6B",2011,3,4,63,6,30,0,-10.77,13.2,-13.27,99.73338,"R1.14",1.14,1.403,170,1.368,-10.21,-6.001,-4.616,-3.898,-3.403,-2.602,-1.864,-1.057,-0.262,0.25,0.663,1.48,0.892,-8.16,-8.1000,-7.9150,-7.824,-7.7560,-7.5850,-7.477,-7.1650,-7.0070,-6.652,-6.309,-6.382,-6.22,-6.444,-6.393,-6.568,-6.624,-6.759,-6.7760,-6.827,-7.0070,-7.143,-7.386,-7.5050,-7.471
"2011-03-04 06:00:00","$GPGGA,120057.99,4949.64643,N,09713.16969,W,1,10,0.86,229.2,M,-24.5,M,,*6B",2011,3,4,63,6,0,0,-10.72,13.2,-13.18,99.69806,"R1.13",1.13,1.403,192,1.369,-10.04,-5.973,-4.616,-3.909,-3.408,-2.613,-1.869,-1.057,-0.262,0.261,0.647,1.463,0.919,-8.1400,-8.09,-7.9150,-7.813,-7.7500,-7.574,-7.4600,-7.148,-6.9790,-6.646,-6.309,-6.365,-6.203,-6.433,-6.393,-6.568,-6.624,-6.748,-6.7700,-6.827,-7.0130,-7.1650,-7.3750,-7.483,-7.4540
"2011-03-04 05:30:00","$GPGGA,113057.99,4949.64636,N,09713.17158,W,1,9,0.87,234.8,M,-24.5,M,,*5D",2011,3,4,63,5,30,0,-10.7,13.21,-13.18,99.6319,"R1.14",1.14,1.403,192,1.369,-9.9700,-5.962,-4.616,-3.915,-3.425,-2.624,-1.875,-1.062,-0.262,0.261,0.669,1.474,0.887,-8.15,-8.07,-7.898,-7.8010,-7.7100,-7.528,-7.403,-7.0980,-6.923,-6.573,-6.242,-6.309,-6.152,-6.377,-6.332,-6.511,-6.562,-6.691,-6.703,-6.753,-6.945,-7.0860,-7.3300,-7.4600,-7.4150
"2011-03-04 05:00:00","$GPGGA,110057.00,4949.64649,N,09713.16927,W,1,9,0.87,236.8,M,-24.5,M,,*55",2011,3,4,63,5,0,0,-10.7,13.2,-13.23,99.59823,"R1.14",1.14,1.404,192,1.37,-10.04,-5.956,-4.616,-3.92,-3.43,-2.635,-1.886,-1.068,-0.256,0.261,0.647,1.458,0.8700,-8.15,-8.07,-7.8810,-7.778,-7.687,-7.483,-7.3690,-7.0520,-6.877,-6.534,-6.214,-6.292,-6.13,-6.349,-6.292,-6.472,-6.534,-6.669,-6.669,-6.725,-6.917,-7.0520,-7.301,-7.4200,-7.392
"2011-03-04 04:30:00","$GPGGA,103057.00,4949.64579,N,09713.17036,W,1,10,0.81,235.2,M,-24.5,M,,*68",2011,3,4,63,4,30,0,-10.63,13.2,-13.18,99.56532,"R1.14",1.14,1.404,183,1.37,-9.95,-5.934,-4.616,-3.931,-3.447,-2.646,-1.891,-1.078,-0.256,0.25,0.636,1.463,0.8810,-8.1400,-8.0600,-7.87,-7.7560,-7.6650,-7.4600,-7.324,-7.024,-6.844,-6.511,-6.197,-6.27,-6.108,-6.32,-6.281,-6.455,-6.511,-6.646,-6.646,-6.697,-6.8940,-7.041,-7.279,-7.392,-7.358
"2011-03-04 04:00:00","$GPGGA,100057.00,4949.64479,N,09713.17013,W,1,8,0.90,232.9,M,-24.5,M,,*58",2011,3,4,63,4,0,0,-10.58,13.2,-13.08,99.5124,"R1.13",1.13,1.405,171,1.371,-9.74,-5.912,-4.616,-3.942,-3.452,-2.657,-1.908,-1.078,-0.262,0.261,0.647,1.48,0.897,-8.12,-8.05,-7.8750,-7.7560,-7.642,-7.4200,-7.301,-6.985,-6.804,-6.466,-6.164,-6.225,-6.063,-6.276,-6.22,-6.399,-6.455,-6.585,-6.596,-6.641,-6.832,-6.962,-7.228,-7.358,-7.324
"2011-03-04 03:30:00","$GPGGA,093057.00,4949.64611,N,09713.17105,W,1,11,0.78,231.7,M,-24.5,M,,*6A",2011,3,4,63,3,30,0,-10.56,13.2,-13.03,99.46358,"R1.13",1.13,1.405,171,1.371,-9.8100,-5.906,-4.616,-3.942,-3.469,-2.668,-1.913,-1.084,-0.262,0.239,0.631,1.474,0.9080,-8.12,-8.05,-7.87,-7.733,-7.6190,-7.398,-7.279,-6.951,-6.765,-6.455,-6.169,-6.208,-6.04,-6.253,-6.203,-6.377,-6.427,-6.556,-6.562,-6.613,-6.804,-6.939,-7.188,-7.313,-7.279
"2011-03-04 03:00:00","$GPGGA,090057.99,4949.64548,N,09713.17043,W,1,9,0.98,230.4,M,-24.5,M,,*50",2011,3,4,63,3,0,0,-10.47,13.19,-13.13,99.46316,"R1.13",1.13,1.405,170,1.371,-9.8500,-5.895,-4.616,-3.953,-3.48,-2.679,-1.919,-1.089,-0.262,0.239,0.625,1.474,0.897,-8.1000,-8.01,-7.818,-7.687,-7.557,-7.347,-7.2110,-6.8940,-6.708,-6.405,-6.124,-6.186,-6.018,-6.22,-6.18,-6.343,-6.399,-6.517,-6.528,-6.579,-6.765,-6.906,-7.143,-7.2620,-7.233
"2011-03-04 02:30:00","$GPGGA,083057.99,4949.64630,N,09713.17064,W,1,11,0.74,232.8,M,-24.5,M,,*6E",2011,3,4,63,2,30,0,-10.33,13.18,-13.18,99.4497,"R1.14",1.14,1.405,171,1.371,-9.88,-5.878,-4.616,-3.964,-3.496,-2.695,-1.929,-1.089,-0.256,0.239,0.647,1.485,0.919,-8.1000,-7.9610,-7.7560,-7.6300,-7.5050,-7.279,-7.143,-6.832,-6.646,-6.354,-6.085,-6.169,-6.001,-6.197,-6.158,-6.32,-6.365,-6.489,-6.5,-6.54,-6.7360,-6.872,-7.103,-7.2160,-7.1770
"2011-03-04 02:00:00","$GPGGA,080057.99,4949.64657,N,09713.17209,W,1,8,1.13,234.4,M,-24.5,M,,*57",2011,3,4,63,2,0,0,-10.17,13.16,-13.08,99.39752,"R1.14",1.14,1.403,192,1.369,-9.74,-5.845,-4.616,-3.975,-3.507,-2.706,-1.94,-1.1,-0.256,0.244,0.647,1.48,0.914,-8.07,-7.938,-7.733,-7.596,-7.449,-7.2110,-7.075,-6.7820,-6.601,-6.298,-6.04,-6.113,-5.951,-6.141,-6.091,-6.259,-6.304,-6.422,-6.422,-6.466,-6.6"2011-03-04 01:30:00","$GPGGA,073057.99,4949.64628,N,09713.17106,W,1,8,1.06,230.5,M,-24.5,M,,*5E",2011,3,4,63,1,30,0,-10.1,13.13,-13.03,99.36845,"R1.14",1.14,1.405,170,1.371,-9.74,-5.822,-4.616,-3.986,-3.518,-2.723,-1.957,-1.106,-0.256,0.283,0.663,1.469,0.9300,-8.03,-7.9150,"2011-03-04 01:00:00","$GPGGA,070057.99,4949.64604,N,09713.17151,W,1,10,0.96,229.2,M,-24.5,M,,*6F",2011,3,4,63,1,0,0,-10.14,13.27,-12.79,99.34931,"R1.14",1.14,1.405,192,1.372,-9.5600,-5.789,-4.616,-3.997,-3.535,-2.733,-1.962,-1.111,-0.256,0.277,0.712,1.485,0.897,-7.9610,-7.87,-7.6650,-7.5050,-7.347,-7.0980,-6.962,-6.68,-6.511,-6.242,-6.001,-6.068,-5.906,-6.08,-6.04,-6.192,-6.231,-6.337,-6.337,-6.377,-6.562,-6.691,-6.939,-7.0520,-i‚b‚bjŠ‚r‚šbŠšr’ºbjŠ’rªÊbÊÊrš¢ÂºŠb’Å.11",1.11,1.405,192,1.372,-9.34,-5.75,-4.6"2011-03-04 00:00:00","$GPGGA,060057.99,4949.64651,N,09713.17079,W,1,9,0.90,229.3,M,-24.5,M,,*5A",2011,3,4,63,0,0,0,-9.8900,13.28,-12.3,99.31512,"R1.13",1.13,1.404,192,1.372,-9.11,-5.711,-4.627,-4.019,-3.568,-2.766,-1.984,-1.128,-0.256,0.239,0.625,1.458,0.897,-7.87,-7.784,-7.596,-7.432,-7.239,-6.9680,-6.832,-6.579,-6.422,-6.152,-5.928,-5.996,-5.828,-5.99,-5.928,-6.085,-6.113,-6.22,-6.208,-6.22,-6.422,-6.517,-6.7700,-6.923,-6.8890
"2011-03-03 23:30:00","$GPGGA,053057.99,4949.64713,N,09713.16969,W,1,10,0.84,232.4,M,-24.5,M,,*64",2011,3,3,62,23,30,0,-9.78,13.28,-12.2,99.28219,"R1.13",1.13,1.404,192,1.372,-9.0200,-5.695,-4.633,-4.031,-3.585,-2.784,-1.996,-1.129,-0.257,0.238,0.641,1.462,0.891,-7.825,-7.7560,-7.574,-7.393,-7.2,-6.923,-6.788,-6"2011-03-03 23:00:00","$GPGGA,050057.99,4949.64623,N,09713.17056,W,1,10,0.80,230.2,M,-24.5,M,,*61",2011,3,3,62,23,0,0,-9.6400,13.28,-12.16,99.29042,"R1.17",1.17,1.404,192,1.372,-9,-5.682,-4.643,-4.057,-3.611,-2.804,-2.011,-1.138,-0.261,"2011-03-03 22:30:00","$GPGGA,043057.99,4949.64612,N,09713.16905,W,1,10,0.82,233.2,M,-24.5,M,,*6E",2011,3,3,62,22,30,0,-9.46,13.28,-12.07,99.28137,"R1.07",1.07,1.403,192,1.372,-8.8900,-5.653,-4.647,-4.073,-3.632,-2.825,-2.027,-1.149,-0.267,0.245,0.626,1.442,0.914,-7.673,-7.616,-7.469,-7.2760,-7.084,-6.819,-6.695,-6.43,-6.296,-6.088,-5.893,-5.943,-5.781,-5.921,-5.854,-5.982,-5.999,-6.094,-6.072,-6.072,-6.251,-6.346,-6.565,-6.7,-6.rÊÊb¢Ê¢Êr²¢ªª¢br±09713.16998,W,1,10,0.85,231.5,M,-24.5,M,,*6A",2011,3,3,62,22,"2011-03-03 21:30:00","$GPGGA,033057.99,4949.64677,N,09713.16849,W,1,11,0.93,235.7,M,-24.5,M,,*61",2011,3,3,62,21,30,0,-9.05,13.28,-11.73,99.22093,"R1.00",1,1.402,192,1.372,-8.6900,-5.592,-4.648,-4.107,-3.677,-2.865,-2.055,-1.161,-0.268,0.238,0.63,1.462,0.9070,-7.4920,-7.424,-7.2880,-7.107,-6.9150,-6.662,-6.544,-6.314,-6.19,-6.028,-5.849,-5.916,-5.76,-5.877,-5.804,-5.916,-5.922,-5.994,-5.961,-5.961,-6.123,-6.207,-6.409,-6.521,-6.476
"2011-03-03 21:00:00","$GPGGA,030057.99,4949.64639,N,09713.17094,W,1,10,0.92,231.6,M,-24.5,M,,*64",2011,3,3,62,21,0,0,-8.82,13.28,-11.54,99.19958,"R1.10",1.1,1.401,193,1.371,-8.5,-5.553,-4.659"2011-03-03 20:30:00","$GPGGA,023057.00,4949.64627,N,09713.17006,W,1,11,0.85,234.2,M,-24.5,M,,*64",2011,3,3,62,20,30,0,-8.51,13.27,-11.44,99.19958,"R1.14",1.14,1.401,194,1.371,-8.38,-5.514,-4.665,-4.151,-3.727,-2.898,-2.077,-1.177,-0.268,0.26,0.635,1.484,0.9020,-7.271,-7.1980,-7.068,-6.898,-6.707,-6.476,-6.381,-6.173,-6.078,-5.961,-5.827,-5.905,-5.749,-5.849,-5.76,-5.849,-5.838,-5.894,-5.849,-5.827,-5.983,-6.028,-6.213,-6.308,-6."2011-03-03 20:00:00","$GPGGA,020057.00,4949.64657,N,09713.16908,W,1,10,0.88,236.0,M,-24.5,M,,*6A",2011,3,3,62,20,0,0,-8.17,13.26,-11.39,99.19958,"R1.14",1.14,1.401,193,1.371,-8.24,-5.47,-4.671,-4.173,-3.749,-2.92,-2.083,-1.177,-0.268,0.26,0.635,1.462,0.9020,-7.13,-7.062,-6.9"2011-03-03 19:30:00","$GPGGA,013057.00,4949.64815,N,09713.16993,W,1,9,0.93,234.4,M,-24.5,M,,*54",2011,3,3,62,19,30,0,-7.7950,13.23,-11.25,99.16672,"R1.04",1.04,1.401,193,1.372,-8.04,-5.425,-4.687,-4.206,-3.776,-2.942,-2.099,-1.183,-0.2"2011-03-03 19:00:00","$GPGGA,010057.00,4949.64953,N,09713.16992,W,1,9,1.14,237.5,M,-24.5,M,,*59",2011,3,3,62,19,0,0,-7.5050,13.36,-11.05,99.13385,"R1.14",1.14,1.4,194,1.371,-7.89,-5.375,-4.693,-4.228,-3.798,-2.953,-2.104,-1.183,-0.262,0.26,0.651,1.473,0.9020,-6.791,-6.69,-6.589,-6.471,-6.319,-6.14,-6.095,-5.961,-5.922,-5.894,-5.838,-5.944,-5.793,-5.849,-5.743,-5.793,-5.749,-5.765,-5.704,-5.648,-5.76,-5.771,-5.905,-5.983,-5.939
	rÂÊb’ššrÂbj±-24.5,M,,*6A",2011,3,3,62,18,30,0,-6.972,13.36,-10.77,99.10921,"R1"2011-03-03 18:00:00","$GPGGA,000057.99,4949.64629,N,09713.17034,W,1,10,0.79,236.1,M,-24.5,M,,*69",2011,3,3,62,18,0,0,-6.313,13.37,-10.62,99.11742,"R1.05",1.05,1.399,195,1.372,-7.6570,-5.276,-4.743,-4.306,-3.865,-3.003,-2.128,-1.195,-0.264,0.269,0.65,1.46,0.905,-6.236,-6.124,-6.079,-6.051,-5.967,-5.861,-5.878,-5.833,-5.855,-5.9,-5.9,-6.017,-5.872,-5.911,-5.788,-5.81,-5.738,-5.721,-5.632,-5.543,-5.615,-5.593,-5.688,-5.744,-5.699
"2011-03-03 17:30:00","$GPGGA,233057.99,4949.64693,N,09713.17016,W,1,10,0.92,236.5,M,-24.5,M,,*6B",2011,3,3,62,17,30,0,-5.461,13.37,-10.63,99.08456,"R1.06",1.06,1.399,195,1.371,-7.168,-5.196,-4.769"2011-03-03 17:00:00","$GPGGA,230057.99,4949.64736,N,09713.16886,W,1,10,0.85,234.0,M,-24.5,M,,*67",2011,3,3,62,17,0,0,-4.657,13.36,-10.1,99.06812,"R1.09",1.09,1.399,196,1.373,-6.329,-5.108,-4.803,-4.382,-3.919,-3.04,-2.154,-1.199,-0.258,0.259,0.656,1.477,0.906,-5.413,-5.285,-5.369,-5.525,-5.591,-5.603,-5.703,-5.759,-5.837,-5.96,-6.004,-6.133,-5.993,-6.016,-5.876,-5.87,-5.781,-5.731,-5.614,-5.502,-5.525,-5.458,-5.525,-5.575,-5.50"2011-03-03 16:30:00","$GPGGA,223057.99,4949.64614,N,09713.16930,W,1,9,0.94,232.5,M,-24.5,M,,*53",2011,3,3,62,16,30,0,-4.202,13.35,-10,99.07616,"R1.15",1.15,1.399,197,1.373,-5.949,-5.069,-4.847,-4.427,-3.947,-3.051,-2.154,-1.199,-0.258,0"2011-03-03 16:00:00","$GPGGA,220057.99,4949.64645,N,09713.17016,W,1,10,0.91,234.5,M,-24.5,M,,*63",2011,3,3,62,16,0,0,-3.751,13.34,-10.36,99.05772,"R1.14",1.14,1.404,185,1.377,-5.665,-5.054,-4.898,-4.478,-3.981,-3.069,-2.167,-1.213,-0.266,0.251,0.68,1.469,0.914,-4.832,-4.666"2011-03-03 15:30:00","$GPGGA,213057.00,4949.64561,N,09713.16867,W,1,9,0.91,234.8,M,-24.5,M,,*5C",2011,3,3,62,15,30,0,-3.084,13.31,-10.12,99.03478,"R1.13",1.13,1.405,195,1.379,-5.024,-5.029,-4.957,-4.525,-4.012,-3.095,-2.181,-1.216,-0.269,0.236,0.644,1.459,0.8990,-4.514,-4.327,-4.581,-4.996,-5.273,-5.468,-5.713,-5.892,-6.054,-6.249,-6.328,-6.485,-6.322,-6.328,-6.177,-6.16,-6.037,-5.959,-5.81"2011-03-03 15:00:00","$GPGGA,210057.00,4949.64651,N,09713.16998,W,1,12,0.71,23,-6.389,-6.474,-6.637,-6.468,-6.474,-6.322,-6.305,-6.182,-6.098,-5.936,-5.78,-"2011-03-03 14:30:00","$GPGGA,203057.00,4949.64669,N,09713.17047,W,1,10,0.79,238.0,M,-24.5,M,,*67",2011,3,3,62,14,30,0,-2.334,13.26,-9.63,99.03658,"R1.13",1.13,1.397,187,1.372,-4.183,-5.107,-5.096,-4.614,-4.056,-3.117,-2.192,-1.222,-0.264,0.247,0.633,1.481,0.9320,-4.183,-3.99,-4.316,-4.891,-5.323,-5.607,-5.936,-6.16,-6.361,-6.552,-6.631,-6.811,-6.631,-6.653,-6.496,-6.485,-6.361,-6.272,-6.104,-5.936,-5.869,-5.713,-5.802,-5.892,-5.741
"2011-03-03 14:00:00","$GPGGA,200057.99,4949.64526,N,09713.17096,W,1,9,0.89,233.5,M,-24.5,M,,*59",2011,3,3,62,14,"2011-03-03 13:30:00","$GPGGA,193057.99,4949.64638,N,09713.17070,W,1,10,0.97,240.2,M,-24.5,M,,*60",2011,3,3,62,13,30,0,-2.099,13.15,-10.61,99.12212,"R1.15",1.15,1.397,174,1.37,-3.968,-5.307,-5.257,-4.702,-4.111,-3.144,-2.209,-1.227,-0.264,0.252,0.644,1.47,0.91,-4.227,-3.963,-4.338,-5.068,-5.602,-5.959,-6.35,-6.586,-6.7830,-6.946,-6.991,-7.1720,-6.969,-7.0140,-6.8560,-6.879,-6.755,-6.698,-6.519,-6.361,-6.294,-6.137,-6.272,-6.39,-6.221
"2011-03-03 13:00:00","$GPGGA,190057.00,4949.64750,N,09713.17001,W,1,10,0.96,235.4,M,-24.5,M,,*6F",2011,3,3,62,13,0,0,-2.483,13.25,-10.11,99.15424,"R1.12",1.12,1.396,170,1.37,-3.829,-5.444,-5.339,-4.745,-4.132,-3.159,-2.212,-1.225"2011-03-03 12:30:00","$GPGGA,183057.00,4949.64750,N,09713.17109,W,1,10,0.87,236.2,M,-24.5,M,,*61",2011,3,3,62,12,30,0,-3.15,13.23,-10.49,99.1503,"R1.11",1.11,1.397,170,1.37,-4.239,-5.642,-5.413,-4.781,-4.145,-3.172,-2.214,-1.221,-0.252,0.259,0.65,1.472,0.9390,-4.836,-4.537,-4.897,-5.669,-6.262,-6.599,-6.982,-7.1"2011-03-03 12:00:00","$GPGGA,180057.00,4949.64713,N,09713.17029,W,1,11,0.80,236.6,M,-24.5,M,,*64",2011,3,3,62,12,0,0,-4.096,13.2,-10.92,99.1996,"R1.14",1.14,1.399,169,1.371,-4.835,-5.864,-5.496,-4.813,-4.161,-3.171,-2.219,-1.231,-0.257,0.259,0.618,1.499,0.9450,-5.413,-5.102,-5.39,-6.127,-6.699,-6.97,-7.331,-7.4670,-7.587,-7.5980,-7.5470,-7.7570,-7.524,"2011-03-03 11:30:00","$GPGGA,173057.00,4949.64680,N,09713.17098,W,1,10,0.90,237.3,M,-24.5,M,,*6D",2011,3,3,62,11,30,0ºrºš²‚bjºrºªšbjºr²ŠŠ‚bjºrª’‚‚bjºrªšŠbjºr¢²Êbjºrº‚’bjºrÊ‚Š‚bjºrº’¢‚j
"2011-03-03 11:00:00","$GPGGA,170057.99,4949.64629,N,09713.17055,W,1,11,0.75,234.6,M,-24.5,M,,*60",2011,3,3,62,11,0,0,-6.466,13.16,-11.73,99.23246,"R1.14",1.14,1.4,169,1.37,-6.387,-6.302,-5.631,-4.881,-4.19,-3.188,-2.23,-1.232,-0.252,0.282,0.6900,1.506,0.9780,-6.7240,-6.443,-6.679,-7.266,-7.674,-7.8280,-8.0600,-8.09,-8.13,-8.04,-7.925,-8.15,-7.89,-8.0600,-7.9080,-8.04,-7.982,-8.0200,-7.89,-7.811,-7.8680,-7.8220,-8.08,-8.2700,-8.11
"2011-03-03 10:30:00","$GPGGA,163057.99,4949.647"2011-03-03 10:00:00","$GPGGA,160057.00,4949.64629,N,09713.17185,W,1,11,0.93,231.3,M,-24.5,M,,*65",2011,3,3,62,10,0,0,-8.92,13.11,-12.79,99.25352,"R1.15",1.15,1.402,168,1.369,-7.9150,-6.691,-5.738,-4.926,-4.218,-3.205,-2.235,-1.231,-0.251,0.255,0.647,1.469,0.9250,-8.04,-7.813,-7.9150,-8.28,-8.51,-8.53,-8.66,-8.58,-8.57,-8.3900,-8.24,-8.47,-8.1900,-8.41,-8.2700,-8.42,-8.4,-8.46,-8.36,-8.33,-8.42,-8.45,-8.71,-8.91,-8.7700
"2011-03-03 09:30:00","$GPGGA,153057.00,4949.64665,N,09713.17157,W,1,9,0.88,234.7,M,-24.5,M,,*50",2011,3,3,62,9,30,0,-10.12,13.09,-13.13,99.29717,"R1.13",1.13,1.403,169,1.369,-8.86,-6.872,-5.794,-4.954,-4.234,-3.216,-2.241,-1.237,-0.256,0.234,0.631,1.474,0.946,-8.65,-8.46,-8.49,-8.7"2011-03-03 09:00:00","$GPGGA,150057.00,4949.64768,N,09713.17002,W,1,10,0.75,235.1,M,-24.5,M,,*63",2011,3,3,62,9,0,0,-10.84,13.07,-13.61,99.31553,"R1.14",1.14,1.404,169,1.369,-9.22,-6.988,-5.826,-4.974,-4.249,-3.225,-2.244,-1.234,-0.254,0.23,0.633,1.477,0.9110,-9.05,-8.88,-8.8500,-9.03,-9.13,-9.04,-9.08,-8.95,-8."2011-03-03 08:30:00","$GPGGA,143057.00,4949.64794,N,09713.16930,W,1,10,0.75,237.2,M,-24.5,M,,*6A",2011,3,3,62,8,30,0,-11.72,13.04,-14.09,99.33197,"R1.14",1.14,1.405,170,1.368,-9.92,-7.117,-5.858,-4.989,-4.252,-3.228,-2.247,-1.231,-0.245,0.234,0.631,1.486,0.914,-9.5200,-9.38,-9.29,-9.34,-9.37,-9.2300,-9.24,-9.08,-9.01,-8.78,-8.59,-8.8100,-8.49,-8.75,-8."2011-03-03 08:00:00","$GPGGA,140057.99,4949.64690,N,09713.16829,W,1,10,0.79,232.6,M,-24.5,M,,*68",2011,3,3,62,8,0,0,-12.34,13.01,-14.52,99.34841,"R1.15",1.1"2011-03-03 07:30:00","$GPGGA,133057.99,4949.64752,N,09713.16995,W,1,9,1.05,230.2,M,-24.5,M,,*51",2011,3,3,62,7.0000,30,0,-12.67,12.96,-14.91,99.36486,"R1.06",1.06,1.407,170,1.368,-10.76,-7.286,-5.918,-5.027,-4.274,-3.233,-2.252,-1.236,-0.244,0.256,0.632,1.443,0.937,-10.01,-9.9300,-9.7700,-9.7300,-9.67,-9.49,-9.4700,-9.29,-9.22,-8.97,-8.7700,-8.97,-8.6400,-8.9400,-8.78,-9.03,-9.01,-9.12,-9.05,-9.03,-9.2,-9.26,-9.59,-9.84,-9.75
--------------------------------------------
END TRANSMIT

