
RING

RING

CONNECT 4800
--------------------------------------------
CEOS_IMBB06
----------------IMB_data--------------------
"2011-02-27 19:00:00","$GPGGA,010057.00,4949.64833,N,09713.16980,W,1,10,1.16,235.5,M,-24.5,M,,*65",2011,2,27,58,19,0,0,-13.81,13.29,-15.84,98.08222,"R1.13",1.13,1.412,189,1.37,-11.97,-7.292,-6.053,-5.328,-4.639,-3.547,-2.433,-1.237,-0.186,0.223,0.604,1.442,0.9630,-10.5,-10.16,-9.62,-9.0600,-8.58,-8.2700,-8.12,-7.8610,-7.7750,-7.6040,-7.3490,-7.287,-6.964,-7.1110,-7.015,-7.2360,-7.287,-7.457,-7.502,-7.576,-7.8890,-8.09,-8.46,-8.66,-8.62
"2011-02-27 18:30:00","$GPGGA,003057.00,4949.64618,N,09713.16945,W,1,10,0.87,231.7,M,-24.5,M,,*66",2011,2,27,58,18,30,0,-11.84,13.3,-15.62,97.99999,"R1.15",1.15,1.413,189,1.372,-11.2,-7.166,-6.074,-5.382,-4.677,-3.573,-2.449,-1.248,-0.186,0.223,0.614,1.452,0.9410,-9.83,-9.55,-9.12,-8.67,-8.28,-8.05,-7.938,-7.733,-7.693,-7.568,-7.3350,-7.2620,-6.917,-7.0470,-6.9280,-7.115,-7.1320,-7.2620,-7.279,-7.313,-7.574,-7.7220,-8.05,-8.24,-8.1900
"2011-02-27 18:00:00","$GPGGA,000057.00,4949.64561,N,09713.17003,W,1,7,1.31,237.3,M,-24.5,M,,*5A",2011,2,27,58,18,0,0,-9.57,13.31,-12.56,97.9507,"R1.14",1.14,1.401,188,1.368,-10.39,-7.057,-6.117,-5.431,-4.72,-3.6,-2.465,-1.253,-0.186,0.2,0.624,1.419,0.961,-9.12,-8.92,-8.61,-8.3,-8.04,-7.8620,-7.794,-7.6510,-7.6510,-7.561,-7.334,-7.2490,-6.9150,-7.017,-6.8870,-7.0400,-7.028,-7.1240,-7.1190,-7.1190,-7.3220,-7.43,-7.7310,-7.885,-7.8280
"2011-02-27 17:30:00","$GPGGA,233057.00,4949.64506,N,09713.17096,W,1,10,0.79,231.0,M,-24.5,M,,*6B",2011,2,27,58,17,30,0,-7.4600,13.31,-11.16,97.89318,"R1.15",1.15,1.399,189,1.37,-9.5600,-6.9540,-6.156,-5.481,-4.753,-3.628,-2.482,-1.259,-0.154,0.237,0.623,1.417,0.988,-8.47,-8.33,-8.16,-7.998,-7.844,-7.747,-7.702,-7.6,-7.634,-7.5660,-7.339,-7.254,-6.932,-7.0000,-6.8750,-6.9940,-6.971,-7.028,-7.005,-6.977,-7.1180,-7.2030,-7.475,-7.6050,-7.5200
"2011-02-27 17:00:00","$GPGGA,230057.99,4949.64629,N,09713.16930,W,1,8,0.94,233.6,M,-24.5,M,,*5C",2011,2,27,58,17,0,0,-5.831,13.31,-11.07,97.9014,"R1.15",1.15,1.399,189,1.37,-8.6400,-6.8690,-6.211,-5.536,-4.797,-3.655,-2.498,-1.265,-0.154,0.232,0.629,1.439,0.966,-7.9800,-7.8890,-7.837,-7.786,-7.741,-7.6840,-7.6840,-7.5930,-7.6380,-7.5930,-7.366,-7.287,-6.97,-7.0270,-6.897,-6.9930,-6.959,-6.9990,-6.9480,-6.891,-7.004,-7.061,-7.3150,-7.411,-7.304
"2011-02-27 16:30:00","$GPGGA,223057.99,4949.64627,N,09713.17037,W,1,8,1.08,230.1,M,-24.5,M,,*5F",2011,2,27,58,16,30,0,-4.311,13.3,-10.83,97.8835,"R1.14",1.14,1.398,189,1.37,-7.9870,-6.847,-6.268,-5.587,-4.831,-3.678,-2.505,-1.266,-0.15,0.23,0.649,1.432,0.975,-7.5260,-7.4800,-7.5260,-7.6050,-7.6510,-7.6510,-7.6850,-7.6170,-7.673,-7.6390,-7.412,-7.344,-7.0390,-7.084,-6.9600,-7.0390,-6.9940,-7.011,-6.937,-6.864,-6.932,-6.9600,-7.214,-7.299,-7.175
"2011-02-27 16:00:00","$GPGGA,220057.99,4949.64485,N,09713.17025,W,1,10,0.96,231.4,M,-24.5,M,,*6E",2011,2,27,58,16,0,0,-3.407,13.28,-10.7,97.76967,"R1.11",1.11,1.397,188,1.369,-7.5970,-6.873,-6.356,-5.657,-4.879,-3.71,-2.52,-1.276,-0.161,0.258,0.622,1.405,0.97,-7.285,-7.2510,-7.37,-7.534,-7.659,-7.699,-7.7620,-7.693,-7.7620,-7.7050,-7.4610,-7.4150,-7.127,-7.1720,-7.0590,-7.127,-7.082,-7.1040,-7.0140,-6.924,-6.969,-7.008,-7.2290,-7.268,-7.127
"2011-02-27 15:30:00","$GPGGA,213057.99,4949.64610,N,09713.16975,W,1,9,0.89,230.2,M,-24.5,M,,*5C",2011,2,27,58,15,30,0,-2.612,13.26,-11,97.75924,"R1.13",1.13,1.397,189,1.369,-7.2170,-6.918,-6.429,-5.713,-4.918,-3.732,-2.531,-1.282,-0.161,0.236,0.666,1.443,0.9320,-7.1440,-7.1040,-7.285,-7.534,-7.7160,-7.7900,-7.864,-7.807,-7.858,-7.807,-7.568,-7.5400,-7.2620,-7.319,-7.195,-7.2620,-7.206,-7.2170,-7.1040,-7.003,-7.0140,-7.025,-7.2620,-7.325,-7.149
"2011-02-27 15:00:00","$GPGGA,210057.00,4949.64528,N,09713.17062,W,1,9,0.86,232.7,M,-24.5,M,,*51",2011,2,27,58,15,0,0,-2.142,13.23,-11.14,97.65517,"R1.14",1.14,1.398,189,1.369,-7.0140,-7.003,-6.519,-5.769,-4.946,-3.748,-2.542,-1.287,-0.139,0.258,0.66,1.459,0.9160,-7.1040,-7.082,-7.3080,-7.62,-7.853,-7.944,-8.03,-7.949,-7.989,-7.91,-7.6710,-7.682,-7.4210,-7.483,-7.359,-7.432,-7.3870,-7.3870,-7.268,-7.161,-7.161,-7.161,-7.398,-7.449,-7.2620
"2011-02-27 14:30:00","$GPGGA,203057.00,4949.64674,N,09713.17122,W,1,9,1.16,236.2,M,-24.5,M,,*55",2011,2,27,58,14,30,0,-1.864,13.19,-11.48,97.58948,"R1.13",1.13,1.399,189,1.369,-6.9010,-7.121,-6.608,-5.836,-4.99,-3.77,-2.558,-1.292,-0.144,0.231,0.622,1.416,0.965,-7.1720,-7.1380,-7.398,-7.7620,-8.04,-8.15,-8.2300,-8.13,-8.15,-8.05,-7.818,-7.8750,-7.614,-7.693,-7.574,-7.654,-7.602,-7.614,-7.489,-7.37,-7.359,-7.364,-7.602,-7.6650,-7.4550
"2011-02-27 14:00:00","$GPGGA,200057.00,4949.64609,N,09713.16906,W,1,10,0.97,235.6,M,-24.5,M,,*64",2011,2,27,58,14,0,0,-1.844,13.14,-11.97,97.55697,"R1.16",1.16,1.399,189,1.368,-6.946,-7.2620,-6.715,-5.886,-5.018,-3.792,-2.564,-1.292,-0.144,0.231,0.606,1.416,0.9540,-7.3300,-7.3080,-7.5850,-7.989,-8.3,-8.4,-8.4800,-8.36,-8.33,-8.21,-7.978,-8.1000,-7.8410,-7.944,-7.8300,-7.9210,-7.8870,-7.904,-7.767,-7.659,-7.654,-7.659,-7.904,-7.9550,-7.739
"2011-02-27 13:30:00","$GPGGA,193057.00,4949.64746,N,09713.16983,W,1,9,0.99,234.6,M,-24.5,M,,*5D",2011,2,27,58,13,30,0,-1.95,13.07,-12.36,97.49286,"R1.14",1.14,1.401,185,1.369,-7.0990,-7.438,-6.811,-5.947,-5.057,-3.809,-2.575,-1.298,-0.166,0.231,0.595,1.394,0.9540,-7.602,-7.5800,-7.864,-8.29,-8.61,-8.7,-8.7700,-8.61,-8.54,-8.38,-8.16,-8.36,-8.09,-8.2300,-8.11,-8.2300,-8.2,-8.2300,-8.1000,-8,-7.989,-7.995,-8.26,-8.33,-8.09
"2011-02-27 13:00:00","$GPGGA,190057.99,4949.64789,N,09713.16906,W,1,10,0.95,233.0,M,-24.5,M,,*65",2011,2,27,58,13,0,0,-2.205,13.17,-12.65,97.47491,"R1.15",1.15,1.403,185,1.37,-7.3080,-7.6310,-6.9070,-6.009,-5.09,-3.831,-2.591,-1.303,-0.166,0.236,0.6,1.438,0.9540,-7.949,-7.944,-8.24,-8.6800,-9,-9.05,-9.09,-8.88,-8.7700,-8.5600,-8.36,-8.61,-8.34,-8.53,-8.42,-8.5600,-8.54,-8.58,-8.47,-8.38,-8.4,-8.41,-8.6800,-8.7700,-8.5200
"2011-02-27 12:30:00","$GPGGA,183057.99,4949.64737,N,09713.17102,W,1,10,0.95,234.8,M,-24.5,M,,*60",2011,2,27,58,12,30,0,-2.892,13.15,-12.49,97.4413,"R1.15",1.15,1.401,188,1.369,-7.758,-7.844,-7.005,-6.05,-5.114,-3.837,-2.597,-1.298,-0.155,0.253,0.65,1.433,0.9540,-8.4400,-8.41,-8.6900,-9.12,-9.42,-9.4300,-9.4400,-9.15,-8.9800,-8.7300,-8.53,-8.83,-8.59,-8.8100,-8.7,-8.87,-8.87,-8.9400,-8.83,-8.75,-8.78,-8.8100,-9.13,-9.2700,-9
"2011-02-27 12:00:00","$GPGGA,180057.99,4949.64713,N,09713.16993,W,1,10,0.85,233.5,M,-24.5,M,,*6F",2011,2,27,58,12,0,0,-3.794,13.13,-12.73,97.39201,"R1.14",1.14,1.402,189,1.369,-8.3,-8.07,-7.094,-6.099,-5.141,-3.864,-2.607,-1.303,-0.149,0.253,0.612,1.406,0.96,-9.01,-8.9800,-9.22,-9.62,-9.87,-9.8500,-9.8100,-9.45,-9.21,-8.9,-8.71,-9.13,-8.8500,-9.13,-9.04,-9.24,-9.24,-9.3500,-9.26,-9.2300,-9.29,-9.36,-9.6900,-9.8,-9.53
"2011-02-27 11:30:00","$GPGGA,173057.00,4949.64654,N,09713.16987,W,1,10,0.83,234.2,M,-24.5,M,,*62",2011,2,27,58,11,30,0,-4.765,13.1,-12.87,97.29341,"R1.15",1.15,1.403,185,1.37,-8.9400,-8.3,-7.181,-6.152,-5.176,-3.888,-2.614,-1.31,-0.156,0.247,0.617,1.422,0.9210,-9.6400,-9.59,-9.78,-10.13,-10.35,-10.25,-10.16,-9.7300,-9.41,-9.03,-8.82,-9.29,-9.01,-9.36,-9.29,-9.5200,-9.55,-9.6800,-9.61,-9.62,-9.7300,-9.84,-10.19,-10.34,-10.06
"2011-02-27 11:00:00","$GPGGA,170057.00,4949.64629,N,09713.17098,W,1,10,0.94,235.5,M,-24.5,M,,*6D",2011,2,27,58,11,0,0,-6.182,13.07,-13.29,97.22769,"R1.12",1.12,1.403,189,1.368,-9.7200,-8.53,-7.266,-6.196,-5.203,-3.903,-2.629,-1.313,-0.164,0.238,0.602,1.397,0.923,-10.23,-10.11,-10.26,-10.6,-10.79,-10.64,-10.5,-9.9800,-9.59,-9.1400,-8.8900,-9.3500,-9.1000,-9.51,-9.4700,-9.74,-9.78,-9.9300,-9.9,-9.9400,-10.11,-10.26,-10.63,-10.82,-10.56
"2011-02-27 10:30:00","$GPGGA,163057.00,4949.64728,N,09713.17101,W,1,10,1.03,233.3,M,-24.5,M,,*61",2011,2,27,58,10,30,0,-7.9280,13.05,-13.37,97.17846,"R1.15",1.15,1.404,189,1.369,-10.63,-8.74,-7.3360,-6.237,-5.232,-3.921,-2.635,-1.308,-0.153,0.249,0.608,1.408,0.919,-10.93,-10.71,-10.72,-11.03,-11.17,-10.94,-10.75,-10.18,-9.74,-9.24,-8.88,-9.21,-9.0200,-9.5,-9.46,-9.8,-9.8500,-10.04,-10.01,-10.08,-10.3,-10.45,-10.89,-11.2,-10.95
"2011-02-27 10:00:00","$GPGGA,160057.99,4949.64659,N,09713.17128,W,1,10,0.80,232.6,M,-24.5,M,,*60",2011,2,27,58,10,0,0,-10.56,13.03,-14.91,97.07914,"R1.15",1.15,1.409,189,1.37,-11.48,-8.9300,-7.405,-6.283,-5.261,-3.932,-2.646,-1.313,-0.163,0.223,0.62,1.399,0.9250,-11.81,-11.62,-11.48,-11.6,-11.57,-11.22,-10.98,-10.35,-9.87,-9.3,-8.92,-9.15,-8.99,-9.51,-9.4300,-9.82,-9.8900,-10.11,-10.09,-10.14,-10.41,-10.54,-11.07,-11.45,-11.26
"2011-02-27 09:30:00","$GPGGA,153057.99,4949.64648,N,09713.17010,W,1,10,0.76,235.3,M,-24.5,M,,*61",2011,2,27,58,9,30,0,-13.08,13.01,-15.84,97.02802,"R1.15",1.15,1.411,189,1.369,-12.3,-9.11,-7.478,-6.332,-5.293,-3.953,-2.662,-1.323,-0.168,0.241,0.627,1.471,0.97,-12.49,-12.38,-12.15,-12.1,-11.91,-11.46,-11.18,-10.51,-10,-9.38,-8.96,-9.1900,-9.04,-9.58,-9.4800,-9.8900,-9.96,-10.19,-10.19,-10.24,-10.55,-10.67,-11.21,-11.6,-11.45
"2011-02-27 09:00:00","$GPGGA,150057.00,4949.64704,N,09713.17056,W,1,10,0.75,233.6,M,-24.5,M,,*69",2011,2,27,58,9,0,0,-15.29,12.99,-16.89,97.01267,"R1.15",1.15,1.414,189,1.37,-13,-9.25,-7.543,-6.385,-5.317,-3.971,-2.662,-1.323,-0.162,0.236,0.617,1.423,0.96,-12.92,-12.88,-12.61,-12.41,-12.09,-11.59,-11.27,-10.61,-10.08,-9.45,-9,-9.25,-9.13,-9.63,-9.54,-9.9300,-10.01,-10.23,-10.23,-10.3,-10.61,-10.78,-11.27,-11.62,-11.52
"2011-02-27 08:30:00","$GPGGA,143057.99,4949.64654,N,09713.16927,W,1,10,0.78,231.8,M,-24.5,M,,*60",2011,2,27,58,8,30,0,-16.39,12.97,-17.77,96.96186,"R1.09",1.09,1.416,189,1.369,-13.34,-9.37,-7.623,-6.435,-5.35,-3.982,-2.679,-1.323,-0.162,0.252,0.622,1.428,0.9540,-13.07,-13.07,-12.8,-12.53,-12.16,-11.64,-11.33,-10.68,-10.16,-9.49,-9.05,-9.3500,-9.25,-9.7,-9.61,-9.9800,-10.06,-10.26,-10.26,-10.35,-10.64,-10.82,-11.25,-11.56,-11.49
"2011-02-27 08:00:00","$GPGGA,140057.99,4949.64647,N,09713.16948,W,1,9,1.06,230.0,M,-24.5,M,,*51",2011,2,27,58,8,0,0,-16.65,12.95,-17.97,96.87994,"R1.14",1.14,1.416,189,1.369,-13.42,-9.4700,-7.6970,-6.48,-5.373,-4.004,-2.684,-1.328,-0.167,0.236,0.606,1.423,0.9710,-13,-13.05,-12.76,-12.48,-12.12,-11.64,-11.37,-10.76,-10.24,-9.55,-9.1400,-9.42,-9.33,-9.7700,-9.65,-9.99,-10.07,-10.26,-10.24,-10.32,-10.59,-10.75,-11.16,-11.47,-11.43
"2011-02-27 07:30:00","$GPGGA,133057.99,4949.64594,N,09713.17001,W,1,10,1.11,224.4,M,-24.5,M,,*62",2011,2,27,58,7.0000,30,0,-16.36,12.91,-17.68,96.8644,"R1.15",1.15,1.414,190,1.367,-13.4,-9.58,-7.7760,-6.525,-5.4,-4.015,-2.684,-1.328,-0.162,0.241,0.606,1.423,0.9540,-12.78,-12.9,-12.69,-12.45,-12.17,-11.76,-11.52,-10.91,-10.37,-9.7,-9.28,-9.7,-9.54,-9.9400,-9.83,-10.12,-10.17,-10.35,-10.33,-10.42,-10.66,-10.82,-11.18,-11.42,-11.41
"2011-02-27 07:00:00","$GPGGA,130057.99,4949.64607,N,09713.16939,W,1,10,1.04,226.6,M,-24.5,M,,*6F",2011,2,27,58,"2011-02-27 06:30:00","$GPGGA,123057.99,4949.64702,N,09713.17013,W,1,9,0.99,229.0,M,-24.5,M,,*5D",2011,2,27,58,6,30,0,-15.88,13.04,-17.24,96.81521,"R1.15",1.15,1.413,189,1.368,-13.72,-9.8900,-7.9590,-6.632,-5.456,-4.037,-2.701,-1.328,-0.162,0.257,0.638,1.406,0.9,-12.49,-12.67,-12.56,-12.44,-12.33,-12.02,-11.81,-11.21,-10.64,-9.95,-9.6400,-10.23,-9.8900,-10.27,-10.14,-10.36,-10.38,-10.54,-10.54,-10.64,-10.82,-10.99,-11.25,-11.45,-11.47
"2011-02-27 06:00:00","$GPGGA,120057.99,4949.64634,N,09713.16907,W,1,10,0.81,232.1,M,-24.5,M,,*6D",2011,2,27,58,6,0,0,-15.82,13.04,-17.04,96.83166,"R1.15",1.15,1.412,189,1.367,-14.1,-10.11,-8.0600,-6.677,-5.478,-4.053,-2.706,-1.328,-0.162,0.274,0.622,1.395,0.9320,-12."2011-02-27 05:30:00","$GPGGA,113057.99,4949.64642,N,09713.16987,W,1,8,0.95,232.9,M,-24.5,M,,*50",2011,2,27,58,5,30,0,-15.9,13.04,-17.19,96.86458,"R1.15",1.15,1.413,189,1.368,-14.67,-10.35,-8.15,-6.722,-5.501,-4.064,-2.712,-1.328,-0.162,0.274,0.611,1.412,0.9,-12.58,-12.75,-12.66,-12.56,-12.51,-12.27,-12.06,-11.45"2011-02-27 05:00:00","$GPGGA,110057.99,4949.64611,N,09713.16995,W,1,8,0.99,231.8,M,-24.5,M,,*58",2011,2,27,58,5,0,0,-16,13.03,-17.43,96.86458,"R1.15",1.15,1.414,189,1.368,-15.39,-10.61,-8.24,-6.7560,-5.523,-4.081,-2.723,-1.328,-0.162,0.257,0.595,1.395,0.8890,-12.66,-12.78,-12.66,-12.58,-12.53,-12.29,-12.1,-11.49,-10.9,-10.18,-9.86,-10.45,-10.1,-10.45,-"2011-02-27 04:30:00","$GPGGA,103057.99,4949.64600,N,09713.17135,W,1,8,0.92,230.7,M,-24.5,M,,*5C",2011,2,27,58,4,30,0,-15.98,13.02,-17.58,96.86362,"R1.15",1."2011-02-27 04:00:00","$GPGGA,100057.00,4949.64622,N,09713.17104,W,1,10,0.82,226.7,M,-24.5,M,,*62",2011,2,27,58,4,0,0,-16.03,13.02,-17.63,96.89748,"R1.15",1.15,1.414,189,1.368,-16.44,-11.05,-8.3900,-6.8300,-5.562,-4.103,-2.728,-1.339,-0.167,0.246,0.617,1.401,0.9110,-12.76,-12.94,-12.92,-12.83,-12.85,-12.65,-12.41,-11.78,-11.13,-10.41,-10.22,-10.92,-10.45,-10.78,-10.65,-10.86,-10.78,-10.94,-10.95,-11.06,-11.18,-11.34,-11.52,-11.73,-11.79
"2011-02-27 03:30:00","$GPGGA,093057.00,4949.64619,N,09713.17139,W,1,10,0.93,228.9,M,-24.5,M,,*6F",2011,2,27,"2011-02-27 03:00:00","$GPGGA,090057.00,4949.64694,N,09713.17121,W,1,9,0.84,230.8,M,-24.5,M,,*56",2011,2,27,58,3,0,0,-16.05,13,-17.63,96.9304,"R1.15",1.15,1.414,185,1.368,-16.77,-11.3,-8.51,-6.903,-5.601,-4.12,-2.739,-1.339,-0.178,0.252,0.595,1.401,0.9160,-12.86,-13.04,-13.05,-12.97,-13.05,-12.85,-12.63,-11.96,-11.31,-10.6,-10.49,-11.21,-10.73,-10.97,-10.81,-10.97,-10.92,-11.06,-11.04,-11.13,-11.21,-11.35,-11.59,-11.88,-11.96
"2011-02-27 02:30:00","$GPGGA,083057.00,4949.64722,N,09713.17155,W,1,9,0.90,232.2,M,-24.5,M,,*56",2011,2,27,58,2,30,0,-16,12.99,-17.48,96.97976,"R1.15",1.15,1.415,177,1.369,-16.75,-11.43,-8.57,-6.926,-5.612,-4.131,-2.745,-1.339,-0.178,0.2"2011-02-27 02:00:00","$GPGGA,080057.99,4949.64659,N,09713.16962,W,1,9,0.94,230.1,M,-24.5,M,,*50",2011,2,27,58,2,0,0,-16.05,12.96,-17.53,97.01267,"R1.15",1.15,1.414,186,1.368,-16.91,-11.54,-8.62,-6.9540,-5.635,-4.142,-2.75,-1.339,-0.178,0.236,0.617,1.412,0.9320,-13,-13.17,-13.25,-13.15,-13.25,-13.07,-12.83,-12.15,-11.47,-10.73,-10.64,-11.44,-10.9,-11.1"2011-02-27 01:30:00","$GPGGA,073057.99,4949.64720,N,09713.16947,W,1,10,0.94,228.5,M,-24.5,M,,*61",2011,2,27,58,1,30,0,-16.18,12.92,-17.68,97.02871,"R1.15",1.15,1.415,177,1.368,-17.02,-11.63,-8.67,-6.9930,-5.651,-4.153,-2.75,-1.339,-0.178,0.252,0.622,1.406,0.9110,-13.08,-13.26,-13.29,-13.22,-13.29,-13.1,-12.85,-12"2011-02-27 01:00:00","$GPGGA,070057.99,4949.64645,N,09713.17002,W,1,9,0.96,226.2,M,-24.5,M,,*5A",2011,2,27,58,1,0,0,-16.52,13.05,-17.82,97.09494,"R1.14",1.14,1.415,182,1.368,-17.21,-11.73,-8.72,-"2011-02-27 00:30:00","$GPGGA,063057.99,4949.64708,N,09713.17077,W,1,10,0.82,228.8,M,-24.5,M,,*6B",2011,2,27,58,0,30,0,-16.62,13.05,-18.01,97.12786,"R1.14",1.14,1.416,181,1.369,-17.45,-11.83,-8.7700,-7.043,-5.678,-4.168,-2.765,-1.338,-0.199,0.253,0.602,1.408,0.9120,-13.25,-13.45,-13.49,-13.41,-13.47,-13.24,-12.99,-12.27,-11.58,-10.78,-10.59,-11.37,-10.86,-11.16,-11.04,-11.25,-11.13,-11.29,-11.3,-11.42,-11.5,-11.66,-11.85,-12.08,-12.17
"2011-02-27 00:00:00","$GPGGA,060057.99,4949.64554,N,09713.17118,W,1,10,LrÊ¢bjŠŠrŠšbjŠŠr‚²bjŠŠr’bjŠŠr’bjŠŠršbjŠŠr¢ŠbjŠŠrª²bjŠŠrÂbjŠ’r‚ºbjŠ’rŠºj
"2011-02-26 23:30:00","$GPGGA,053057.00,4949.64541,N,09713.17066,W,1,10,0.80,230.1,M,-24.5,M,,*65",2011,2,26,57,23,30,0,-16.7,13.05,-18.16,97.2595,"R1.14",1.14,1.416,188,1.368,-17.86,-11.98,-8.84,-7.1,-5.712,-4.19,-2.766,-1.338,-0.194,0.258,0.618,1.424,0.933,-13.29,-13.54,-13.62,-13.52,-13.58,-13.36,-13.09,-12.36,-11.66,-10.86,-10.68,-11.46,-10.94,-11.23,-11.09,-11.3,-11.17,-11.32,-11.31,-11.42,-11.48,-11.64,-11.83,-12.07,-12.17
"2011-02-26 23:00:00","$GPGGA,050057.00,4949.64608,N,09713.16948,W,1,11,0.75,228.3,M,-24.5,M,,*6C",2011,2,26,57,23,0,0,-16.6,13.05,-18.21,97.28945,"R1.15",1.15,1.416,189,1.368,-17.91,-12,-8.8900,-7.129,-"2011-02-26 22:30:00","$GPGGA,043057.00,4949.64587,N,09713.16970,W,1,10,0.87,228.1,M,-24.5,M,,*6F",2011,2,26,57,22,30,0,-16.47,13.05,-18.07,97.34162,"R1.14",1.14,1.417,173,1.369,-17.7,-12.07,-8.95,-7.1520,-5.735,-4.197,-2.772,-1.339,-0.178,0.252,0.595,1.39,0.883,-13.24,-13.49,-13.59,-13.49,-13.58,-13.39,-13.15,-12.46,-11.76,-10.96,-10.77,-11.56,-11.04,"2011-02-26 22:00:00","$GPGGA,040057.00,4949.64490,N,09713.17202,W,1,10,0.97,226.1,M,-24.5,M,,*6B",2011,2,26,57,22,0,0,-16.44,13.05,-17.92,97.4076,"R1.14",1.14,1.416,176,1.369,-17.67,-12.17,-8.99,-7.174,-5.746,-4.202,-2.772,-1.339,-0.184,0.252,0.617,1.406,0.9,-13.31,-13.56,-13.64,-13.54,-13.64,-13.44,-13.21,-12.51"2011-02-26 21:30:00","$GPGGA,033057.00,4949.64540,N,09713.17270,W,1,9,1.00,227.9,M,-24.5,M,,*58",2011,2,26,57,21,30,0,-16.39,13.05,-17.82,97.47307,"R1.14",1.14,1.416,173,1.369,-17.72,-12.27,-9.020"2011-02-26 21:00:00","$GPGGA,030057.00,4949.64645,N,09713.17090,W,1,10,0.98,231.8,M,-24.5,M,,*6F",2011,2,26,57,21,0,0,-16.39,13.04,-17.77,97.5145,"R1.14",1.14,1.415,185,1.368,-17.72,-12.39,-9.0600,-7.2030,-5.763,-4.213,-2.777,-1.339,-0.195,0.257,0.638,1.434,0.9490,-13.62,-13.75,-13.74,-13.64,-13.77,-13.57,-13.34,-12.66,-11.98,-11.12,-10.8,-11.61,-11.06,-11.35,-11.21,-11.4,-11.28,-11.42,-11.37,-11.46,-11.48,-11.59,-11.85,-12.19,-12.24
"2011-02-26 20:30:00","$GPGGA,023057.99,4949.64711,N,09713.17103,W,1,9,1.06,235.1,M,-24.5,M,,*55",2011,2,26,57,20,30,0,-16.41,13.04,-17.87,97.48986,"R1.15",1.15,1.415,185,1.368,-17.89,-12.53,-9.09,-7.22,-5.78,-4.225,-2.777,-1.334"2011-02-26 20:00:00","$GPGGA,020057.99,4949.64764,N,09713.16920,W,1,12,0.70,231.0,M,-24.5,M,,*63",2011,2,26,57,20,0,0,-16.44,13.01,-17.92,97.48988,"R1.15",1.15,1.415,189,1.368,-18.03,-12.66,-9.11,-7.225,-5.791,-4.236,-2.777,-1.328,-0.2,0.252,0.617,1.412,0.96,-13.7,-13.85,-13.87,-13.79,-13.89,-13.67,-13.42,-12.7,-12.05,-11.13,-10.71,-11.5,-10.97,-11.2"2011-02-26 19:30:00","$GPGGA,013057.99,4949.64864,N,09713.17009,W,1,9,1.07,231.9,M,-24.5,M,,*5D",2011,2,26,57,19,30,0,-16.44,12.99,-18.02,97.52277,"R1.15",1.15,1.415,189,1.368,-18.36,-12.77,-9.12,-7.2370,-5.802,-4.236,-2.783,-1.328,-0.2,0.246,0.595,1.39,0.9270,-13.75,-13.92,-13.9,-13.85,-13.94,-13.68,-13.42,-12.68,-12.05,-11.12,-10.66,-11.43,-10.9,-11."2011-02-26 19:00:00","$GPGGA,010057.99,4949.64845,N,09713.16936,W,1,9,1.20,233.5,M,-24.5,M,,*52",2011,2,26,57,19,0,0,©)ŠrššbjŠŠr¢²bjŠŠr²¢bjŠŠrÂšbjŠŠrÂšj
"2011-02-26 18:30:00","$GPGGA,003057.99,4949.64785,N,09713.16899,W,1,10,0.81,234.1,M,-24.5,M,,*66",2011,2,26,57,18,30,0,-16.16,13.13,-18.07,97.6165,"R1.14",1.14,1.417,181,1.369,-19.2,-12.7,-9.09,-7.259,-5.83,-4.252,-2.777,-1.323,-0.2,0.246,0.638,1.423,0.9870,-13.44,-13.57,-13.59,-13.54,-13.49,-13.25,-13,-12.34,-11.83,-10.99,-10.4,-11.02,-10.56,-10.9,-10.75,-10.94,-10.86,-10.99,-10.94,-11.02,-11.13,-11.25,-11.43,-11.62,-11.61
"2011-02-26 18:00:00","$GPGGA,000057.99,4949.64630,N,09713.17263,W,1,9,0.91,229.4,M,-24.5,M,,*54",2011,2,26,57,18,0,0,-15.22,13.13,-17.89,97.66334,"R1.13",1.13,1.416,189,1.369,-18.98,-12.51,-9.05,-7.28,-5.862,-4.262,-2.782,-1.328,-0.211,0.225,0.611,1.411,0.965,-13.06,-13.19,-13.21"2011-02-26 17:30:00","$GPGGA,233057.99,4949.64503,N,09713.16924,W,1,10,0.85,232.9,M,-24.5,M,,*66",2011,2,26,57,17,30,0,-13.93,13.13,-17.45,97.704,"R1.15",1.15,1.414,189,1.368,-18.42,-12.28,-9.03,-7.3090,-5.879,-4.268,-2.777,-1.318,-0.201,0.251,0.626,1.416,0.98,-12.66,-12.8,-"2011-02-26 17:00:00","$GPGGA,230057.99,4949.64670,N,09713.16834,W,1,10,0.80,232.8,M,-24.5,M,,*66",2011,2,26,57,17,0,0,-12.46,13.13,-16.97,97.76978,"R1.10",1.1,1.414,186,1.369,-17.68,-11.98,-9.0200,-7.347,-5.9,-4.273,-2.771,-1.312,-0.206,0.257,0.621,1.416,0.9480,-12.2,-12.3,-12.47,-12.57,-12.72,-12.57,-12.45,-12.04,-11.72,-11.08,-10.61,-11.22,-10.77,-11.04,-10.84,-11.01,-10.89,-10.96,-10.84,-10.86,-10.89,-10.95,-11.13,-11.29,-11.bŠ²bš‚b‚bjŠŠr’ŠbŠšrŠ’bjŠ²rÂÂbÊºrÂššÊÂb’Å.15",1.15,1.413,181,1.369,-16.72,-11.5"2011-02-26 16:00:00","$GPGGA,220057.99,4949.64544,N,09713.17038,W,1,10,0.89,231.5,M,-24.5,M,,*61",2011,2,26,57,16,0,0,-10.21,13.1,-16.93,97.86901,"R1.15",1.15,1.414,181,1.369,-14.55,-10.98,-9.08,-7.4540,-5.945,-4.273,-2.755,-1.302,-0.196,0.255,0.614,1.453,1.028,-11.28,-11.32,-11.51,-11.8,-12.1,-12.06,-12.12,-11.92,-11.8,-11.27,-10.84,-11.43,-10.99,-11.27,-11.06,-11.21,-11.1,-11.16,-10.99,-10.94,-10.97,-11,-11.22,-11.41,-11.27
"2011-02-26 15:30:00","$GPGGA,213057.00,4949.64606,N,09713.16960,W,1,10,0.85,235.8,M,-24.5,M,,*64",2011,2,26,57,15,30,0,-9.46,13.07,-17.62,97.93426,"R1.15",1.15,1.415,189,1.369,-14.41,-10.94,-9.2,-7.517,-5.968,-4.273,-2.745,-1.292,-0.202,0.233,0.614,1.414,0.9620,-11.18,-11.15,-11.34,-11.67,-12.04,-12.04,-12.14,-11.99,-11.92,-11.43,-11.06,-11.71,-11.26,-"2011-02-26 15:00:00","$GPGGA,210057.00,4949.64582,N,09713.17016,W,1,11,0.76,233.9,M,-24.5,M,,*6B",2011,2,26,57,15,0,0,-9.05,13.04,-18.1,97.95234,"R1.06",1.06,1.415,189,1.367,-14.27,-11.2,-9.36,-7."2011-02-26 14:30:00","$GPGGA,203057.00,4949.64608,N,09713.17139,W,1,10,0.82,234.5,M,-24.5,M,,*65",2011,2,26,57,14,30,0,-9.12,13,-18.4,98.0329,"R1.15",1.15,1.417,189,1.368,-15.13,-11.61,-9.54,-7.659,-6.007,-4.262,-2.728,-1.275,-0.208,0.271,0.63,1.414,0.9620,-11.61,-11.53,-11.7,-11.97,-12.39,-12.41,-12.57,-12.4,-12.39,-11.93,-11.68,-12.45,-11.94,-12.21,-11.97,-12.15,-11.99,-12.04,-11.85,-11.82,-11.78,-11.8,-12.03,-12.22,-12
"2011-02-26 14:00:00","$GPGGA,200057.00,4949.64584,N,09713.16918,W,1,9,0.99,238.7,M,"2011-02-26 13:30:00","$GPGGA,193057.99,4949.64731,N,09713.17052,W,1,10,0.96,237.2,M,-24.5,M,,*69",2011,2,26,57,13,30,0,-9.16,12.87,-19.57,98.16746,"R1.14",1.14,1.42,189,1.368,-16.25,-12.58,-9.88,-7.784,-6.012,-4.245,-2.701,-1.258,-0.213,0.244,0.614,1.398,0.946,-12.2,-12.11,-12.16,-12.4,-12.89,-12.94,-13.19,-13.03,-13.06,-12.57,-12.3,-13.22,-12.65,-12.97,-12.72,-12.91,-12.75,-12.82,-12.62,-12.6,-12.56,-12.57,-12.87,-13.11,-12.83
--------------------------------------------
END TRANSMIT

