

RING

RING

RING

CONNECT 4800
--------------------------------------------
CEOS_IMBB06
----------------IMB_data--------------------
"2011-02-28 13:00:00","$GPGGA,190057.00,4949.64741,N,09713.16914,W,1,10,0.96,233.2,M,-24.5,M,,*63",2011,2,28,59,13,0,0,-0.35,13.15,-7.097,98.54192,"R1.14",1.14,1.388,189,1.37,-5.246,-6.58,-5.947,-5.057,-4.244,-3.139,-2.127,-1.102,-0.172,0.252,0.644,1.427,0.975,-6.603,-6.682,-7.036,-7.5800,-8.03,-8.2300,-8.54,-8.7,-9,-9.2,-9.32,-9.79,-9.4300,-9.61,-9.38,-9.51,-9.38,-9.37,-9.1400,-8.9300,-8.79,-8.6400,-8.9800,-9.2,-8.88
"2011-02-28 12:30:00","$GPGGA,183057.99,4949.64779,N,09713.17017,W,1,11,0.81,234.6,M,-24.5,M,,*65",2011,2,28,59,12,30,0,-1.01,13.1,-9.05,98.60823,"R1.06",1.06,1.393,189,1.37,-6.003,-6.8620,-6.037,-5.085,-4.255,-3.139,-2.127,-1.102,-0.172,0.274,0.638,1.438,0.975,-7.24,-7.3300,-7.608,-8.13,-8.5600,-8.71,-9,-9.08,-9.34,-9.4700,-9.6000,-10.15,-9.78,-10.01,-9.8100,-9.99,-9.9,-9.9300,-9.71,-9.54,-9.4400,-9.36,-9.74,-9.99,-9.65
"2011-02-28 12:00:00","$GPGGA,180057.99,4949.64648,N,09713.17123,W,1,9,1.16,233.3,M,-24.5,M,,*57",2011,2,28,59,12,0,0,-1.95,13.06,-9.22,98.70208,"R1.14",1.14,1.394,189,1.37,-6.725,-7.143,-6.114,-5.105,-4.258,-3.148,-2.13,-1.105,-0.169,0.25,0.63,1.446,0.9730,-7.971,-8.03,-8.29,-8.78,-9.15,-9.25,-9.4800,-9.4800,-9.6900,-9.75,-9.87,-10.45,-10.1,-10.4,-10.21,-10.45,-10.39,-10.47,-10.28,-10.16,-10.11,-10.05,-10.52,-10.82,-10.49
"2011-02-28 11:30:00","$GPGGA,173057.00,4949.64627,N,09713.16996,W,1,12,0.72,235.5,M,-24.5,M,,*6C",2011,2,28,59,11,30,0,-4.051,13.02,-9.5,98.7477,"R1.15",1.15,1.397,188,1.372,-7.839,-7.4470,-6.185,-5.12,-4.256,-3.145,-2.127,-1.102,-0.171,0.269,0.617,1.428,0.993,-8.9400,-8.9400,-9.1000,-9.4700,-9.75,-9.76,-9.9400,-9.84,-9.99,-9.99,-10.08,-10.71,-10.37,-10.76,-10.58,-10.88,-10.86,-10.99,-10.85,-10.76,-10.8,-10.78,-11.31,-11.67,-11.33
"2011-02-28 11:00:00","$GPGGA,170057.00,4949.64695,N,09713.17063,W,1,11,0.75,235.4,M,-24.5,M,,*61",2011,2,28,59,11,0,0,-6.335,12.98,-11.49,98.74038,"R1.13",1.13,1.399,189,1.369,-9.21,-7.7420,-6.246,-5.136,-4.261,-3.139,-2.132,-1.101,-0.181,0.238,0.646,1.429,0.9780,-9.9300,-9.9,-9.91,-10.14,-10.31,-10.23,-10.36,-10.17,-10.24,-10.19,-10.25,-10.91,-10.58,-11.05,-10.89,-11.23,-11.25,-11.44,-11.33,-11.32,-11.43,-11.48,-12.05,-12.46,-12.13
"2011-02-28 10:30:00","$GPGGA,163057.00,4949.64707,N,09713.17011,W,1,9,1.09,234.9,M,-24.5,M,,*53",2011,2,28,59,10,30,0,-8.76,12.94,-12.25,98.79866,"R1.14",1.14,1.403,189,1.371,-10.49,-8,-6.287,-5.137,-4.262,-3.15,-2.132,-1.106,-0.174,0.255,0.631,1.425,0.9300,-10.87,-10.77,-10.65,-10.75,-10.78,-10.63,-10.7,-10.42,-10.43,-10.32,-10.37,-11.06,-10.72,-11.27,-11.12,-11.52,-11.56,-11.8,-11.73,-11.79,-11.97,-12.06,-12.67,-13.14,-12.82
"2011-02-28 10:00:00","$GPGGA,160057.99,4949.64853,N,09713.16946,W,1,9,0.89,238.0,M,-24.5,M,,*58",2011,2,28,59,10,0,0,-11.37,12.91,-13.4,98.77295,"R1.13",1.13,1.407,189,1.372,-11.72,-8.22,-6.316,-5.138,-4.257,-3.145,-2.137,-1.1,-0.174,0.245,0.643,1.427,0.9690,-11.74,-11.59,-11.33,-11.29,-11.19,-10.95,-10.96,-10.62,-10.6,-10.43,-10.44,-11.06,-10.75,-11.36,-11.2,-11.7,-11.77,-12.05,-12.03,-12.1,-12.35,-12.47,-13.14,-13.7,-13.41
"2011-02-28 09:30:00","$GPGGA,153057.99,4949.64696,N,09713.17029,W,1,9,0.87,230.7,M,-24.5,M,,*5F",2011,2,28,59,9,30,0,-14.35,12.87,-15.09,98.80634,"R1.14",1.14,1.411,189,1.371,-12.62,-8.3900,-6.329,-5.139,-4.258,-3.15,-2.137,-1.105,-0.167,0.236,0.622,1.379,0.9540,-12.49,-12.29,-11.91,-11.72,-11.5,-11.21,-11.16,-10.78,-10.71,-10.5,-10.49,-11.07,-10.8,-11.43,-11.28,-11.87,-11.94,-12.27,-12.31,-12.4,-12.69,-12.81,-13.54,-14.15,-13.9
"2011-02-28 09:00:00","$GPGGA,150057.00,4949.64695,N,09713.16911,W,1,9,0.86,233.4,M,-24.5,M,,*5D",2011,2,28,59,9,0,0,-17.17,12.85,-16.58,98.80634,"R1.14",1.14,1.416,189,1.372,-13.41,-8.51,-6.336,-5.134,-4.258,-3.14,-2.142,-1.099,-0.167,0.231,0.623,1.391,0.961,-13.16,-12.92,-12.45,-12.11,-11.77,-11.39,-11.29,-10.86,-10.75,-10.53,-10.51,-11.08,-10.79,-11.47,-11.3,-11.93,-12.02,-12.4,-12.45,-12.57,-12.94,-13.11,-13.83,-14.46,-14.25
"2011-02-28 08:30:00","$GPGGA,143057.00,4949.64664,N,09713.17059,W,1,9,0.80,230.4,M,-24.5,M,,*50",2011,2,28,59,8,30,0,-19.66,12.81,-18.82,98.82578,"R1.11",1.11,1.419,190,1.369,-14.69,-8.6400,-6.342,-5.134,-4.258,-3.156,-2.142,-1.104,-0.161,0.253,0.635,1.419,0.9620,-13.84,-13.53,-12.89,-12.4,-11.91,-11.49,-11.35,-10.88,-10.76,-10.53,-10.48,-11.04,-10.75,-11.44,-11.27,-11.94,-12.02,-12.42,-12.5,-12.63,-13.05,-13.24,-13.98,-14.61,-14.41
"2011-02-28 08:00:00","$GPGGA,140057.00,4949.64579,N,09713.16924,W,1,8,1.14,230.7,M,-24.5,M,,*50",2011,2,28,59,8,0,0,-21.18,12.78,-21.4,98.79012,"R1.13",1.13,1.427,189,1.37,-15.09,-8.6800,-6.331,-5.124,-4.253,-3.151,-2.147,-1.109,-0.149,0.259,0.619,1.469,0.9730,-14.11,-13.78,-13.06,-12.49,-11.96,-11.52,-11.36,-10.88,-10.72,-10.48,-10.43,-10.99,-10.67,-11.4,-11.24,-11.91,-12.01,-12.42,-12.5,-12.65,-13.1,-13.33,-14.06,-14.66,-14.5
"2011-02-28 07:30:00","$GPGGA,133057.99,4949.64742,N,09713.16997,W,1,9,1.11,227.1,M,-24.5,M,,*52",2011,2,28,59,7.0000,30,0,-21.68,12.74,-21.74,98.7819,"R1.13",1.13,1.427,189,1.369,-15.25,-8.7,-6.32,-5.118,-4.253,-3.151,-2.153,-1.109,-0.16,0.259,0.641,1.436,0.9680,-14.2,-13.88,-13.15,-12.54,-12,-11.52,-11.36,-10.85,-10.68,-10.4,-10.35,-10.9,-10.62,-11.31,-11.19,-11.82,-11.97,-12.39,-12.49,-12.67,-13.13,-13.38,-14.1,-14.68,-14.53
"2011-02-28 07:00:00","$GPGGA,130057.99,4949.64684,N,09713.17077,W,1,9,1.12,228.6,M,-24.5,M,,*57",2011,2,28,59,7.0000,0,0,-21.95,12.87,-22.96,98.73397,"R1.14",1.14,1.432,189,1.37,-15.2,-8.7,-6.309,-5.113,-4.253,-3.156,-2.158,-1.115,-0.16,0.27,0.641,1.436,0.9680,-14.23,-13.9,-13.16,-12.55,-11.98,-11.51,-11.33,-10.81,-10.62,-10.36,-10.28,-10.8,-10.5,-11.22,-11.06,-11.76,-11.87,-12.31,-12.42,-12.6,-13.08,-13.33,-14.08,-14.68,-14.53
"2011-02-28 06:30:00","$GPGGA,123057.99,4949.64626,N,09713.16944,W,1,10,0.91,229.1,M,-24.5,M,,*61",2011,2,28,59,6,30,0,-22.04,12.87,-23.3,98.69335,"R1.13",1.13,1.431,189,1.369,-15.32,-8.7,-6.292,-5.107,-4.259,-3.162,-2.169,-1.12,-0.16,0.27,0.641,1.414,0.951,-14.33,-13.99,-13.23,-12.6,-12,-11.5,-11.28,-10.74,-10.54,-10.26,-10.16,-10.66,-10.37,-11.09,-10.95,-11.64,-11.76,-12.21,-12.35,-12.53,-13.03,-13.3,-14.05,-14.66,-14.51
"2011-02-28 06:00:00","$GPGGA,120057.99,4949.64651,N,09713.16982,W,1,8,0.94,231.1,M,-24.5,M,,*5D",2011,2,28,59,6,0,0,-22.28,12.87,-23.16,98.69142,"R1.15",1.15,1.431,189,1.369,-15.48,-8.7,-6.281,-5.096,-4.259,-3.173,-2.175,-1.12,-0.166,0.254,0.641,1.42,0.946,-14.43,-14.08,-13.28,-12.61,-11.98,-11.45,-11.24,-10.66,-10.44,-10.15,-10.03,-10.52,-10.24,-10.95,-10.81,-11.5,-11.63,-12.09,-12.22,-12.42,-12.93,-13.23,-13.98,-14.58,-14.44
"2011-02-28 05:30:00","$GPGGA,113057.99,4949.64678,N,09713.17024,W,1,8,0.92,234.1,M,-24.5,M,,*51",2011,2,28,59,5,30,0,-22.49,12.88,-22.33,98.66681,"R1.14",1.14,1.429,189,1.369,-15.63,-8.6800,-6.264,-5.096,-4.259,-3.178,-2.18,-1.126,-0.166,0.259,0.641,1.414,0.946,-14.53,-14.15,-13.35,-12.63,-11.96,-11.4,-11.16,-10.58,-10.33,-10.02,-9.8900,-10.36,-10.08,-10.78,-10.66,-11.33,-11.49,-11.94,-12.08,-12.3,-12.83,-13.13,-13.88,-14.48,-14.33
"2011-02-28 05:00:00","$GPGGA,110057.99,4949.64681,N,09713.17098,W,1,9,0.90,234.9,M,-24.5,M,,*58",2011,2,28,59,5,0,0,-22.76,12.89,-23.26,98.60906,"R1.15",1.15,1.433,190,1.371,-15.82,-8.66,-6.241,-5.091,-4.259,-3.184,-2.186,-1.131,-0.171,0.248,0.6620,1.436,0.951,-14.56,-14.15,-13.31,-12.56,-11.85,-11.29,-11.04,-10.46,-10.2,-9.8900,-9.75,-10.19,-9.92,-10.59,-10.48,-11.15,-11.3,-11.76,-11.9,-12.11,-12.64,-12.96,-13.7,-14.3,-14.16
"2011-02-28 04:30:00","$GPGGA,103057.99,4949.64675,N,09713.16953,W,1,9,0.89,232.9,M,-24.5,M,,*50",2011,2,28,59,4,30,0,-22.7,12.9,-22.28,98.55969,"R1.14",1.14,1.435,189,1.375,-15.82,-8.6000,-6.213,-5.085,-4.264,-3.195,-2.191,-1.131,-0.166,0.259,0.6620,1.436,0.9620,-14.49,-14.08,-13.21,-12.44,-11.72,-11.16,-10.92,-10.33,-10.07,-9.74,-9.61,-10.03,-9.74,-10.41,-10.29,-10.95,-11.1,-11.55,-11.7,-11.91,-12.46,-12.76,-13.5,-14.08,-13.95
"2011-02-28 04:00:00","$GPGGA,100057.00,4949.64668,N,09713.17101,W,1,10,0.83,228.1,M,-24.5,M,,*60",2011,2,28,59,4,0,0,-22.46,12.91,-23.89,98.52709,"R1.14",1.14,1.433,189,1.369,-15.71,-8.54,-6.196,-5.074,-4.275,-3.2,-2.202,-1.136,-0.171,0.259,0.657,1.436,0.951,-14.37,-13.94,-13.08,-12.3,-11.57,-11.02,-10.77,-10.19,-9.9300,-9.6000,-9.46,-9.86,-9.5600,-10.22,-10.1,-10.76,-10.9,-11.35,-11.49,-11.7,-12.25,-12.55,-13.28,-13.85,-13.73
"2011-02-28 03:30:00","$GPGGA,093057.00,4949.64638,N,09713.17035,W,1,9,0.88,228.5,M,-24.5,M,,*5F",2011,2,28,59,3,30,0,-22.1,12.92,-21.89,98.49548,"R1.14",1.14,1.433,189,1.374,-15.56,-8.47,-6.168,-5.074,-4.281,-3.211,-2.213,-1.136,-0.166,0.254,0.641,1.42,0.946,-14.23,-13.79,-12.93,-12.16,-11.43,-10.88,-10.64,-10.05,-9.78,-9.46,-9.3,-9.6800,-9.4,-10.03,-9.92,-10.55,-10.7,-11.14,-11.28,-11.49,-12.04,-12.33,-13.05,-13.6,-13.48
"2011-02-28 03:00:00","$GPGGA,090057.00,4949.64743,N,09713.17103,W,1,10,0.77,228.8,M,-24.5,M,,*60",2011,2,28,59,3,0,0,-21.8,12.93,-22.03,98.47735,"R1.11",1.11,1.43,189,1.371,-15.4,-8.4,-6.146,-5.074,-4.286,-3.217,-2.219,-1.142,-0.171,0.259,0.646,1.42,0.946,-14.05,-13.62,-12.77,-12.01,-11.28,-10.74,-10.48,-9.91,-9.6400,-9.3100,-9.15,-9.51,-9.21,-9.82,-9.7200,-10.33,-10.49,-10.92,-11.06,-11.26,-11.81,-12.1,-12.81,-13.35,-13.23
"2011-02-28 02:30:00","$GPGGA,083057.00,4949.64655,N,09713.16974,W,1,11,0.74,231.0,M,-24.5,M,,*6F",2011,2,28,59,2,30,0,-21.38,12.93,-22.53,98.44436,"R1.15",1.15,1.43,189,1.37,-15.18,-8.34,-6.128,-5.078,-4.302,-3.238,-2.229,-1.147,-0.171,0.254,0.636,1.426,0.9410,-13.85,-13.43,-12.59,-11.82,-11.11,-10.57,-10.34,-9.7700,-9.5,-9.17,-9.01,-9.34,-9.04,-9.63,-9.5200,-10.13,-10.27,-10.69,-10.82,-11.02,-11.56,-11.85,-12.54,-13.07,-12.96
"2011-02-28 02:00:00","$GPGGA,080057.99,4949.64656,N,09713.17014,W,1,8,1.17,228.7,M,-24.5,M,,*52",2011,2,28,59,2,0,0,-20.92,12.93,-20.73,98.41459,"R1.15",1.15,1.424,190,1.369,-15,-8.2700,-6.119,-5.081,-4.31,-3.257,-2.243,-1.155,-0.174,0.262,0.632,1.417,0.9480,-13.67,-13.23,-12.41,-11.65,-10.94,-10.42,-10.18,-9.63,-9.36,-9.04,-8.87,-9.1800,-8.88,-9.45,-9.34,-9.91,-10.06,-10.46,-10.59,-10.8,-11.31,-11.59,-12.27,-12.79,-12.67
"2011-02-28 01:30:00","$GPGGA,073057.99,4949.64733,N,09713.16906,W,1,10,0.92,228.5,M,-24.5,M,,*60",2011,2,28,59,1,30,0,-20.46,12.92,-21.12,98.37846,"R1.15",1.15,1.425,189,1.369,-14.79,-8.1900,-6.1,-5.084,-4.33,-3.272,-2.257,-1.164,-0.172,0.264,0.629,1.402,0.934,-13.45,-13.03,-12.21,-11.46,-10.77,-10.25,-10.01,-9.4800,-9.22,-8.91,"2011-02-28 01:00:00","$GPGGA,070057.99,4949.64685,N,09713.16996,W,1,9,0.96,225.9,M,-24.5,M,,*5B",2011,2,28,59,1,0,0,-20.11,13.04,-21.12,98.36201,"R1.14",1.14,1.426,190,1.37,-14.59,-8.11,-6.083,-5.095,-4.341,-3.283,-2.268,-1.164,-0.172,0.269,0.65,1.413,0.934,-13.21,-12.78,-11.99,-11.24,-10.58,-10.08,-9.84,-9.34,-9.08,-8.78,-8.6000,-8.87,-8.57,-9.08,-8.99,-9.51,-9.65,-10.01,-10.13,-10.32,-10.82,-11.09,-11.72,-12.18,-12.08
"2011-02-28 00:30:00","$GPGGA,063057.99,4949.64687,N,09713.16993,W,1,9,0.92,225.4,M,-24.5,M,,*57",2011,2,28,59,0,30,0,-19.41,1"2011-02-28 00:00:00","$GPGGA,060057.99,4949.64692,N,09713.16893,W,1,9,0.93,230.8,M,-24.5,M,,*58",2011,2,28,59,0,0,0,-18.59,13.08,-17.85,98.34555,"R1.14",1.14,1.422,190,1.375,-13.86,-7.944,-6.061,-5.106,-4.369,-3.316,-2.29,-1.175,-0.172,0.258,0.629,1.408,0.934,-12.61,-12.21,-11.51,-10.83,-10.23,-9.76,-9.55,-9.08,-8.8500,-8.5600,-8.38,-8.6000,-8.3,-8.7700,-8.67,-9.15,-9.2700,-9.61,-9.7200,-9.8900,-10.35,-10.59,-11.18,-11.6,-11.51
"2011-02-27 23:30:00","$GPGGA,053057.99,4949.64659,N,09713.16818,W,1,10,0.79,228.9,M,-24.5,M,,*68",2011,2,27,58,23,30,0,-18.15,13.09,-16.78,98.31264,"R1.14",1.14,1.414,189,1.37,-13.64,-7.877,-6.057,-5.12,-4.388,-3.329,-2.298,-1.183,-0."2011-02-27 23:00:00","$GPGGA,050057.99,4949.64676,N,09713.16885,W,1,12,0.72,230.4,M,-24.5,M,,*6F",2011,2,27,58,23,0,0,-17.64,13.1,-16.4,98.27966,"R1.14",1.14,1.413,189,1.37,-13.31,-7.8140,-6.063,-5.137,-4.41,-3.357,-2.321,-1.19,-0.181,0.254,0.625,1.392,0.924,-12.02,-11.65,-"2011-02-27 22:30:00","$GPGGA,043057.99,4949.64593,N,09713.16892,W,1,10,0.85,225.7,M,-24.5,M,,*6E",2011,2,27,58,22,30,0,-16.67,13.12,-16.65,98.27622,"R1.13",1.13,1.414,189,1.37,-12.66,-7.759,-6.065,-5.156,-4.435,-3.381,-2.328,-1.197,-0.184,0.236,0.633,1.401,0.9220,-11.61,-11.3,-10.71,-10.19,-9.7200,-9.3500,-9.1800,-8.7700,-8.59,-8.33,-8.13,-8.29,-7.9590,-8.4,-8.3100,-8.76,-8.87,-9.1900,-9.29,-9.4400,-9.8500,-10.07,-10.61,-11.03,- 22:00:00","$GPGGA,040057.99,4949.64597,N,09713.17016,W,1,10,0.94,228.9,M,-24.5"2011-02-27 21:30:00","$GPGGA,033057.99,4949.64592,N,09713.17118,W,1,9,1.01,227.3,M,-24.5,M,,*51",2011,2,27,58,21,30,0,-15.6,13.14,-15.09,98.24681,"R1.14",1.14,1.408,189,1.369,-12.07,-7.7360,-6.054,-5.183,-4.479,-3.425,-2.356,-1.208,-0.184,0.236,0.611,1.444,0.9920,-11.54,-11.3,-10.8,-10.3,-9.79,-9.3500,-9.1400,-8.6800,-8.45,-8.15,-7.873,-7.964,-7.668,-8.05,-7.982,-8.42,-8.57,-8.91,-9.03,-9.22,-9.7,-9.9800,-10.54,-10.93,-10.85
"2011-02-27 21:00:00","$GPGGA,030057.00,4949.64518,N,09713.16976,W,1,9,1.00,235.2,M,-24.5,M,,*52",2011,2,27,58,21,0,0,-16.65,13.15,-15.82,98.2139,"R1.14",1.14,"2011-02-27 20:30:00","$GPGGA,023057.00,4949.64697,N,09713.16885,W,1,10,0.90,234.8,M,-24.5,M,,*62",2011,2,27,58,20,30,0,-17.33,13.15,-17.53,98.16363,"R1.15",1.15,1.416,189,1.37,-13.39,-7.6850,-6.043,-5.228,-4.545,-3.469,-2.394,-1.225,-0.184,0.236,0.606,1.401,0.943,-12,-11.59,-10.87,-10.14,-9.4800,-9.0200,-8.79,-8.37,-8.15,-7.885,-7.6050,-7.623,-7.305,-7.6,-7.5200,-7.89,-8,-8.3100,-8.41,-8.5600,-9.03,-9.32,-9.83,-10.15,-10.09
"2011-02-27 20:00:00","$GPGGA,020057.00,4949.64733,N,09713.16884,W,1,10,0.90,232.9,M,-24.5,M,,*68",2011,2,27,58,20,0,0,-16.49,13.15,-17.87,98.14801,"R1.15",1.15,1.419,185,1.372,-13.07,-7.555,-6.043,-5.256,-4.568,-3.492,-2.405,-1.225,-0.184"2011-02-27 19:30:00","$GPGGA,013057.00,4949.64809,N,09713.16845,W,1,10,0.82,233.5,M,-24.5,M,,*6D",2011,2,27,58,19,30,0,-15.22,13.14,-18.62,98.09866,"R1.15",1.15,1.421,189,1.372,-12.55,-7.4280,-6.053,-5.299,-4.605,-3.524,-2.427,-1.236,-0.195,0.213,0.621,1.41,0.9860,-11.08,-10.7,-10.08,-9.45,-8.88,-8.51,-8.33,-8.01,-7.883,-7.6780,-7.411,-7.365,-7.043,-7"2011-02-27 19:00:00","$GPGGA,010057.00,4949.64833,N,09713.16980,W,1,10,1.16,235.5,M,-24.5,M,,*65",2011,2,27,58,19,0,0,-13.81,13.29,-15.84,98.08222,"R1.13",1.13,1.412,189,1.37,-11.97,-7.292,-6.053,-5.328,-4.639,-3.547,-2.433,-1.237,-0.186,0.223,0.604,1.442,0.9630,-10.5,-10.16,-9.62,-9.0600,-8.58,-8.2700,-8.12,-7.8610,-7.7750,-7.6040,-7.3490,-7.287,-6.96"2011-02-27 18:30:00","$GPGGA,003057.00,4949.64618,N,09713.16945,W,1,10,0.87,231.7,M,-24.5,M,,*66",2011,2,27,58,18,30,7220,-8.05,-8.24,-8.1900
"2011-02-27 18:00:00","$GPGGA,000057.00,4949.64561,N,09713.17003,W,1,7,1.31,237.3,M,-24.5,M,,*5A",2011,2,27,58,18,0,0,-9.57,13.31,-12.56,97.9507,"R1.14",1.14,1.401,188,1.368,-10.39,-7.057,-6.117,-5.431,-4.72,-3.6,-2.465,-1.253,-0.186,0.2,0.624,1.419,0.961,-9.12,-8.92,-8.61,-8.3,-8.04,-7.8620,-7.794,-7.6510,-7.6510,-7.561,-7.334,-7.2490,-6.9150,-7.017,-6.8870,-7.0400,-7.028,-7.1240,-7.1190,-7.1190,-7.3220,-7.43,-7.7310,-7.885,-7.8280
"2011-02-27 17:30:00","$GPGGA,233057.00,4949.64506,N,09713.17096,W,1,10,0.79,231.0,M,-2"2011-02-27 17:00:00","$GPGGA,230057.99,4949.64629,N,09713.16930,W,1,8,0.94,233.6,M,-24.5,M,,*5C",2011,2,27,58,17,0,0,-5.831,13.31,-11.07,97.9014,"R1.15",1.15,1.399,189,1.37,-8.6400,-6.8690,-6.211,-5.536,-4.797,-3.655,-2.498,-1.265,-0.154,0.232,0.629,1.439,0.966,-7.9800,-7.8890,-7.837,-7.786,-7.741,-7.6840,-7.6840,-7.5930,-7.6380,-7.5930,-7.366,-7.287,-6.97,-7.0270,-6.897,-6.9930,-6.959,-6.9990,-6.9480,-6.891,-7.004,-7.061,-7.3150,-7.411,-7.304
"2011-02-27 16:30:00","$GPGGA,223057.99,4949.64627,N,09713.17037,W,1,8,1.08,230.1,M,-24.5,M,,*5F",2011,2,27,58,16,30,0,-4.311,13.3,-10.83,97.8835,"R1.14",1.14,1.398,189,1.37,-7.9870,-6.847,-6.268,-5.587,-4.831,-3.678,-2"2011-02-27 16:00:00","$GPGGA,220057.99,4949.64485,N,09713.17025,W,1,10,0.96,231.4,M,-24.5,M,,*6E",2011,2,27,58,16,0,0,-3.407,13.28,-10.7,97.76967,"R1.11",1.11,1.397,188,1.369,-7.5970,-6.873,-6.356,-5.657,-4.879,-3.71,-2.52,-1.276,-0.161,0.258,0.622,1.405,0.97,-7.285,-7.2510,-7.37,-7.534,-7.659,-7.699,-7.7620,-7.693,-7.7620,-7.7050,-7.4610,-7.4150,-7.127,-7.1720,-7.0590,-7.127,-7.082,-7.104"2011-02-27 15:30:00","$GPGGA,213057.99,4949.64610,N,09713.16975,W,1,9,0.89,230.2,M,-24.5,M,,*5C",2011,2,27,58,15,30,0,-2.612,13.26,-11,97.75924,"R1.13",1.13,1.397,189,1.369,-7.2170,-6.918,-6.429,-5.713,-4.918,-3.732,-2.531,-1.282,-0.161,0.236,0.666,1.443,0.9320,-7.1440,-7.10"2011-02-27 15:00:00","$GPGGA,210057.00,4949.64528,N,09713.17062,W,1,9,0.86,232.7,M,-24.5,M,,*51",2011,2,27,58,15,0,0,-2.142,13.23,-11.14,97.65517,"R1.14",1.14,1.398,189,1.369,-7.0140,-7.003,-6.519,-5.769,-4.946,-3.748,-2.542,-1.287,-0."2011-02-27 14:30:00","$GPGGA,203057.00,4949.64674,N,09713.17122,W,1,9,1.16,236.2,M,-24.5,M,,*55",2011,2,27,58,14,30,0,-1.864,13.19,-11.48,97.58948,"R1.13",1.13,1.399,189,1.369,-6.9010,-7.121,-6.608,-5.836,-4.99,-3.77,-2.558,-1.292,-0.144,0.231,0.622,1.416,0.965,-7.1720,-7.1380,-7.398,-7.7620,-8.04,-8.15,-8.2300,-8.13,-8.15,-8.05,-7.818,-7.8750,-7.614,-7.693,-7.574,-7.654,-7.602,-7.614,-7.489,-7.37,-7.359,-7.364,-7.602,-7.6650,-7.4550
"2011-02-27 14:00:00","$GPGGA,206,-5.018,-3.792,-2.564,-1.292,-0.144,0.231,0.606,1.416,0.9540,-7.3300,-7.3080,"2011-02-27 13:30:00","$GPGGA,193057.00,4949.64746,N,09713.16983,W,1,9,0.99,234.6,M,-24.5,M,,*5D",2011,2,27,58,13,30,0,-1.95,13.07,-12.36,97.49286,"R1.14",1.14,1.401,185,1.369,-7.0990,-7.438,-6.811,-5.947,-5.057,-3.809,-2.575,-1.298,-0.166,0.231,0.595,1.394,0.9540,-7.602,-7.5800,-7.864,-8.29,-8.61,-8.7,-8.7700,-8.61,-8.54,-8.38,-8.16,-8.36,-8.09,-8.2300,-8.11,-8.2300,-8.2,-8.2300,-8.1000,-8,-7.989,-7.995,-8.26,-8.33,-8.09
"2011-02-27 13:00:00","$GPGGA,190057.99,4949.64789,N,09713.16906,W,1,10,0.95,233.0,M,-24.5,M,,*65",2011,2,27,58,13,0,0,-2.205,13.17,-12.65,97.47491,"R1.15",1.15,1.4"2011-02-27 12:30:00","$GPGGA,183057.99,4949.64737,N,09713.17102,W,1,10,0.95,234.8,M,-24.5,M,,*60",2011,2,27,58,12,30,0,-2.892,13.15,-12.49,97.4413,"R1.15",1.15,1.401,188,1.369,-7.758,-7.844,-7.005,-6.05,-5.114,-3.837,-2.597,-1.298,-0.155,0.253,0.65,1.433,0.9540,-8.4400,-8.41,-8.6900,-9.12,-9.42,-9.4300,-9.4400,-9.15,-8.9800,-8.7300,-8.53,-8.83,-8.59,-8.8100,-8.7,-8.87,-8.87,-8.9400,-8.83,-8.75,-8.78,-8.8100,-9.13,-9.2700,-9
"2011-02-27 12:00:00","$GPGGA,180057.99,4949.64713,N,09713.16993,W,1,10,0.85,233.5,M,-24.5,M,,*6F",2011,2,27,58,12,0,0,-3.794,13.13,-12.73,97.39201,"R1.14",1.14,1.402,189,1.369,-8.3,-8.07,-7.094,-6.099,-5.141,-3.864,-2.607,-1.303,-0.149,0."2011-02-27 11:30:00","$GPGGA,173057.00,4949.64654,N,09713.16987,W,1,10,0.83,234.2,M,-24.5,M,,*62",2011,2,27,58,11,30,0,-4.765,13.1,-12.87,97.29341,"R1.15",1.15,1.403,185,1.37,-8.9400,-8.3,-7.181,-6.152,-5.176,-3.888,-2.614,-1.31,-0.156,0.247,0.617,1.422,0.9210,-9.6400,-9.59"2011-02-27 11:00:00","$GPGGA,170057.00,4949.64629,N,09713.17098,W,1,10,0.94,235.5,M,-24.5,M,,*6D",2011,2,27,58,11,0,0,-6.182,13.07,-13.29,97.22769,"R1.12",1.12,1.403,189,1.368,-9.7200,-8.53,-7.266,-6.196,-5.203,-3.903,-2.629,-1.313,-0.164,0.238,0.602,1.397,0.923,-10.23,-10.11,-10.26,-10.6,-10.79,-10.64,-10.5,-9.9800,-9.59,-9.1400,-8.8900,-9.3500,-9.1000,-9.51,-9.4700,-9.74,-9.78,-9.9300,-9.9,-9.9400,-10.11,-10.26,-10.63,-10.82,-"2011-02-27 10:30:00","$GPGGA,163057.00,4949.64728,N,09713.17101,W,1,10,1.03,23‚rÂÊbjŠŠr’bjŠ‚rÊªj
"2011-02-27 10:00:00","$GPGGA,160057.99,4949.64659,N,09713.17128,W,1,10,0.80,232.6,M,-24.5,M,,*60",2011,2,27,58,10,0,0,-10.56,13.03,-14.91,97.07914,"R1.15",1.15,1.409,189,1.37,-11.48,-8.9300,-7.405,-6.283,-5.261,-3.932,-2.646,-1.313,-0.163,0.223,0.62,1.399,0.9250,-11.81,-11.62,-11.48,-11.6,-11.57,-11.22,-10.98,-10.35,-9.87,-9.3,-8.92,-9.15,-8.99,-9.51,-9.4300,-9.82,-9.8900,-10.11,-10.09,-10.14,-10.41,-10.54,-11.07,-11.45,-11.26
"2011-02-27 09:30:00","$GPGGA,153057.99,4949.64648,N,09713.17010,W,1,10,0.76,235.3,M,-24.5,M,,*61",2011,2,27,58,9,30,0,-13.08,13.01,-15.84"2011-02-27 09:00:00","$GPGGA,150057.00,4949.64704,N,09713.17056,W,1,10,0.75,233.6,M,-24.5,M,,*69",2011,2,27,58,9,0,0,-15.29,12.99,-16.89,97.01267,"R1.15",1.15,1.414,189,1.37,-13,-9.25,-7.543,-6.385,-5.317,-3.971,-2.662,-1.323,-0.162,0.236,0.617,1.423,0.96,-12.92,-12.88,-12.61,-12.41,-12.09,-11.59,-11.27,-10.61,-10.08,-9.45,-9,-9.25,-9.13,-9.63,-9.54,-9.9300,-10.01,-10.23,-10.23,-10.3,-10.61,-10.78,-11.27,-11.62,-11.52
"2011-02-27 08:30:00","$GPGGA,143057.99,4949.64654,N,09713.16927,W,1,10,0.78,231.8,M,-24.5,M,,*60",2011,2,27,58,8,30,0,-16.39,12.97,-17.77,96.96186,"R1.09",1.09,1.416,189,1.369,-13.34,-9.37,-7.623,-6.435,-5.35,-3.982,-2.679,-1.323,-0.162,0.252,0"2011-02-27 08:00:00","$GPGGA,140057.99,4949.64647,N,09713.16948,W,1,9,1.06,230.0,M,-24.5,M,,*51",2011,2,27,58,8,0,0,-16.65,12.95,-17.97,96.87994,"R1.14",1.14,1.416,189,1.369,-13.42,-9.4700,-7.6970,-6.48,-5.373,-4.004,-2.684,-1.328,-0.167,0.236,0.606,1.423,0.9710,-13,-13.05,-12.76,-12.48,-12.12,-11.64,-11.37,-10."2011-02-27 07:30:00","$GPGGA,133057.99,4949.64594,N,09713.17001,W,1,10,1.11,224.4,M,-24.5,M,,*62",2011,2,27,58,7.0000,30,0,-16.36,12.91,-17.68,96.8644,"R1.15",1.15,1.414,190,1.367,-13.4,-9.58,-7.7760,-6.525,-5.4,-4.015,-2.684,-1.328,-0.162,0.241,0.606,1.423,0.9540,-12.78,-12.9,-12.69,-12.45,-12.17,-11.76,-11.52,-10.91,-10.37,-9.7,-9.28,-9.7,-9.54,-9.94--------------------------------------------
END TRANSMIT

