
RING

RING

CONNECT 4800
--------------------------------------------
CEOS_IMBB06
----------------IMB_data--------------------
"2011-02-28 19:00:00","$GPGGA,010057.99,4949.64833,N,09713.16936,W,1,8,1.37,237.4,M,-24.5,M,,*51",2011,2,28,59,19,0,0,-6.532,13.39,-7.3080,98.0493,"R1.15",1.15,1.389,169,1.37,-7.595,-5.632,-4.987,-4.489,-3.97,-3.025,-2.09,-1.097,-0.177,0.252,0.633,1.422,0.9860,-6.978,-6.8880,-6.916,-6.753,-6.64,-6.505,-6.337,-6.146,-6.023,-5.962,-5.99,-6.281,-6.096,-6.113,-6.034,-6.051,-5.99,-6.006,-5.956,-5.934,-6.006,-6.034,-6.04,-6.012,-6.085
"2011-02-28 18:30:00","$GPGGA,003057.99,4949.64759,N,09713.17010,W,1,10,0.85,236.6,M,-24.5,M,,*6E",2011,2,28,59,18,30,0,-6.05,13.38,-7.1190,98.08215,"R1.10",1.1,1.389,168,1.371,-7.476,-5.566,-5.021,-4.528,-3.999,-3.042,-2.096,-1.098,-0.178,0.246,0.659,1.443,1.002,-6.798,-6.686,-6.686,-6.506,-6.349,-6.236,-6.102,-5.979,-5.929,-5.962,-5.99,-6.225,-6.057,-6.08,-5.996,-5.99,-5.934,-5.923,-5.856,-5.8,-5.856,-5.878,-5.878,-5.817,-5.873
"2011-02-28 18:00:00","$GPGGA,000057.99,4949.64620,N,09713.17076,W,1,8,0.98,230.8,M,-24.5,M,,*5F",2011,2,28,59,18,0,0,-5.373,13.38,-7.0260,98.13967,"R1.15",1.15,1.388,169,1.37,-7.208,-5.48,-5.058,-4.581,-4.029,-3.051,-2.099,-1.101,-0.171,0.27,0.65,1.417,0.993,-6.419,-6.296,-6.307,-6.116,-5.949,-5.904,-5.837,-5.82,-5.876,-6.004,-6.016,-6.206,-6.06,-6.083,-5.993,-5.971,-5.904,-5.87,-5.77,-5.681,-5.703,-5.708,-5.703,-5.636,-5.653
"2011-02-28 17:30:00","$GPGGA,233057.00,4949.64567,N,09713.17107,W,1,9,0.98,234.7,M,-24.5,M,,*50",2011,2,28,59,17,30,0,-4.333,13.38,-6.748,98.20046,"R1.14",1.14,1.387,169,1.37,-6.605,-5.398,-5.115,-4.633,-4.064,-3.07,-2.118,-1.109,-0.179,0.24,0.599,1.42,0.957,-5.877,-5.755,-5.821,-5.676,-5.604,-5.604,-5.66,-5.755,-5.888,-6.095,-6.112,-6.246,-6.123,-6.146,-6.045,-6.011,-5.944,-5.888,-5.738,-5.621,-5.604,-5.576,-5.598,-5.554,-5.532
"2011-02-28 17:00:00","$GPGGA,230057.00,4949.64504,N,09713.16887,W,1,10,0.88,228.6,M,-24.5,M,,*63",2011,2,28,59,17,0,0,-3.021,13.37,-5.927,98.18953,"R1.11",1.11,1.386,169,1.371,-5.602,-5.312,-5.184,-4.686,-4.089,-3.084,-2.121,-1.102,-0.177,0.274,0.655,1.448,1.019,-5.312,-5.157,-5.268,-5.246,-5.334,-5.401,-5.557,-5.758,-5.986,-6.283,-6.305,-6.395,-6.277,-6.283,-6.165,-6.115,-6.054,-5.992,-5.825,-5.68,-5.646,-5.568,-5.602,-5.602,-5.535
"2011-02-28 16:30:00","$GPGGA,223057.00,4949.64549,N,09713.16964,W,1,9,0.99,230.2,M,-24.5,M,,*51",2011,2,28,59,16,30,0,-2.228,13.35,-5.343,98.24634,"R1.14",1.14,1.384,173,1.37,-4.83,-5.346,-5.262,-4.736,-4.122,-3.095,-2.121,-1.102,-0.177,0.231,0.617,1.427,1.008,-5.046,-4.957,-5.029,-5.123,-5.296,-5.407,-5.646,-5.936,-6.233,-6.608,-6.631,-6.721,-6.569,-6.564,-6.423,-6.362,-6.294,-6.216,-6.026,-5.869,-5.808,-5.719,-5.769,-5.763,-5.668
"2011-02-28 16:00:00","$GPGGA,220057.00,4949.64604,N,09713.17052,W,1,10,0.95,233.5,M,-24.5,M,,*65",2011,2,28,59,16,0,0,-1.48,13.33,-5.248,98.26276,"R1.15",1.15,1.383,174,1.37,-4.604,-5.402,-5.346,-4.792,-4.151,-3.107,-2.122,-1.103,-0.178,0.235,0.594,1.404,0.98,-4.908,-4.858,-4.986,-5.158,-5.419,-5.58,-5.892,-6.228,-6.587,-6.9810,-7.015,-7.128,-6.924,-6.924,-6.755,-6.71,-6.609,-6.531,-6.306,-6.127,-6.038,-5.931,-5.982,-6.004,-5.881
"2011-02-28 15:30:00","$GPGGA,213057.00,4949.64582,N,09713.17095,W,1,10,0.87,235.5,M,-24.5,M,,*66",2011,2,28,59,15,30,0,-0.416,13.3,-4.965,98.36129,"R1.10",1.1,1.383,169,1.37,-4.233,-5.495,-5.445,-4.84,-4.172,-3.122,-2.127,-1.102,-0.178,0.225,0.627,1.442,0.9850,-4.763,-4.752,-4.929,-5.229,-5.584,-5.785,-6.143,-6.524,-6.923,-7.3410,-7.4150,-7.562,-7.313,-7.307,-7.1040,-7.075,-6.962,-6.872,-6.625,-6.423,-6.322,-6.187,-6.266,-6.305,-6.148
"2011-02-28 15:00:00","$GPGGA,210057.99,4949.64579,N,09713.17025,W,1,11,0.73,237.7,M,-24.5,M,,*60",2011,2,28,59,15,0,0,0.522,13.26,-4.489,98.34486,"R1.11",1.11,1.382,169,1.371,-3.687,-5.612,-5.545,-4.895,-4.194,-3.128,-2.127,-1.102,-0.178,0.246,0.626,1.436,0.9850,-4.757,-4.785,-5.084,-5.567,-6.03,-6.299,-6.686,-7.0580,-7.476,-7.839,-7.925,-8.12,-7.805,-7.817,-7.589,-7.5780,-7.419,-7.34,-7.0800,-6.8550,-6.708,-6.551,-6.675,-6.7310,-6.551
"2011-02-28 14:30:00","$GPGGA,203057.99,4949.64725,N,09713.17341,W,1,8,1.64,241.1,M,-24.5,M,,*50",2011,2,28,59,14,30,0,1.267,13.21,-4.534,98.32845,"R1.13",1.13,1.38,181,1.368,-3.27,-5.79,-5.65,-4.945,-4.21,-3.127,-2.132,-1.102,-0.178,0.225,0.648,1.447,0.8980,-4.923,-4.967,-5.411,-6.019,-6.539,-6.8090,-7.1980,-7.521,-7.93,-8.2300,-8.3100,-8.5200,-8.1800,-8.2,-7.964,-7.964,-7.8160,-7.748,-7.47,-7.2490,-7.0910,-6.9330,-7.097,-7.2040,-6.9610
"2011-02-28 14:00:00","$GPGGA,200057.00,4949.64644,N,09713.17052,W,1,11,0.82,233.9,M,-24.5,M,,*68",2011,2,28,59,14,0,0,0.501,13.14,-5.549,98.41054,"R0.95",0.9500,1.383,189,1.369,-3.974,-6.053,-5.757,-4.984,-4.227,-3.144,-2.127,-1.102,-0.177,0.247,0.638,1.421,0.9480,-5.506,-5.54,-5.964,-6.552,-7.041,-7.2900,-7.653,-7.9260,-8.3,-8.58,-8.6800,-8.99,-8.65,-8.72,-8.47,-8.51,-8.3500,-8.2700,-8.0200,-7.778,-7.6190,-7.437,-7.6640,-7.812,-7.5390
"2011-02-28 13:30:00","$GPGGA,193057.00,4949.64733,N,09713.17064,W,1,9,0.99,237.5,M,-24.5,M,,*5E",2011,2,28,59,13,30,0,-0.138,13.06,-7.0590,98.47623,"R1.15",1.15,1.387,190,1.369,-4.652,-6.315,-5.851,-5.028,-4.232,-3.143,-2.126,-1.101,-0.171,0.258,0.638,1.443,0.975,-6.075,-6.142,-6.54,-7.0920,-7.561,-7.7890,-8.11,-8.33,-8.6800,-8.91,-9.04,-9.42,-9.0600,-9.1900,-8.96,-9.04,-8.8900,-8.8500,-8.59,-8.38,-8.22,-8.08,-8.34,-8.5,-8.22
"2011-02-28 13:00:00","$GPGGA,190057.00,4949.64741,N,09713.16914,W,1,10,0.96,233.2,M,-24.5,M,,*63",2011,2,28,59,13,0,0,-0.35,13.15,-7.097,98.54192,"R1.14",1.14,1.388,189,1.37,-5.246,-6.58,-5.947,-5.057,-4.244,-3.139,-2.127,-1.102,-0.172,0.252,0.644,1.427,0.975,-6.603,-6.682,-7.036,-7.5800,-8.03,-8.2300,-8.54,-8.7,-9,-9.2,-9.32,-9.79,-9.4300,-9.61,-9.38,-9.51,-9.38,-9.37,-9.1400,-8.9300,-8.79,-8.6400,-8.9800,-9.2,-8.88
"2011-02-28 12:30:00","$GPGGA,183057.99,4949.64779,N,09713.17017,W,1,11,0.81,234.6,M,-24.5,M,,*65",2011,2,28,59,12,30,0,-1.01,13.1,-9.05,98.60823,"R1.06",1.06,1.393,189,1.37,-6.003,-6.8620,-6.037,-5.085,-4.255,-3.139,-2.127,-1.102,-0.172,0.274,0.638,1.438,0.975,-7.24,-7.3300,-7.608,-8.13,-8.5600,-8.71,-9,-9.08,-9.34,-9.4700,-9.6000,-10.15,-9.78,-10.01,-9.8100,-9.99,-9.9,-9.9300,-9.71,-9.54,-9.4400,-9.36,-9.74,-9.99,-9.65
"2011-02-28 12:00:00","$GPGGA,180057.99,4949.64648,N,09713.17123,W,1,9,1.16,233.3,M,-24.5,M,,*57",2011,2,28,59,12,0,0,-1.95,13.06,-9.22,98.70208,"R1.14",1.14,1.394,189,1.37,-6.725,-7.143,-6.114,-5.105,-4.258,-3.148,-2.13,-1.105,-0.169,0.25,0.63,1.446,0.9730,-7.971,-8.03,-8.29,-8.78,-9.15,-9.25,-9.4800,-9.4800,-9.6900,-9.75,-9.87,-10.45,-10.1,-10.4,-10.21,-10.45,-10.39,-10.47,-10.28,-10.16,-10.11,-10.05,-10.52,-10.82,-10.49
"2011-02-28 11:30:00","$GPGGA,173057.00,4949.64627,N,09713.16996,W,1,12,0.72,235.5,M,-24.5,M,,*6C",2011,2,28,59,11,30,0,-4.051,13.02,-9.5,98.7477,"R1.15",1.15,1.397,188,1.372,-7.839,-7.4470,-6.185,-5.12,-4.256,-3.145,-2.127,-1.102,-0.171,0.269,0.617,1.428,0.993,-8.9400,-8.9400,-9.1000,-9.4700,-9.75,-9.76,-9.9400,-9.84,-9.99,-9.99,-10.08,-10.71,-10.37,-10.76,-10.58,-10.88,-10.86,-10.99,-10.85,-10.76,-10.8,-10.78,-11.31,-11.67,-11.33
"2011-02-28 11:00:00","$GPGGA,170057.00,4949.64695,N,09713.17063,W,1,11,0.75,235.4,M,-24.5,M,,*61",2011,2,28,59,11,0,0,-6.335,12.98,-11.49,98.74038,"R1.13",1.13,1.399,189,1.369,-9.21,-7.7420,-6.246,-5.136,-4.261,-3.139,-2.132,-1.101,-0.181,0.238,0.646,1.429,0.9780,-9.9300,-9.9,-9.91,-10.14,-10.31,-10.23,-10.36,-10.17,-10.24,-10.19,-10.25,-10.91,-10.58,-11.05,-10.89,-11.23,-11.25,-11.44,-11.33,-11.32,-11.43,-11.48,-12.05,-12.46,-12.13
"2011-02-28 10:30:00","$GPGGA,163057.00,4949.64707,N,09713.17011,W,1,9,1.09,234.9,M,-24.5,M,,*53",2011,2,28,59,10,30,0,-8.76,12.94,-12.25,98.79866,"R1.14",1.14,1.403,189,1.371,-10.49,-8,-6.287,-5.137,-4.262,-3.15,-2.132,-1.106,-0.174,0.255,0.631,1.425,0.9300,-10.87,-10.77,-10.65,-10.75,-10.78,-10.63,-10.7,-10.42,-10.43,-10.32,-10.37,-11.06,-10.72,-11.27,-11.12,-11.52,-11.56,-11.8,-11.73,-11.79,-11.97,-12.06,-12.67,-13.14,-12.82
"2011-02-28 10:00:00","$GPGGA,160057.99,4949.64853,N,09713.16946,W,1,9,0.89,238.0,M,-24.5,M,,*58",2011,2,28,59,10,0,0,-11.37,12.91,-13.4,98.77295,"R1.13",1.13,1.407,189,1.372,-11.72,-8.22,-6.316,-5.138,-4.257,-3.145,-2.137,-1.1,-0.174,0.245,0.643,1.427,0.9690,-11.74,-11.59,-11.33,-11.29,-11.19,-10.95,-10.96,-10.62,-10.6,-10.43,-10.44,-11.06,-10.75,-11.36,-11.2,-11.7,-11.77,-12.05,-12.03,-12.1,-12.35,-12.47,-13.14,-13.7,-13.41
"2011-02-28 09:30:00","$GPGGA,153057.99,4949.64696,N,09713.17029,W,1,9,0.87,230.7,M,-24.5,M,,*5F",2011,2,28,59,9,30,0,-14.35,12.87,-15.09,98.80634,"R1.14",1.14,1.411,189,1.371,-12.62,-8.3900,-6.329,-5.139,-4.258,-3.15,-2.137,-1.105,-0.167,0.236,0.622,1.379,0.9540,-12.49,-12.29,-11.91,-11.72,-11.5,-11.21,-11.16,-10.78,-10.71,-10.5,-10.49,-11.07,-10.8,-11.43,-11.28,-11.87,-11.94,-12.27,-12.31,-12.4,-12.69,-12.81,-13.54,-14.15,-13.9
"2011-02-28 09:00:00","$GPGGA,150057.00,4949.64695,N,09713.16911,W,1,9,0.86,233.4,M,-24.5,M,,*5D",2011,2,28,59,9,0,0,-17.17,12.85,-16.58,98.80634,"R1.14",1.14,1.416,189,1.372,-13.41,-8.51,-6.336,-5.134,-4.258,-3.14,-2.142,-1.099,-0.167,0.231,0.623,1.391,0.961,-13.16,-12.92,-12.45,-12.11,-11.77,-11.39,-11.29,-10.86,-10.75,-10.53,-10.51,-11.08,-10.79,-11.47,-11.3,-11.93,-12.02,-12.4,-12.45,-12.57,-12.94,-13.11,-13.83,-14.46,-14.25
"2011-02-28 08:30:00","$GPGGA,143057.00,4949.64664,N,09713.17059,W,1,9,0.80,230.4,M,-24.5,M,,*50",2011,2,28,59,8,30,0,-19.66,12.81,-18.82,98.82578,"R1.11",1.11,1.419,190,1.369,-14.69,-8.6400,-6.342,-5.134,-4.258,-3.156,-2.142,-1.104,-0.161,0.253,0.635,1.419,0.9620,-13.84,-13.53,-12.89,-12.4,-11.91,-11.49,-11.35,-10.88,-10.76,-10.53,-10.48,-11.04,-10.75,-11.44,-11.27,-11.94,-12.02,-12.42,-12.5,-12.63,-13.05,-13.24,-13.98,-14.61,-14.41
"2011-02-28 08:00:00","$GPGGA,140057.00,4949.64579,N,09713.16924,W,1,8,1.14,230.7,M,-24.5,M,,*50",2011,2,28,59,8,0,0,-21.18,12.78,-21.4,98.79012,"R1.13",1.13,1.427,189,1.37,-15.09,-8.6800,-6.331,-5.124,-4.253,-3.151,-2.147,-1.109,-0.149,0.259,0.619,1.469,0.9730,-14.11,-13.78,-13.06,-12.49,-11.96,-11.52,-11.36,-10.88,-"2011-02-28 07:30:00","$GPGGA,133057.99,4949.64742,N,09713.16997,W,1,9,1.11,227.1,M,-24.5,M,,*52",2011,2,28,59,7.0000,30,0,-21.68,12.74,-21.74,98.7819,"R1.13",1.13,1.427,189,1.369,-15.25,-8.7,-6.32,-5.118,-4.253,-3.151,-2.153,-1.109,-0.16,0.259,0.641,1.436,0.9680,-14.2,-13.88,-13.15,-12.54,-12,-11.52,-11.36,-10.85,-10.68,-10.4,-10.35,-10.9,-10.62,-11.31,-11.19,-11.82,-11.97,-12.39,-12.49,-12.67,-13.13,-13.38,-14.1,-14.68,-14.53
"2011-02-28 07:00:00","$GPGGA,130057.99,4949.64684,N,09713.17077,W,1,9,1.12,228.6,M,-24.5,M,,*57",2011,2,28,59,7.0000,0,0,-21.95,12.87,-22.96,98.73397,"R1.14",1.14,1.432,189,1.37,-15.2,-8.7,-6.309,-5.113,-4.253,-3.156,-2.158,-1.115,-0.1"2011-02-28 06:30:00","$GPGGA,123057.99,4949.64626,N,09713.16944,W,1,10,0.91,229.1,M,-24.5,M,,*61",2011,2,28,59,6,30,0,-22.04,12.87,-23.3,98.69335,"R1.13",1.13,1.431,189,1.369,-15.32,-8.7,-6.292,-5.107,-4.259,-3.162,-2.169,-1.12,-0.16,0.27,0.641,1.414,0.951,-14.33,-13.99,-13.23,-12.6,-12,-11.5,-11.28,-10.74,-10.54,-10.26,-10.16,-10.66,-10.37,-11.09,-10"2011-02-28 06:00:00","$GPGGA,120057.99,4949.64651,N,09713.16982,W,1,8,0.94,231.1,M,-24.5,M,,*5D",2011,2,28,59,6,0,0,-22.28,12.87,-23.16,98.69142,"R1.15",1.15,1.431,189,1.369,-15.48,-8.7,-6.281,-5.096,-4.259,-3.173,-2.175,-1.12,-0.166,0.254,0.641,1.42,0.946,-14.43,-14.08,-13.28,-12.61,-11.98,-11.45,-11.24,-10.66,-"2011-02-28 05:30:00","$GPGGA,113057.99,4949.64678,N,09713.17024,W,1,8,0.92,234.1,M,-24.5,M,,*51",2011,2,28,59,5,30,0,-22.49,12.88,-22.33,98.66681,"R1.14",1.14,1.429,189,1.369,-15.63,-8.6800,-6.26"2011-02-28 05:00:00","$GPGGA,110057.99,4949.64681,N,09713.17098,W,1,9,0.90,234.9,M,-24.5,M,,*58",2011,2,28,59,5,0,0,-22.76,12.89,-23.26,98.60906,"R1.15",1.15,1.433,190,1.371,-15.82,-8.66,-6.241,-5.091,-4.259,-3.184,-2.186,-1.131,-0.171,0.248,0.6620,1.436,0.951,-14.56,-14.15,-13.31,-12.56,-11.85,-11.29,-11.04,-10.46,-10.2,-9.8900,-9.75,-10.19,-9.92,-10.59,-10.48,-11.15,-11.3,-11.76,-11.9,-12.11,-12.64,-12.96,-13.7,-14.3,-14.16
"2011-02-28 04:30:00","$GPGGA,103057.99,4949.64675,N,09713.16953,W,1,9,0.89,232.©ªbjŠŠrºbjŠŠrÊŠbjŠ’r¢²bjŠ’rº²bjŠšrªbjŠ¢r‚ÂbjŠšrÊªj
"2011-02-28 04:00:00","$GPGGA,100057.00,4949.64668,N,09713.17101,W,1,10,0.83,228.1,M,-24.5,M,,*60",2011,2,28,59,4,0,0,-22.46,12.91,-23.89,98.52709,"R1.14",1.14,1.433,189,1.369,-15.71,-8.54,-6.196,-5.074,-4.275,-3.2,-2.202,-1.136,-0.171,0.259,0.657,1.436,0.951,-14.37,-13.94,-13.08,-12.3,-11.57,-11.02,-10.77,-10.19,-9.9300,-9.6000,-9.46,-9.86,-9.5600,-10.22,-10.1,-10.76,-10.9,-11.35,-11.49,-11.7,-12.25,-12.55,-13.28,-13.85,-13.73
"2011-02-28 03:30:00","$GPGGA,093057.00,4949.64638,N,09713.17035,W,1,9,0.88,228.5,M,-24.5,M,,*5F",2011,2,28,59,3,30,0,-22.1,12.92,-21.89,98.49548,"R1.14",1.14,1.433,189,1.374,-15.56,-8."2011-02-28 03:00:00","$GPGGA,090057.00,4949.64743,N,09713.17103,W,1,10,0.77,228.8,M,-24.5,M,,*60",2011,2,28,59,3,0,0,-21.8,12.93,-22.03,98.47735,"R1.11",1.11,1.43,189,1.371,-15.4,-8.4,-6.146,-5.074,-4.286,-3.217,-2.219,-1.142,-0.171,0.259,0.646,1.42,0.946,-14.05,-13.62,-12.77,-12.01,-11.28,-10.74,-10.48,-9.91,-9.6400,-9.3100,-9.15,-9.51,-9.21,-9.82,-9"2011-02-28 02:30:00","$GPGGA,083057.00,4949.64655,N,09713.16974,W,1,11,0.74,231.0,M,-24.5,M,,*6F",2011,2,28,59,2,30,0,-21.38,12.93,-22.53,98.44436,"R1.15",1.15,1.43,189,1.37,-15.18,-8.34,-6.128,-5.078,-4.302,-3.238,-2.229,-1.147,-0.171,0.254,0.636,1.426,0.9410,-13.85,-13.43,-12.59,-11.82,-11.11,-10.57,-10.34,-9.7"2011-02-28 02:00:00","$GPGGA,080057.99,4949.64656,N,09713.17014,W,1,8,1.17,228.7,M,-24.5,M,,*52",2011,2,28,59,2,0,0,-20.92,12.93,-20.73,98.41459,"R1.15",1.15,1.424,190,1.369,-15,-8.2700,-6.119,-5."2011-02-28 01:30:00","$GPGGA,073057.99,4949.64733,N,09713.16906,W,1,10,0.92,228.5,M,-24.5,M,,*60",2011,2,28,59,1,30,0,-20.46,12.92,-21.12,98.37846,"R1.15",1.15,1.425,189,1.369,-14.79,-8.1900,-6.1,-5.084,-4.33,-3.272,-2.257,-1.164,-0.172,0.264,0.629,1.402,0.934,-13.45,-13.03,-12.21,-11.46,-10.77,-10.25,-10.01,-9.4800,-9.22,-8.91,-8.7300,-9.01,-8.72,-9.26,-9.16,-9.71,-9.8500,-10.24,-10.37,-10.56,-11.06,-11.35,-12,-12.48,-12.38
"2011-02-28 01:00:00","$GPGGA,070057.99,4949.64685,N,09713.16996,W,1,9,0.96,225.9-11.72,-12.18,-12.08
"2011-02-28 00:30:00","$GPGGA,063057.99,4949.64687,N,09713.16993,W,1,9,0.92,225.4,M,-24.5,M,,*57",2011,2,28,59,0,30,0,-19.41,13.06,-20.68,98.3291,"R1.09",1.09,1.426,189,1.371,-14.24,-8.0200,-6.072,-5.106,-4.358,-3.299,-2.273,-1.175,-0.172,0.258,0.601,1.402,0.9390,-12.9,-12.5,-11.72,-11.03,-10.38,-9.9,-9.6900,-9.2,-8.96,-8.67,-8.4800,-8.7300,-8.4300,-8.91,-8.82,-9.3100,-9.45,-9.8,-9.92,-10.1,-10.57,-10.83,-11.44,-11.88,-11.78
"2011-02-28 00:00:00","$GPGGA,060057.99,4949.64692,N,09713.16893,W,1,9,0.93,230.8,M,-24.5,M,,*58",2011,2,28,59,0,0,0,-18.59,13.08,-17.85,98.34555,"R1.14",1.14,1.422,190,1.375,-13.86,-7.944,-6.061,-5.106,-4.369,-3.316,-2.29,-1.175,-0.172,0.258,0.629,1.408,0.934,-12.61,-12.21,-11.51,-10.83,-10.23,-9.76,-9.55,-9.08,-8.8500,-8.5600,-8.38"2011-02-27 23:30:00","$GPGGA,053057.99,4949.64659,N,09713.16818,W,1,10,0.79,228.9,M,-24.5,M,,*68",2011,2,27,58,23,30,0,-18.15,13.09,-16.78,98.31264,"R1.14",1.14,1.414,189,1.37,-13.64,-7.877,-6.057,-5.12,-4.388,-3.329,-2.298,-1.183,-0.174,0.256,0.626,1.405,0.9310,-12.33,-11.9"2011-02-27 23:00:00","$GPGGA,050057.99,4949.64676,N,09713.16885,W,1,12,0.72,230.4,M,-24.5,M,,*6F",2011,2,27,58,23,0,0,-17.64,13.1,-16.4,98.27966,"R1.14",1.14,1.413,189,1.37,-13.31,-7.8140,-6.063,-5.137,-4.41,-3.357,-2.321,-1.19,-0.181,0.254,0.625,1.392,0.924,-12.02,-11.65,-11,-10.4,-9.86,-9.46,-9.2700,-8.8500,-8.66,-8.3900,-8.2,-8.4,-8.09,-8.51,-8.4300,-8.88,-9,-9.32,-9.41,-9.55,-9.9700,-10.21,-10.75,-11.14,-11.05
"2011-02-27 22:30:00","$GPGGA,043057.99,4949.64593,N,09713.16892,W,1,10,0.85,225.7,M,-24.5,"2011-02-27 22:00:00","$GPGGA,040057.99,4949.64597,N,09713.17016,W,1,10,0.94,228.9,M,-24.5,M,,*6F",2011,2,27,58,22,0,0,-15.55,13.14,-16.31,98.26322,"R1.15",1.15,1.413,189,1.37,-11.85,-7.719,-6.054,-5.161,-4.451,-3.398,-2.345,-1.198,-0.173,0.241,0.622,1.401,0.9490,-11.34,-11.09,-10.59,-10.14,-9.7200,-9.32,-9.16,-8.74,-8.54,-8.26,-8.0200,-8.1400,-7.8220,-8.26,-8.16,-8.62,-8.76,-9.09,-9.2,-9.37,-9.8,-10.03,-10.6,-11.02,-10.92
"2011-02-27 21:30:00","$GPGGA,033057.99,4949.64592,N,09713.17118,W,1,9,1.01,227.3,M,-24.5,M,,*51",2011,2,27,58,21,30,0,-15.6,13.14,-15.09,98.24681,"R1.14",1.14,1.408,189,1.369,-12.07,-7.7360,-6.054,-5.183,-4.479,-3.425,-2.356,-1.208,-0.184,0.236,0.611,1.444,0.9920,-11.54,-11.3,-10.8,-10.3,-9.79,-9.3500,-9.1400,-8.6800,-8.45,-8.15,-7.873,-7.964,-7.668,-8.05,"2011-02-27 21:00:00","$GPGGA,030057.00,4949.64518,N,09713.16976,W,1,9,1.00,235.2,M,-24.5,M,,*52",2011,2,27,58,21,0,0,-16.65,13.15,-15.82,98.2139,"R1.14",1.14,1.41,189,1.369,-13.02,-7.7420,-6.048,-5.205,-4.506,-3.447,-2."2011-02-27 20:30:00","$GPGGA,023057.00,4949.64697,N,09713.16885,W,1,10,0.90,234.8,M,-24.5,M,,*62",2011,2,27,58,20,30,0,-17.33,13.15,-17.53,98.16363,"R1.15",1.15,1.416,189,1.37,-13.39,-7.6850,-6.043,-5.228,-4.545,-3.469,-2.394,-1.225,-0.184,0.236,0.606,1.401,0.943,-12,-11.59,-10.87,-10.14,-9.4800,-9.0200,-8.79,-8.37,-8.15,-7.885,-7.6050,-7.623,-7.305,-7.6,-7.5200,-7.89,-8,-8.3100,-8.41,-8.5600,-9.03,-9.32,-9.83,-10.15,-10.09
"2011-02-27 20:00:00","$GPGGA,020057.00,49N)ršÊb‚rÊ’Š‚bjŠŠr²bjŠŠrŠÊbjŠ‚rª’bjÊrÂ’bjÊrŠÂ‚‚bjÂrºº‚‚bjÂrª²‚‚bjÂrŠÊ‚‚bjÂr‚Šb"2011-02-27 19:30:00","$GPGGA,013057.00,4949.64809,N,09713.16845,W,1,10,0.82,233.5,M,-24.5,M,,*6D",2011,2,27,58,19,30,0,-15.22,13.14,-18.62,98.09866,"R1.15",1.15,1.421,189,1.372,-12.55,-7.4280,-6.053,-5.299,-4.605,-3.524,-2.427,-1.236,-0.195,0.213,0.621,1.41,0.9860,-11.08,-10.7,-10.08,-9.45,-8.88,-8.51,-8.33,-8.01,-7.883,-7.6780,-7.411,-7.365,-7.043,-7.241,-7.1500,-7.4280,-7.496,-7.706,-7.7690,-7.871,-8.25,-8.4800,-8.9,-9.15,-9.11
"2011-02-27 19:00:00","$GPGGA,010057.00,4949.64833,N,09713.16980,W,1,10,1.16,235.5,M,-24.5,M,,*65",2011,2,27,58,19,0,0,-13.81,13.29,-15.84,98.08222,"R1.13""2011-02-27 18:30:00","$GPGGA,003057.00,4949.64618,N,09713.16945,W,1,10,0.87,231.7,M,-24.5,M,,*66",2011,2,27,58,18,30,0,-11.84,13.3,-15.62,97.99999,"R1.15",1.15,1.413,189,1.372,-11.2,-7.166,-6.074,-5.382,-4.677,-3.573,-2.449,-1.248,-0.186,0.223,0.614,1.452,0.9410,-9.83,-9.55,-9.12,-8.67,-8.28,-8.05,-7.938,-7.733,-7.693,-7.568,-7.3350,-7.2620,-6.917,-7.0470,-6.9280,-7.115,-7.1320,-7.2620,-7.279,-7.313,-7.574,-7.7220,-8.05,-8.24,-"2011-02-27 18:00:00","$GPGGA,000057.00,4949.64561,N,09713.17003,W,1,7,1.31,237.3,M,-24.5,M,,*5A",2011,2,27,58,18,0,0,-9.57,13.31,-12.56,97.9507,"R1.14",1.14,1.401,188,1.368,-10.39,-7.057,-6.117,-5.431,-4.72,-3.6,-2.465,-1.253,-0.186,0.2"2011-02-27 17:30:00","$GPGGA,233057.00,4949.64506,N,09713.17096,W,1,10,0.79,231.0,M,-24.5,M,,*6B",2011,2,27,58,17,30,0,-7.4600,13.31,-11.16,97.89318,"R1.15",1.15,1.399,189,1.37,-9.5600,-6.9540,-6.156,-5.481,-4.753,-3.628,-2.482,-1.259,-0.154,0.237,0.623,1.417,0.988,-8.47,-8"2011-02-27 17:00:00","$GPGGA,230057.99,4949.64629,N,09713.16930,W,1,8,0.94,233.6,M,-24.5,M,,*5C",2011,2,27,58,17,0,0,-5.831,13.31,-11.07,97.9014,"R1.15",1.15,1.399,189,1.37,-8.6400,-6.8690,-6.211,-5.536,-4.797,-3.655,-2.498,-1.265,-0.154,0.232,0.629,1.439,0.966,-7.9800,-7.8890,-7.837,-7.786,-7.741,-7.6840,-7.6840,-7.5930,-7.6380,-7.5930,-7.366,-7.287,-6.97,-7.0270,-6.897,-6.9930,-6.959,-6.9990,-6.9480,-6.891,-7.004,-7.061,-7.315"2011-02-27 16:30:00","$GPGGA,223057.99,4949.64627,N,09713.17037,W,1,8,1.08,230j²rÊÊ¢‚bjºr‚ŠŠbj²rÊšºbj²rÂ²¢bj²rÊš’bj²rÊ²‚‚bjºr’Š¢bjºr’ÊÊbjºrŠºªj
"2011-02-27 16:00:00","$GPGGA,220057.99,4949.64485,N,09713.17025,W,1,10,0.96,231.4,M,-24.5,M,,*6E",2011,2,27,58,16,0,0,-3.407,13.28,-10.7,97.76967,"R1.11",1.11,1.397,188,1.369,-7.5970,-6.873,-6.356,-5.657,-4.879,-3.71,-2.52,-1.276,-0.161,0.258,0.622,1.405,0.97,-7.285,-7.2510,-7.37,-7.534,-7.659,-7.699,-7.7620,-7.693,-7.7620,-7.7050,-7.4610,-7.4150,-7.127,-7.1720,-7.0590,-7.127,-7.082,-7.1040,-7.0140,-6.924,-6.969,-7.008,-7.2290,-7.268,-7.127
"2011-02-27 15:30:00","$GPGGA,213057.99,4949.64610,N,09713.16975,W,1,9,0.89,230.2,M,-24.5,M,,*5C",2011,2,27,58,15,30,0,-2.612,13.26,-11,97.75924,"R1.13",1.13,1.397,189,1.369,-7.2170,-6.918,-6.429"2011-02-27 15:00:00","$GPGGA,210057.00,4949.64528,N,09713.17062,W,1,9,0.86,232.7,M,-24.5,M,,*51",2011,2,27,58,15,0,0,-2.142,13.23,-11.14,97.65517,"R1.14",1.14,1.398,189,1.369,-7.0140,-7.003,-6.519,-5.769,-4.946,-3.748,-2.542,-1.287,-0.139,0.258,0.66,1.459,0.9160,-7.1040,-7.082,-7.3080,-7.62,-7.853,-7.944,-8.03,-7.949,-7.989,-7.91,-7.6710,-7.682,-7.42"2011-02-27 14:30:00","$GPGGA,203057.00,4949.64674,N,09713.17122,W,1,9,1.16,236.2,M,-24.5,M,,*55",2011,2,27,58,14,30,0,-1.864,13.19,-11.48,97.58948,"R1.13",1.13,1.399,189,1.369,-6.9010,-7.121,-6.608,-5.836,-4.99,-3.77,-2.558,-1.292,-0.144,0.231,0.622,1.416,0.965,-7.1720,-7.1380,-7.398,-7.7620,-8.04,-8.15,-8.2300,-8.13,-8.15,-8.05,-7.818,-7.8750,-7.614,-7.693,-7.574,-7.654,-7.602,-7.614,-7.489,-7.37,-7.359,-7.364,-7.602,-7.6650,-7.‰Ê¢Êr²¢²‚Êbr±09713.16906,W,1,10,0.97,235.6,M,-24.5,M,,*64",2011,2,27,58,14,0,0"2011-02-27 13:30:00","$GPGGA,193057.00,4949.64746,N,09713.16983,W,1,9,0.99,234.6,M,-24.5,M,,*5D",2011,2,27,58,13,30,0,-1.95,13.07,-12.36,97.49286,"R1.14",1.14,1.401,185,1.369,-7.0990,-7.438,-6.811,-5.947,-5.057,-3.809,-2.575,-1.298,-0.166,0.231,0.595,1.394,0.9540,-7.602,-7.5800,-7.864,-8.29,-8.61,-8.7,-8.7700,-8.61,-8.54,-8.38,-8.16,-8.36,-8.09,-8.2300,-8.11,-8.2300,-8.2,-8.2300,-8.1000,-8,-7.989,-7.995,-8.26,-8.33,-8.09
--------------------------------------------
END TRANSMIT

