

RING

RING

CONNECT 4800
--------------------------------------------
CEOS_IMBB06
----------------IMB_data--------------------
"2011-03-01 01:00:00","$GPGGA,070057.00,4949.64788,N,09713.17233,W,1,9,0.97,233.7,M,-24.5,M,,*5A",2011,3,1,60,1,0,0,-10.51,13.31,-11.42,98.05066,"R1.16",1.16,1.4,169,1.37,-10.46,-6.102,-4.821,-4.168,-3.661,-2.799,-1.957,-1.04,-0.175,0.255,0.653,1.431,0.9630,-8.88,-8.99,-8.88,-8.62,-8.28,-7.784,-7.426,-6.86,-6.382,-6.007,-5.794,-5.906,-5.884,-6.068,-6.029,-6.22,-6.304,-6.466,-6.511,-6.59,-6.8490,-6.996,-7.239,-7.347,-7.3690
"2011-03-01 00:30:00","$GPGGA,063057.00,4949.64711,N,09713.17020,W,1,9,0.92,235.5,M,-24.5,M,,*59",2011,3,1,60,0,30,0,-9.9800,13.31,-11.09,97.96713,"R1.14",1.14,1.398,182,1.369,-10.1,-6.039,-4.825,-4.183,-3.688,-2.815,-1.967,-1.05,-0.179,0.245,0.615,1.404,0.9580,-8.57,-8.74,-8.67,-8.45,-8.1900,-7.765,-7.419,-6.8760,-6.426,-6.033,-5.888,-6.044,-5.977,-6.1,-6.067,-6.201,-6.274,-6.409,-6.448,-6.521,-6.74,-6.8810,-7.0790,-7.147,-7.181
"2011-03-01 00:00:00","$GPGGA,060057.99,4949.64577,N,09713.16928,W,1,10,0.85,233.6,M,-24.5,M,,*63",2011,3,1,60,0,0,0,-9.46,13.32,-10.56,97.93018,"R1.15",1.15,1.397,169,1.37,-9.76,-5.972,-4.837,-4.206,-3.716,-2.832,-1.99,-1.057,-0.181,0.254,0.635,1.419,0.961,-8.3100,-8.49,-8.45,-8.24,-8.03,-7.68,-7.3560,-6.859,-6.437,-6.062,-5.961,-6.207,-6.078,-6.162,-6.117,-6.213,-6.263,-6.387,-6.42,-6.476,-6.656,-6.791,-6.9270,-6.9660,-7.017
"2011-02-28 23:30:00","$GPGGA,053057.99,4949.64653,N,09713.16940,W,1,10,0.79,231.0,M,-24.5,M,,*6F",2011,2,28,59,23,30,0,-8.96,13.32,-9.9300,97.95891,"R1.14",1.14,1.397,169,1.371,-9.37,-5.905,-4.842,-4.223,-3.732,-2.854,-1.995,-1.057,-0.181,0.254,0.63,1.402,0.9670,-7.9990,-8.1400,-8.1400,-7.93,-7.765,-7.4920,-7.209,-6.774,-6.387,-6.039,-5.983,-6.213,-6.084,-6.151,-6.09,-6.173,-6.207,-6.314,-6.342,-6.381,-6.538,-6.656,-6.7690,-6.808,-6.87
"2011-02-28 23:00:00","$GPGGA,050057.99,4949.64638,N,09713.16989,W,1,11,0.75,233.6,M,-24.5,M,,*6D",2011,2,28,59,23,0,0,-8.4,13.33,-9,97.98356,"R1.14",1.14,1.394,172,1.371,-8.82,-5.849,-4.848,-4.245,-3.754,-2.876,-2.012,-1.068,-0.181,0.254,0.635,1.419,0.9670,-7.6970,-7.833,-7.8560,-7.6970,-7.623,-7.396,-7.153,-6.758,-6.403,-6.073,-6.028,-6.28,-6.129,-6.162,-6.101,-6.168,-6.185,-6.274,-6.297,-6.33,-6.46,-6.555,-6.656,-6.701,-6.7690
"2011-02-28 22:30:00","$GPGGA,043057.99,4949.64551,N,09713.17054,W,1,9,0.89,231.1,M,-24.5,M,,*54",2011,2,28,59,22,30,0,-8.08,13.33,-8.5600,97.99999,"R1.07",1.07,1.392,168,1.37,-8.5,-5.81,-4.864,-4.267,-3.776,-2.892,-2.017,-1.068,-0.181,0.292,0.641,1.419,0.9670,-7.543,-7.674,-7.686,-7.5380,-7.4870,-7.271,-7.0400,-6.69,-6.347,-6.056,-6.028,-6.258,-6.117,-6.14,-6.056,-6.123,-6.129,-6.207,-6.213,-6.241,-6.364,-6.443,-6.544,-6.606,-6.679
"2011-02-28 22:00:00","$GPGGA,040057.99,4949.64560,N,09713.17053,W,1,10,0.96,232.7,M,-24.5,M,,*61",2011,2,28,59,22,0,0,-7.838,13.33,-7.735,97.96713,"R1.15",1.15,1.39,169,1.37,-8.38,-5.777,-4.87,-4.295,-3.804,-2.903,-2.033,-1.074,-0.181,0.238,0.608,1.419,0.9670,-7.436,-7.5380,-7.6060,-7.4470,-7.4410,-7.266,-7.034,-6.701,-6.375,-6.095,-6.09,-6.375,-6.207,-6.207,-6.129,-6.207,-6.162,-6.235,-6.241,-6.258,-6.342,-6.398,-6.465,-6.527,-6.611
"2011-02-28 21:30:00","$GPGGA,033057.00,4949.64575,N,09713.17218,W,1,8,1.13,227.9,M,-24.5,M,,*53",2011,2,28,59,21,30,0,-7.548,13.32,-8.03,97.93426,"R1.15",1.15,1.39,170,1.369,-8.16,-5.743,-4.892,-4.311,-3.826,-2.92,-2.039,-1.079,-0.175,0.254,0.624,1.419,0.9780,-7.2880,-7.2830,-7.3560,-7.1980,-7.175,-7.0400,-6.8360,-6.544,-6.274,-6.034,-6.062,-6.364,-6.185,-6.185,-6.117,-6.173,-6.129,-6.196,-6.185,-6.196,-6.274,-6.319,-6.398,-6.476,-6.555
"2011-02-28 21:00:00","$GPGGA,030057.00,4949.64653,N,09713.17127,W,1,9,1.09,233.1,M,-24.5,M,,*5F",2011,2,28,59,21,0,0,-7.083,13.32,-7.6380,97.93426,"R1.15",1.15,1.39,170,1.37,-7.561,-5.71,-4.914,-4.344,-3.848,-2.942,-2.05,-1.079,-0.181,0.254,0.646,1.419,0.9830,-7.062,-7.0400,-7.062,-6.972,-6.972,-6.8360,-6.679,-6.437,-6.202,-6,-6.039,-6.33,-6.162,-6.168,-6.095,-6.151,-6.106,-6.168,-6.157,-6.162,-6.252,-6.297,-6.364,-6.448,-6.527
"2011-02-28 20:30:00","$GPGGA,023057.99,4949.64650,N,09713.16841,W,1,9,0.97,237.0,M,-24.5,M,,*55",2011,2,28,59,20,30,0,-7.017,13.3,-7.5400,97.98356,"R1.15",1.15,1.389,169,1.37,-7.583,-5.715,-4.925,-4.372,-3.881,-2.964,-2.055,-1.084,-0.181,0.276,0.646,1.418,0.994,-7.107,-7.0850,-7.107,-7.017,-6.9940,-6.8420,-6.679,-6.431,-6.196,-6.006,-6.039,-6.325,-6.162,-6.162,-6.095,-6.134,-6.09,-6.146,-6.123,-6.134,-6.218,-6.269,-6.33,-6.387,-6.476
"2011-02-28 20:00:00","$GPGGA,020057.99,4949.64755,N,09713.16921,W,1,12,0.70,235.8,M,-24.5,M,,*6C",2011,2,28,59,20,0,0,-6.864,13.29,-7.7430,97.9507,"R1.14",1.14,1.39,169,1.37,-7.7240,-5.697,-4.947,-4.41,-3.908,-2.979,-2.066,-1.095,-0.181,0.238,0.641,1.435,0.9450,-7.1120,-7.044,-7.083,-6.9540,-6.9080,-6.773,-6.593,-6.357,-6.156,-5.993,-6.038,-6.346,-6.167,-6.167,-6.1,-6.139,-6.083,-6.128,-6.111,-6.111,-6.184,-6.228,-6.256,-6.301,-6.391
"2011-02-28 19:30:00","$GPGGA,013057.99,4949.64806,N,09713.16903,W,1,10,0.82,234.2,M,-24.5,M,,*61",2011,2,28,59,19,30,0,-6.599,13.25,-7.456,98.01643,"R0.98",0.98,1.389,169,1.37,-7.544,-5.672,-4.966,-4.445,-3.938,-3.004,-2.085,-1.098,-0.183,0.246,0.654,1.372,0.943,-7.035,-6.9670,-6.978,-6.86,-6.798,-6.663,-6.483,-6.27,-6.102,-5.99,-6.029,-6.32,-6.141,-6.147,-6.079,-6.096,-6.04,-6.079,-6.046,-6.035,-6.107,-6.147,-6.169,-6.186,-6.27
"2011-02-28 19:00:00","$GPGGA,010057.99,4949.64833,N,09713.16936,W,1,8,1.37,237.4,M,-24.5,M,,*51",2011,2,28,59,19,0,0,-6.532,13.39,-7.3080,98.0493,"R1.15",1.15,1.389,169,1.37,-7.595,-5.632,-4.987,-4.489,-3.97,-3.025,-2.09,-1.097,-0.177,0.252,0.633,1.422,0.9860,-6.978,-6.8880,-6.916,-6.753,-6.64,-6.505,-6.337,-6.146,-6.023,-5.962,-5.99,-6.281,-6.096,-6.113,-6.034,-6.051,-5.99,-6.006,-5.956,-5.934,-6.006,-6.034,-6.04,-6.012,-6.085
"2011-02-28 18:30:00","$GPGGA,003057.99,4949.64759,N,09713.17010,W,1,10,0.85,236.6,M,-24.5,M,,*6E",2011,2,28,59,18,30,0,-6.05,13.38,-7.1190,98.08215,"R1.10",1.1,1.389,168,1.371,-7.476,-5.566,-5.021,-4.528,-3.999,-3.042,-2.096,-1.098,-0.178,0.246,0.659,1.443,1.002,-6.798,-6.686,-6.686,-6.506,-6.349,-6.236,-6.102,-5.979,-5.929,-5.962,-5.99,-6.225,-6.057,-6.08,-5.996,-5.99,-5.934,-5.923,-5.856,-5.8,-5.856,-5.878,-5.878,-5.817,-5.873
"2011-02-28 18:00:00","$GPGGA,000057.99,4949.64620,N,09713.17076,W,1,8,0.98,230.8,M,-24.5,M,,*5F",2011,2,28,59,18,0,0,-5.373,13.38,-7.0260,98.13967,"R1.15",1.15,1.388,169,1.37,-7.208,-5.48,-5.058,-4.581,-4.029,-3.051,-2.099,-1.101,-0.171,0.27,0.65,1.417,0.993,-6.419,-6.296,-6.307,-6.116,-5.949,-5.904,-5.837,-5.82,-5.876,-6.004,-6.016,-6.206,-6.06,-6.083,-5.993,-5.971,-5.904,-5.87,-5.77,-5.681,-5.703,-5.708,-5.703,-5.636,-5.653
"2011-02-28 17:30:00","$GPGGA,233057.00,4949.64567,N,09713.17107,W,1,9,0.98,234.7,M,-24.5,M,,*50",2011,2,28,59,17,30,0,-4.333,13.38,-6.748,98.20046,"R1.14",1.14,1.387,169,1.37,-6.605,-5.398,-5.115,-4.633,-4.064,-3.07,-2.118,-1.109,-0.179,0.24,0.599,1.42,0.957,-5.877,-5.755,-5.821,-5.676,-5.604,-5.604,-5.66,-5.755,-5.888,-6.095,-6.112,-6.246,-6.123,-6.146,-6.045,-6.011,-5.944,-5.888,-5.738,-5.621,-5.604,-5.576,-5.598,-5.554,-5.532
"2011-02-28 17:00:00","$GPGGA,230057.00,4949.64504,N,09713.16887,W,1,10,0.88,228.6,M,-24.5,M,,*63",2011,2,28,59,17,0,0,-3.021,13.37,-5.927,98.18953,"R1.11",1.11,1.386,169,1.371,-5.602,-5.312,-5.184,-4.686,-4.089,-3.084,-2.121,-1.102,-0.177,0.274,0.655,1.448,1.019,-5.312,-5.157,-5.268,-5.246,-5.334,-5.401,-5.557,-5.758,-5.986,-6.283,-6.305,-6.395,-6.277,-6.283,-6.165,-6.115,-6.054,-5.992,-5.825,-5.68,-5.646,-5.568,-5.602,-5.602,-5.535
"2011-02-28 16:30:00","$GPGGA,223057.00,4949.64549,N,09713.16964,W,1,9,0.99,230.2,M,-24.5,M,,*51",2011,2,28,59,16,30,0,-2.228,13.35,-5.343,98.24634,"R1.14",1.14,1.384,173,1.37,-4.83,-5.346,-5.262,-4.736,-4.122,-3.095,-2.121,-1.102,-0.177,0.231,0.617,1.427,1.008,-5.046,-4.957,-5.029,-5.123,-5.296,-5.407,-5.646,-5.936,-6.233,-6.608,-6.631,-6.721,-6.569,-6.564,-6.423,-6.362,-6.294,-6.216,-6.026,-5.869,-5.808,-5.719,-5.769,-5.763,-5.668
"2011-02-28 16:00:00","$GPGGA,220057.00,4949.64604,N,09713.17052,W,1,10,0.95,233.5,M,-24.5,M,,*65",2011,2,28,59,16,0,0,-1.48,13.33,-5.248,98.26276,"R1.15",1.15,1.383,174,1.37,-4.604,-5.402,-5.346,-4.792,-4.151,-3.107,-2.122,-1.103,-0.178,0.235,0.594,1.404,0.98,-4.908,-4.858,-4.986,-5.158,-5.419,-5.58,-5.892,-6.228,-6.587,-6.9810,-7.015,-7.128,-6.924,-6.924,-6.755,-6.71,-6.609,-6.531,-6.306,-6.127,-6.038,-5.931,-5.982,-6.004,-5.881
"2011-02-28 15:30:00","$GPGGA,213057.00,4949.64582,N,09713.17095,W,1,10,0.87,235.5,M,-24.5,M,,*66",2011,2,28,59,15,30,0,-0.416,13.3,-4.965,98.36129,"R1.10",1.1,1.383,169,1.37,-4.233,-5.495,-5.445,-4.84,-4.172,-3.122,-2.127,-1.102,-0.178,0.225,0.627,1.442,0.9850,-4.763,-4.752,-4.929,-5.229,-5.584,-5.785,-6.143,-6.524,-6.923,-7.3410,-7.4150,-7.562,-7.313,-7.307,-7.1040,-7.075,-6.962,-6.872,-6.625,-6.423,-6.322,-6.187,-6.266,-6.305,-6.148
"2011-02-28 15:00:00","$GPGGA,210057.99,4949.64579,N,09713.17025,W,1,11,0.73,237.7,M,-24.5,M,,*60",2011,2,28,59,15,0,0,0.522,13.26,-4.489,98.34486,"R1.11",1.11,1.382,169,1.371,-3.687,-5.612,-5.545,-4.895,-4.194,-3.128,-2.127,-1.102,-0.178,0.246,0.626,1.436,0.9850,-4.757,-4.785,-5.084,-5.567,-6.03,-6.299,-6.686,-7.0580,-7.476,-7.839,-7.925,-8.12,-7.805,-7.817,-7.589,-7.5780,-7.419,-7.34,-7.0800,-6.8550,-6.708,-6.551,-6.675,-6.7310,-6.551
"2011-02-28 14:30:00","$GPGGA,203057.99,4949.64725,N,09713.17341,W,1,8,1.64,241.1,M,-24.5,M,,*50",2011,2,28,59,14,30,0,1.267,13.21,-4.534,98.32845,"R1.13",1.13,1.38,181,1.368,-3.27,-5.79,-5.65,-4.945,-4.21,-3.127,-2.132,-1.102,-0.178,0.225,0.648,1.447,0.8980,-4.923,-4.967,-5.411,-6.019,-6.539,-6.8090,-7.1980,-7.521,-7.93,-8.2300,-8.3100,-8.5200,-8.1800,-8.2,-7.964,-7.964,-7.8160,-7.748,-7.47,-7.2490,-7.0910,-6.9330,-7.097,-7.2040,-6.9610
"2011-02-28 14:00:00","$GPGGA,200057.00,4949.64644,N,09713.17052,W,1,11,0.82,233.9,M,-24.5,M,,*68",2011,2,28,59,14,0,0,0.501,13.14,-5.549,98.41054,"R0.95",0.9500,1.383,189,1.369,-3.974,-6.053,-5.757,-4.984,-4.227,-3.144,-2.127,-1.102,-0.177,0.247,0.638,1.421,0.9480,-5.506,-5.54,-5.964,-6.552,-7.041,-7.2900,-7.653,-7.9260,-8.3,-8.58,-8.6800,-8.99,-8.65,-8.72,-8.47,-8.51,-8.3500,-8.2700,-8.0200,-7.778,-7.6190,-7.437,-7.6640,-7.812,-7.5390
"2011-02-28 13:30:00","$GPGGA,193057.00,4949.64733,N,09713.17064,W,1,9,0.99,237.5,M,-24.5,M,,*5E",2011,2,28,59,13,30,0,-0.138,13.06,-7.0590,98.47623,"R1.15",1.15,1.387,190,1.369,-4.652,-6.315,-5.851,-5.028r²Â‚‚bjÂrÊŠbjÊr‚¢bjÊr¢’bjÊr‚²‚‚bjÊrŠÊ‚‚bjÂrÊ²bjÊr‚¢bjÂrÂÊ‚‚bjÂrÂª‚‚bjÂrªÊbjÂršÂ"2011-02-28 13:00:00","$GPGGA,190057.00,4949.64741,N,09713.16914,W,1,10,0.96,233.2,M,-24.5,M,,*63",2011,2,28,59,13,0,0,-0.35,13.15,-7.097,98.54192,"R1.14",1.14,1.388,189,1.37,-5.246,-6.58,-5.947,-5.057,-4.244,-3.139,-2.127,-1.102,-0.172,0.252,0.644,1.427,0.975,-6.603,-6.682,-7.036,-7.5800,-8.03,-8.2300,-8.54,-8.7,-9,-9.2,-9.32,-9.79,-9.4300,-9.61,-9.38,-9.51,-9.38,-9.37,-9.1400,-8.9300,-8.79,-8.6400,-8.9800,-9.2,-8.88
"2011-02-28 12:30:00","$GPGGA,183057.99,4949.64779,N,09713.17017,W,1,11,0.81,234.6,M,-24.5,M,,*65",2011,2,28,59,12,30,0,-1.01,13.1,-9.05,98.60823,"R1.06",1.06,1.393,189,1.37,-6.003,-6.8620,-6.037,-5.085,-4.255,-3.139,-2.127,-1.102,-0.172,0.274,0.638,1.438,0.975,-7.24,-7.3300,-7.608,-8.13,-8.5600,-8.71,-9,-9.08,-9.34,-9.4700,-9.6000,-10.15,-9.78,-10.01,-9.8100,-9"2011-02-28 12:00:00","$GPGGA,180057.99,4949.64648,N,09713.17123,W,1,9,1.16,233.3,M,-24.5,M,,*57",2011,2,28,59,12,0,0,-1.95,13.06,-9.22,98.70208,"R1.14",1.14,10.05,-10.52,-10.82,-10.49
"2011-02-28 11:30:00","$GPGGA,173057.00,4949.64627,N,09713.16996,W,1,12,0.72,235.5,M,-24.5,M,,*6C",2011,2,28,59,11,30,0,-4.051,13.02,-9.5,98.7477,"R1.15",1.15,1.397,188,1.372,-7.839,-7.4470,-6.185,-5.12,-4.256,-3.145,-2.127,-1.102,-0.171,0.269,0.617,1.428,0.993,-8.9400,-8.9400,-9.1000,-9.4700,-9.75,-9.76,-9.9400,-9.84,-9.99,-9.99,-10.08,-10.71,-10.37,-10.76,-10.58,-10.88,-10.86,-10.99,-10.85,-10.76,-10.8,-10.78,-11.31,-11.67,-11.33
"2011-02-28 11:00:00","$GPGGA,170057.00,4949.64695,N,09713.17063,W,1,11,0.75,235.4,M,-"2011-02-28 10:30:00","$GPGGA,163057.00,4949.64707,N,09713.17011,W,1,9,1.09,234.9,M,-24.5,M,,*53",2011,2,28,59,10,30,0,-8.76,12.94,-12.25,98.79866,"R1.14",1.14,1.403,189,1.371,-10.49,-8,-6.287,-5.137,-4.262,-3.15,-2.132,-1.106,-0.174,0.255,0.631,1.425,0.9300,-10.87,-10.77,-10.65,-10.75,-10.78,-10.63,-10.7,-10.42,-10.43,-10.32,-10.37,-11.06,-10.72,-11.27,-11.12,-11.52,-11.56,-11.8,-11.73,-11.79,-11.97,-12.06,-12.67,-13.14,-12.82
"2011-02-28 10:00:00","$GPGGA,160057.99,4949.64853,N,09713.16946,W,1,9,0.89,238.0,M,-24.5,M,,*58",2011,2,28,59,10,0,0,-11.37,12.91,-13.4,98.77295,"R1.13",1.13,1.407,189,1.372,-11.72,-8.22,-6.316,-5.138,-4.257,-3.145,-2.137,-1.1,-0.174,0.245,0.643,1.427,0.9690,-11.74,-11.59,-11.33,-11.29,-11.19,-10.95,-10.96,-10.62,-10.6,-10.43,-10.44,-11.06,-10.75,-11.36,-11.2,-11.7,-11.77,-12.05,-12.03,-12.1,-12.35,-12.47,-13.14,-13.7,-13.41
"2011-02-28 09:30:00","$GPGGA,153057.99,4949.64696,N,09713.17029,W,1,9,0.87,230.7Šr‚ºbjŠ‚rÂbjŠŠr¢šbjŠŠr’ÂbjŠŠrÂºbjŠŠrÊ¢bjŠ’r’ºbjŠ’ršŠbjŠ’r¢bjŠ’r²ÊbjŠ’rÂŠbjŠšrª"2011-02-28 09:00:00","$GPGGA,150057.00,4949.64695,N,09713.16911,W,1,9,0.86,233.4,M,-24.5,M,,*5D",2011,2,28,59,9,0,0,-17.17,12.85,-16.58,98.80634,"R1.14",1.14,1.416,189,1.372,-13.41,-8.51,-6.336,-5.134,-4.258,-3.14,-2.142,-1.099,-0.167,0.231,0.623,1.391,0.961,-13.16,-12.92,-12.45,-12.11,-11.77,-11.39,-11.29,-10.86,-10.75,-10.53,-10.51,-11.08,-10.79,-11.47,-11.3,-11.93,-12.02,-12.4,-12.45,-12.57,-12.94,-13.11,-13.83,-14.46,-14.25
"2011-02-28 08:30:00","$GPGGA,143057.00,4949.64664,N,09713.17059,W,1,9,0.80,230.4,M,-24.5,M,,*50",2011,2,28,59,8,30,0,"2011-02-28 08:00:00","$GPGGA,140057.00,4949.64579,N,09713.16924,W,1,8,1.14,230.7,M,-24.5,M,,*50",2011,2,28,59,8,0,0,-21.18,12.78,-21.4,98.79012,"R1.13",1.13,1.427,189,1.37,-15.09,-8.6800,-6.331,-5.124,-4.253,-3.151,-2.147,-1.109,-0.149,0.259,0.619,1.469,0.9730,-14.11,-13.78,-13.06,-12.49,-11.96,-11.52,-11.36,-10.88,-10.72,-10.48,-10.43,-10.99,-10.67,-11.4,-11.24,-11.91,-12.01,-12.42,-12.5,-12.65,-13.1,-13.33,-14.06,-14.66,-14.5
"2011-02-28 07:30:00","$GPGGA,133057.99,4949.64742,N,09713.16997,W,1,9,1.11,227.1,M,-24.5,M,,*52",2011,2,28,59,7.0000,30,0,-21.68,12.74,-21.74,98.7819,"R1.13",1.13,1.427,189,1.369,-15.25,-8.7,-6.32,-5.118,-4.253,-3.151,-2.153,-1.109,-0.16,0.259,0.641,1.436,0.9680,-14.2,-13.88,-13.15,-12.54,-12,-11.52,-11.36,-10.85,-10.68,-10.4,-10.35,-10.9,-10.62,-11.31,-11.19,-11.82,-11.97,-12.39,-12.49,-12.67,-13.13,-13.38,-14.1,-14.68,-14.53“IšbjŠšrÊbjŠšrŠ²bjŠ’rªªbjŠŠrÊÂbjŠŠrªŠbjŠŠrššbjŠ‚rÂŠbjŠ‚r²’bjŠ‚rš²bjŠ‚r’ÂbjŠ‚rÂb"2011-02-28 06:30:00","$GPGGA,123057.99,4949.64626,N,09713.16944,W,1,10,0.91,229.1,M,-24.5,M,,*61",2011,2,28,59,6,30,0,-22.04,12.87,-23.3,98.69335,"R1.13",1.13,1.431,189,1.369,-15.32,-8.7,-6.292,-5.107,-4.259,-3.162,-2.169,-1.12,-0.16,0.27,0.641,1.414,0.951,-14.33,-13.99,-13.23,-12.6,-12,-11.5,-11.28,-10.74,-10.54,-10.26,-10.16,-10.66,-10.37,-11.09,-10.95,-11.64,-11.76,-12.21,-12.35,-12.53,-13.03,-13.3,-14.05,-14.66,-14.51
"2011-02-28 06:00:00","$GPGGA,120057.99,4949.64651,N,09713.16982,W,1,8,0.94,231.1,M,-24.5,M,,*5D",2011,2,28,59,6,0,0,-22.28,12.87,-23.16,98.69142,"R1.15",1.15,1.431,189,1.369,-15.48,-8.7,-6.281,-5.096,-"2011-02-28 05:30:00","$GPGGA,113057.99,4949.64678,N,09713.17024,W,1,8,0.92,234.1,M,-24.5,M,,*51",2011,2,28,59,5,30,0,-22.49,12.88,-22.33,98.66681,"R1.14",1.14,1.429,189,1.369,-15.63,-8.6800,-6.264,-5.096,-4.259,-3.178,-2.18,-1.126,-0.166,0.259,0.641,1.414,0.946,-14.53,-14.15,-13.35,-12.63,-11.96,-11.4,-11.16,-10.58,-10.33,-10.02,-9.8900,-10.36,-10.08,-10.78,-10.66,-11.33,-11.49,-11.94,-12."2011-02-28 05:00:00","$GPGGA,110057.99,4949.64681,N,09713.17098,W,1,9,0.90,234.9,M,-24.5,M,,*58",2011,2,28,59,5,0,0,-22.76,12.89,-23.26,98.60906,"R1.15",1.15,1.433,190,1.371,-15.82,-8.66,-6.241,-5.091,-4.259,-3.184,-2.186,-1.131,-0.171,0.248,0.6620,1.436,0.951,-14.56,-14.15,-13.31,-12.56,-11.85,-11.29,-11.04,-10.46,-10.2,-9.8900,-9.75,-10.19,-9.92,-10.59,-10.48,-11.15,-11.3,-11.76,-11.9,-12.11,-12.64,-12.96,-13.7,-14.3,-14.16
"2011-02-28 04:30:00","$GPGGA,103057.99,"2011-02-28 04:00:00","$GPGGA,100057.00,4949.64668,N,09713.17101,W,1,10,0.83,228.1,M,-24.5,M,,*60",2011,2,28,59,4,0,0,-22.46,12.91,-23.89,98.52709,"R1.14",1.14,1.433,189,1.369,-15.71,-8.54,-6.196,-5.074,-4.275,-3.2,-2.202,-1.136,-0.171,0.259,0.657,1.436,0.951,-14.37,-13.94,-13.08,-12.3,-11.57,-11.02,-10.77,-10.19,-9.9300,-9.6000,-9.46,-9.86,-9.5600,-10.22,-10.1,-10.76,-10.9,-11.35,-11.49,-11.7,-12.25,-12.55,-13.28,-13.85,-13.73
"2011-02-28 03:30:00","$GPGGA,093057.00,4949.64638,N,09713.17035,W,1,9,0.88,228.5,M,-24.5,M,,*5F",2011,2,28,59,3,30,0,-22.1,12.92,-21.89,98.49548,"R1.14",1.14,1.433,189,1.374,-15.56,-8.47,-6.168,-5.074,-4.281,-3.211,-2.213,-1.136,-0.166,0.254,0.641,1.42,0.946,-14.23,-13.79,-"2011-02-28 03:00:00","$GPGGA,090057.00,4949.64743,N,09713.17103,W,1,10,0.77,228.8,M,-24.5,M,,*60",2011,2,28,59,3,0,0,-21.8,12.93,-22.03,98.47735,"R1.11",1.11,1.43,189,1.371,-15.4,-8.4,-6.146,-5.074,-4.286,-3.217,-2.219,-1.142,-0.171,0.259,0.646,1.42,0.946,-14.05,-13.62,-12.77,-12.01,-11.28,-10.74,-10.48,-9.91,-9"2011-02-28 02:30:00","$GPGGA,083057.00,4949.64655,N,09713.16974,W,1,11,0.74,231.0,M,-24.5,M,,*6F",2011,2,28,59,2,30,0,-21.38,12.93,-22.53,98.44436,"R1.15",1.15,1.43,189,1.37,-15.18,-8.34,-6.128,-5.078,-4.302,-3.238,-2.229,-1.147,-0.171,0.254,0.636,1.426,0.9410,-13.85,-13.43,-12.59,-11.82,-11.11,-10.57,-10.34,-9.7700,-9.5,-9.17,-9.01,-9.34,-9.04,-9.63,-9.5200,-10.13,-10.27,-10.69,-10.82,-11.02,-11.56,-11.85,-12.54,-13.07,-12.96
"2011-02-28 02:00:00","$GPGGA,080057.99,4949.64656,N,09713.17014,W,1,8,1.17,228.7,M,-24.5,M,,*52",2011,2,28,59,2,0,0,-"2011-02-28 01:30:00","$GPGGA,073057.99,4949.64733,N,09713.16906,W,1,10,0.92,228.5,M,-24.5,M,,*60",2011,2,28,59,1,30,0,-20.46,12.92,-21.12,98.37846,"R1.15",1.15,1.425,189,1.369,-14.79,-8.1900,-6.1,-5.084,-4.33,-3.272,-2.257,-1.164,-0.172,0.264,0.629,1.402,0.934,-13.45,-13.03,-12.21,-11.46,-10.77,-10.25,-10.01,-9.4800,-9.22,-8.91,-8.7300,-9.01,-8.72,-9.26,-9.16,-9.71,-9.8500,-10.24,-10.37,-10.56,-11.06,-11.35,-12,-12.48,-12.38
"2011-02-28 01:00:00","$GPGGA,070057.99,4949.64685,N,09713.16996,W,1,9,0.96,225.9,M,-24.5,M,,*5B",2011,2,28,59,1,0,0,-20.11,13.04,-21.12,98.36201,"R1.14",1.14,1.426,190,1.37,-14.59,-8.11,-6.083,-5.095,-4.341,-3.283,-2.268,-1.164,-0.172,0.269,0.65,1.413,0.934,-13.21,-12.78,-11.99,-11.24,-10.58,-10.08,-9.84,-9.34,-9.08,-8.78,-8.6000,-8.87,-8.57,-9.08,-8.99"2011-02-28 00:30:00","$GPGGA,063057.99,4949.64687,N,09713.16993,W,1,9,0.92,225.4,M,-24.5,M,,*57",2011,2,28,59,0,30,0,.8,-9.92,-10.1,-10.57,-10.83,-11.44,-11.88,-11.78
"2011-02-28 00:00:00","$GPGGA,060057.99,4949.64692,N,09713.16893,W,1,9,0.93,230.8,M,-24.5,M,,*58",2011,2,28,59,0,0,0,-18.59,13.08,-17.85,98.34555,"R1.14",1.14,1.422,190,1.375,-13.86,-7.944,-6.061,-5.106,-4.369,-3.316,-2.29,-1.175,-0.172,0.258,0.629,1.408,0.934,-12.61,-12.21,-11.51,-10.83,-10.23,-9.76,-9.55,-9.08,-8.8500,-8.5600,-8.38,-8.6000,-8.3,-8.7700,-8.67,-9.15,-9.2700,-9.61,-9.7200,-9.8900,-10.35,-10.59,-11.18,-11.6,-11.51
"2011-02-27 23:30:00","$GPGGA,053057.99,4949.64659,N,09713.16818,W,1,10,0.79,228.9,M,-24.5,M,,*68",2011,2,27,58,23,30,0,-18.15,13.09,-16.78,98.31264,"R1.14",1.14,1.414,189,1.37,-13.64,"2011-02-27 23:00:00","$GPGGA,050057.99,4949.64676,N,09713.16885,W,1,12,0.72,230.4,M,-24.5,M,,*6F",2011,2,27,58,23,0,0,-17.64,13.1,-16.4,98.27966,"R1.14",1.14,1.413,189,1.37,-13.31,-7.8140,-6.063,-5.137,-4.41,-3.357,-2.321,-1.19,-0.181,0.254,0.625,1.392,0.924,-12.02,-11.65,-11,-10.4,-9.86,-9.46,-9.2700,-8.8500,-8.66,-8.3900,-8.2,-8.4,-8.09,-8.51,-8.4300,-8.88,-9,-9.32,-9.41"2011-02-27 22:30:00","$GPGGA,043057.99,4949.64593,N,09713.16892,W,1,10,0.85,225.7,M,-24.5,M,,*6E",2011,2,27,58,22,30,0,-16.67,13.12,-16.65,98.27622,"R1.13",1.13,1.414,189,1.37,-12.66,-7.759,-6.065,-5.156,-4.435,-3.381,-2.328,-1.197,-0.184,0.236,0.633,1.401,0.9220,-11.61,-11.3,-10.71,-10.19,-9.7200,-9.3500,-9.1800,-8.7700,-8.59,-8.33,-8.13,-8.29,-7.959"2011-02-27 22:00:00","$GPGGA,040057.99,4949.64597,N,09713.17016,W,1,10,0.94,228.9,M,-24.5,M,,*6F",2011,2,27,58,22,0,0,-15.55,13.14,-16.31,98.26322,"R1.15",1"2011-02-27 21:30:00","$GPGGA,033057.99,4949.64592,N,09713.17118,W,1,9,1.01,227.3,M,-24.5,M,,*51",2011,2,27,58,21,30,0,-15.6,13.14,-15.09,98.24681,"R1.14",1.14,1.408,189,1.369,-12.07,-7.7360,-6.054,-5.183,-4.479,-3.425,-2.356,-1.208,-0.184,0.236,0.611,1.444,0.9920,-11.54,-11.3,-10.8,-10.3,-9.79,-9.3500,-9.1400,-8.6800,-8.45,-8.15,-7.873,-7.964,-7.668,-8.05,-7.982,-8.42,-8.57,-8.91,-9.03,-9.22,-9.7,-9.9800,-10.54,-10.93,-10.85
"2011-02-27 21:00:00","$GPGGA,030057.00,4949.64518,N,09713.16976,W,1,9,1.00,235.295,-9.4300,-9.74,-10.27,-10.62,-10.56
"2011-02-27 20:30:00","$GPGGA,023057.00,4949.64697,N,09713.16885,W,1,10,0.90,234.8,M,-24.5,M,,*62",2011,2,27,58,20,30,0,-17.33,13.15,-17.53,98.16363,"R1.15",1.15,1.416,189,1.37,-13.39,-7.6850,-6.043,-5.228,-4.545,-3.469,-2.394,-1.225,-0.184,0.236,0.606,1.401,0.943,-12,-11.59,-10.87,-10.14,-9.4800,-9.0200,-8.79,-8.37,-8.15,-7.885,-7.6050,-7.623,-7.305,-7.6,-7.5200,-7.89,-8,-8.3100,-8.41,-8.5600,-9.03,-9.32,-9.83,-10.15,-10.09
"2011-02-27 20:00:00","$GPGGA,020057.00,4949.64733,N,09713.16884,W,1,10,0.90,232.9,M,-24.5,M,,*68",2011,2,27,58,20,0,0,-16.49,13.15,-17.87,98.14801,"R1.15",1.15,1.419,185,1.372,-13.07,-7.555,-6.043,-5"2011-02-27 19:30:00","$GPGGA,013057.00,4949.64809,N,09713.16845,W,1,10,0.82,233.5,M,-24.5,M,,*6D",2011,2,27,58,19,30,0,-15.22,13.14,-18.62,98.09866,"R1.15",1.15,1.421,189,1.372,-12.55,-7.4280,-6.053,-5.299,-4.605,-3.524,-2.427,-1.236,-0.195,0.213,0.621,1.41,0.9860,-11.08,-10.7,-10.08,-9.45,-8.88,-8.51,-8.33,-8.01,-7.883,-7.6780,-7.411,-7.365,-7.043,-7.241,-7.1500,-7.4280,-7.496,-7.706,-7.7690,-7.871,-8.25,-8.4800,-8.9,-9.15,-9.11
--------------------------------------------
END TRANSMIT

