

RING

RING

CONNECT 4800
--------------------------------------------
CEOS_IMBB06
----------------IMB_data--------------------
"2011-03-01 13:00:00","$GPGGA,190057.99,4949.64689,N,09713.17053,W,1,10,0.96,236.9,M,-24.5,M,,*63",2011,3,1,60,13,0,0,-8.51,13.09,-20.32,99.9269,"R1.14",1.14,1.424,190,1.37,-13.67,-7.6,-5.325,-4.206,-3.501,-2.574,-1.776,-0.9530,-0.18,0.244,0.641,1.479,1.005,-9.71,-9,-9.3,-10.27,-10.99,-11.04,-10.83,-10.4,-10.31,-9.5600,-8.59,-8.83,-8.59,-8.86,-8.75,-9.03,-9.03,-9.22,-9.3,-9.42,-9.57,-9.66,-9.86,-9.9300,-9.9
"2011-03-01 12:30:00","$GPGGA,183057.99,4949.64772,N,09713.17131,W,1,10,0.95,238.2,M,-24.5,M,,*67",2011,3,1,60,12,30,0,-8.8,13.09,-20.56,99.89808,"R1.14",1.14,1.424,186,1.369,-13.74,-7.6,-5.314,-4.195,-3.501,-2.58,-1.782,-0.9590,-0.181,0.238,0.641,1.457,0.9830,-9.82,-9.1800,-9.49,-10.43,-11.14,-11.17,-10.95,-10.49,-10.38,-9.6400,-8.67,-8.96,-8.7,-9.01,-8.92,-9.1800,-9.2,-9.4,-9.51,-9.66,-9.82,-9.9300,-10.12,-10.19,-10.14
"2011-03-01 12:00:00","$GPGGA,180057.99,4949.64677,N,09713.17142,W,1,10,1.04,234.9,M,-24.5,M,,*6A",2011,3,1,60,12,0,0,-9.28,13.08,-20.54,99.84226,"R1.14",1.14,1.423,189,1.368,-14.12,-7.659,-5.282,-4.168,-3.485,-2.575,-1.782,-0.9530,-0.169,0.266,0.674,1.463,1.001,-10.16,-9.58,-9.78,-10.67,-11.34,-11.32,-11.02,-10.51,-10.36,-9.6000,-8.65,-8.9,-8.72,-9.05,-8.96,-9.25,-9.28,-9.5,-9.63,-9.8100,-9.99,-10.12,-10.33,-10.44,-10.39
"2011-03-01 11:30:00","$GPGGA,173057.99,4949.64716,N,09713.17169,W,1,11,0.87,239.0,M,-24.5,M,,*66",2011,3,1,60,11,30,0,-10.14,13.07,-20.25,99.78256,"R1.13",1.13,1.423,190,1.369,-14.41,-7.699,-5.259,-4.152,-3.485,-2.58,-1.782,-0.9530,-0.175,0.272,0.653,1.491,1.012,-10.54,-10.09,-10.18,-10.95,-11.58,-11.5,-11.18,-10.61,-10.42,-9.67,-8.74,-9.0200,-8.84,-9.1800,-9.05,-9.3,-9.38,-9.62,-9.76,-9.9400,-10.14,-10.3,-10.55,-10.7,-10.67
"2011-03-01 11:00:00","$GPGGA,170057.00,4949.64636,N,09713.17181,W,1,11,0.85,235.1,M,-24.5,M,,*6F",2011,3,1,60,11,0,0,-11.04,13.06,-20.49,99.69374,"R1.11",1.11,1.426,182,1.371,-15.05,-7.7310,-5.213,-4.128,-3.484,-2.578,-1.786,-0.957,-0.173,0.252,0.654,1.471,0.997,-10.98,-10.65,-10.65,-11.29,-11.85,-11.7,-11.32,-10.67,-10.4,-9.62,-8.78,-9.2,-9.01,-9.33,-9.2,-9.4400,-9.51,-9.76,-9.9300,-10.13,-10.35,-10.51,-10.73,-10.88,-10.89
"2011-03-01 10:30:00","$GPGGA,163057.00,4949.64673,N,09713.17032,W,1,10,1.01,236.1,M,-24.5,M,,*6A",2011,3,1,60,10,30,0,-12.1,13.06,-20.96,99.62797,"R1.14",1.14,1.426,190,1.37,-15.68,-7.706,-5.16,-4.108,-3.475,-2.58,-1.793,-0.9580,-0.174,0.3,0.724,1.503,1.024,-11.44,-11.21,-11.17,-11.65,-12.09,-11.89,-11.39,-10.66,-10.3,-9.54,-8.78,-9.41,-9.17,-9.49,-9.36,-9.62,-9.65,-9.91,-10.13,-10.34,-10.55,-10.69,-10.87,-11,-11.04
"2011-03-01 10:00:00","$GPGGA,160057.99,4949.64606,N,09713.17068,W,1,9,0.93,234.7,M,-24.5,M,,*52",2011,3,1,60,10,0,0,-12.98,13.06,-21.16,99.56218,"R1.13",1.13,1.426,190,1.37,-15.97,-7.6260,-5.105,-4.097,-3.48,-2.591,-1.798,-0.9630,-0.174,0.256,0.6810,1.481,1.007,-11.79,-11.64,-11.49,-11.84,-12.13,-11.86,-11.26,-10.5,-10.03,-9.3,-8.6400,-9.29,-9.07,-9.4300,-9.34,-9.6400,-9.63,-9.91,-10.16,-10.41,-10.62,-10.79,-10.91,-11.02,-11.07
"2011-03-01 09:30:00","$GPGGA,153057.99,4949.64854,N,09713.16925,W,1,11,0.71,236.4,M,-24.5,M,,*6E",2011,3,1,60,9,30,0,-13.93,13.05,-21.06,99.48004,"R1.08",1.08,1.425,190,1.369,-16.1,-7.496,-5.049,-4.086,-3.48,-2.597,-1.815,-0.9690,-0.174,0.284,0.6860,1.503,1.007,-12.03,-12.02,-11.78,-11.98,-12.08,-11.65,-10.99,-10.16,-9.6400,-8.8500,-8.34,-9.15,-8.96,-9.2700,-9.17,-9.41,-9.46,-9.7300,-9.9700,-10.22,-10.48,-10.66,-10.83,-10.95,-11.02
"2011-03-01 09:00:00","$GPGGA,150057.99,4949.64764,N,09713.17017,W,1,8,1.15,232.4,M,-24.5,M,,*57",2011,3,1,60,9,0,0,-14.79,13.06,-20.91,99.43113,"R1.14",1.14,1.425,189,1.369,-15.84,-7.299,-5.001,-4.071,-3.481,-2.609,-1.816,-0.975,-0.175,0.266,0.647,1.486,1.018,-12.12,-12.23,-11.98,-12.02,-11.92,-11.4,-10.71,-9.86,-9.28,-8.57,-8.1400,-8.95,-8.76,-9.07,-9,-9.25,-9.29,-9.5600,-9.82,-10.08,-10.33,-10.55,-10.66,-10.74,-10.84
"2011-03-01 08:30:00","$GPGGA,143057.99,4949.64675,N,09713.16977,W,1,8,0.92,231.2,M,-24.5,M,,*51",2011,3,1,60,8,30,0,-15.52,13.06,-20.85,99.28327,"R1.13",1.13,1.425,189,1.37,-15.42,-7.101,-4.95,-4.064,-3.486,-2.608,-1.814,-0.9680,-0.167,0.285,0.671,1.493,1.014,-12,-12.27,-12.05,-11.93,-11.66,-11.11,-10.4,-9.5600,-8.95,-8.3100,-7.9590,-8.82,-8.59,-8.88,-8.82,-9.0600,-9.08,-9.34,-9.59,-9.84,-10.09,-10.29,-10.39,-10.45,-10.56
"2011-03-01 08:00:00","$GPGGA,140057.00,4949.64491,N,09713.16741,W,1,7,1.23,229.3,M,-24.5,M,,*5D",2011,3,1,60,8,0,0,-15.77,13.06,-20.85,99.13472,"R1.14",1.14,1.424,189,1.369,-14.6,-6.906,-4.931,-4.068,-3.489,-2.617,-1.829,-0.9780,-0.171,0.253,0.667,1.473,1.01,-11.59,-11.95,-11.78,-11.54,-11.18,-10.69,-9.9800,-9.1900,-8.62,-8.01,-7.74,-8.58,-8.37,-8.63,-8.57,-8.82,-8.82,-9.07,-9.3,-9.51,-9.75,-9.95,-10.04,-10.08,-10.21
"2011-03-01 07:30:00","$GPGGA,133057.00,4949.64692,N,09713.16917,W,1,9,1.09,230.5,M,-24.5,M,,*5D",2011,3,1,60,7.0000,30,0,-15.09,13.04,-20.38,99.00545,"R1.12",1.12,1.423,190,1.369,-13.28,-6.727,-4.905,-4.075,-3.497,-2.624,-1.836,-0.9850,-0.179,0.278,0.659,1.443,1.002,-10.98,-11.38,-11.21,-10.93,-10.57,-10.13,-9.58,-8.8500,-8.32,-7.774,-7.587,-8.41,-8.2,-8.4400,-8.34,-8.58,-8.58,-8.8,-8.9800,-9.1800,-9.38,-9.5600,-9.6900,-9.7700,-9.88
"2011-03-01 07:00:00","$GPGGA,130057.00,4949.64462,N,09713.16951,W,1,9,1.11,228.4,M,-24.5,M,,*50",2011,3,1,60,7.0000,0,0,-14.42,13.17,-19.5,98.93731,"R1.13",1.13,1.421,191,1.369,-11.57,-6.563,-4.894,-4.069,-3.513,-2.64,-1.842,-0.9850,-0.174,0.278,0.648,1.459,1.013,-10.37,-10.73,-10.64,-10.34,-10.05,-9.7300,-9.26,-8.59,-8.08,-7.587,-7.45,-8.29,-8.05,-8.2700,-8.2,-8.41,-8.41,-8.62,-8.78,-8.96,-9.1400,-9.3100,-9.4300,-9.51,-9.61
"2011-03-01 06:30:00","$GPGGA,123057.99,4949.64605,N,09713.17041,W,1,10,0.91,231.2,M,-24.5,M,,*67",2011,3,1,60,6,30,0,-13.98,13.18,-18.87,98.80574,"R1.14",1.14,1.419,190,1.369,-11.45,-6.518,-4.877,-4.075,-3.513,-2.646,-1.853,-0.9850,-0.174,0.289,0.6810,1.487,1.018,-9.92,-10.2,-10.08,-9.83,-9.5600,-9.26,-8.87,-8.25,-7.7690,-7.2750,-7.2240,-8.04,-7.826,-8.03,-7.911,-8.13,-8.13,-8.3500,-8.4800,-8.6400,-8.83,-9.01,-9.16,-9.25,-9.33
"2011-03-01 06:00:00","$GPGGA,120057.99,4949.64569,N,09713.16926,W,1,10,0.81,232.3,M,-24.5,M,,*67",2011,3,1,60,6,0,0,-13.59,13.19,-18.28,98.73998,"R1.13",1.13,1.417,189,1.369,-11.84,-6.518,-4.871,-4.075,-3.519,-2.651,-1.858,-0.9910,-0.174,0.284,0.637,1.421,0.9910,-9.53,-9.65,-9.5600,-9.36,-9.1800,-8.96,-8.66,-8.09,-7.6320,-7.195,-7.088,-7.877,-7.655,-7.871,-7.786,-7.9800,-7.997,-8.1900,-8.32,-8.46,-8.6400,-8.8100,-8.96,-9.03,-9.1000
"2011-03-01 05:30:00","$GPGGA,113057.99,4949.64560,N,09713.16995,W,1,9,0.87,235.0,M,-24.5,M,,*5C",2011,3,1,60,5,30,0,-13.15,13.2,-17.99,98.60842,"R1.13",1.13,1.399,172,1.352,-11.17,-6.428,-4.866,-4.075,-3.524,-2.668,-1.864,-0.9910,-0.174,0.289,0.659,1.459,1.002,-9.34,-9.32,-9.22,-9.09,-8.96,-8.75,-8.4800,-7.923,-7.45,-7.054,-6.952,-7.695,-7.4730,-7.689,-7.661,-7.8940,-7.866,-8.07,-8.2,-8.34,-8.5,-8.67,-8.78,-8.82,-8.87
"2011-03-01 05:00:00","$GPGGA,110057.99,4949.64563,N,09713.16825,W,1,9,0.84,235.2,M,-24.5,M,,*57",2011,3,1,60,5,0,0,-12.74,13.21,-17.21,98.47686,"R1.15",1.15,1.414,189,1.369,-10.95,-6.412,-4.855,-4.081,-3.536,-2.668,-1.875,-1.002,-0.164,0.288,0.664,1.475,1.001,-9.32,-9.32,-9.2,-9.07,-8.9300,-8.62,-8.33,-7.7290,-7.247,-6.8680,-6.806,-7.502,-7.281,-7.496,-7.457,-7.6500,-7.667,-7.8490,-7.963,-8.09,-8.2700,-8.4300,-8.58,-8.65,-8.6900
"2011-03-01 04:30:00","$GPGGA,103057.99,4949.64528,N,09713.17035,W,1,8,0.93,232.6,M,-24.5,M,,*56",2011,3,1,60,4,30,0,-12.41,13.21,-16.19,98.35354,"R1.14",1.14,1.411,189,1.369,-10.89,-6.383,-4.854,-4.091,-3.551,-2.695,-1.886,-1.007,-0.169,0.294,0.659,1.437,0.9690,-9.51,-9.46,-9.24,-9.04,-8.8,-8.42,-8.09,-7.4670,-6.9740,-6.551,-6.619,-7.2960,-7.127,-7.3360,-7.325,-7.5120,-7.523,-7.7050,-7.819,-7.956,-8.1400,-8.3100,-8.46,-8.51,-8.54
"2011-03-01 04:00:00","$GPGGA,100057.99,4949.64615,N,09713.16972,W,1,10,0.84,233.5,M,-24.5,M,,*6E",2011,3,1,60,4,0,0,-12.05,13.22,-15.76,98.29598,"R1.13",1.13,1.41,189,1.369,-11.56,-6.42,-4.858,-4.101,-3.566,-2.705,-1.895,-1.012,-0.173,0.284,0.649,1.427,0.9640,-9.57,-9.51,-9.2700,-9.0600,-8.83,-8.46,-8.11,-7.4470,-6.9270,-6.51,-6.375,-6.9610,-6.814,-7.0850,-7.102,-7.3230,-7.351,-7.5380,-7.646,-7.7770,-7.9940,-8.17,-8.33,-8.3900,-8.3900
"2011-03-01 03:30:00","$GPGGA,093057.00,4949.64638,N,09713.17140,W,1,11,0.76,230.0,M,-24.5,M,,*68",2011,3,1,60,3,30,0,-11.68,13.22,-15.13,98.22198,"R1.14",1.14,1.408,189,1.368,-11.25,-6.343,-4.843,-4.108,-3.579,-2.723,-1.913,-1.019,-0.175,0.277,0.674,1.463,1.006,-9.4400,-9.42,-9.16,-8.9800,-8.72,-8.29,-7.9150,-7.233,-6.714,-6.298,-6.119,-6.562,-6.489,-6.7820,-6.827,-7.0520,-7.12,-7.313,-7.4200,-7.562,-7.824,-8.0200,-8.22,-8.29,-8.2700
"2011-03-01 03:00:00","$GPGGA,090057.00,4949.64596,N,09713.17003,W,1,10,0.77,231.3,M,-24.5,M,,*68",2011,3,1,60,3,0,0,-11.58,13.22,-13.76,98.13154,"R1.13",1.13,1.405,173,1.369,-11.12,-6.292,-4.837,-4.119,-3.59,-2.733,-1.919,-1.024,-0.175,0.293,0.642,1.431,0.957,-9.46,-9.4800,-9.22,-8.99,-8.65,-8.17,-7.778,-7.0980,-6.573,-6.169,-5.934,-6.248,-6.225,-6.534,-6.562,-6.827,-6.906,-7.0980,-7.2050,-7.347,-7.6300,-7.8470,-8.0600,-8.16,-8.13
"2011-03-01 02:30:00","$GPGGA,083057.00,4949.64665,N,09713.17101,W,1,9,0.84,233.3,M,-24.5,M,,*50",2011,3,1,60,2,30,0,-11.53,13.2,-13.71,98.1137,"R1.13",1.13,1.406,169,1.37,-11.2,-6.264,-4.837,-4.124,-3.612,-2.755,-1.929,-1.035,-0.175,0.304,0.642,1.425,0.957,-9.4300,-9.45,-9.16,-8.9,-8.53,-8.01,-7.613,-6.9680,-6.472,-6.046,-5.817,-6.052,-6.052,-6.332,-6.354,-6.59,-6.708,-6.906,-6.985,-7.109,-7.392,-7.602,-7.87,-7.989,-7.9610
"2011-03-01 02:00:00","$GPGGA,080057.00,4949.64582,N,09713.17064,W,1,10,0.87,229.6,M,-24.5,M,,*6E",2011,3,1,60,2,0,0,-11.23,13.19,-13.52,98.04733,"R1.13",1.13,1.405,168,1.37,-11.03,-6.208,-4.832,-4.141,-3.623,-2.766,-1.935,-1.035,-0.175,0.283,0.653,1.431,0.974,-9.3,-9.36,-9.07,-8.8100,-8.4,-7.8750,-7.4940,-6.8940,-6.399,-5.979,-5.755,-5.973,-5.973,-6.231,-6.248,-6.466,-6.573,-6.759,-6.827,-6.945,-7.233,-7.426,-7.6760,-7.778,-7.761
"2011-03-01 01:30:00","$GPGGA,073057.00,4949.64702,N,09713.17028,W,1,10,0.90,230.8,M,-24.5,M,,*60",2011,3,1,60,1,30,0,-10.67,13.17,-12.05,98.04197,"R1.15",1.15,1.402,170,1.371,-10.49,-6.141,-4.821,-4.152,-3.639,-2.777,-1.951,-1.04,-0.175,0.272,0.653,1.409,0.9680,-9.07,-9.16,-8.9300,-8.67,-8.3,-7.778,-7.4150,-6.8490,-6.371,-5.956,-5.739,-5.923,-5.906,-6.141,-6.136,-6.337,-6.438,-6.601,-6.669,-6.7700,-7.041,-7.233,-7.4600,-7.574,-7.568"2011-03-01 01:00:00","$GPGGA,070057.00,4949.64788,N,09713.17233,W,1,9,0.97,233.7,M,-24.5,M,,*5A",2011,3,1,60,1,0,0,-10.51,13.31,-11.42,98.05066,"R1.16",1.16,1.4,169,1.37,-10.46,-6.102,-4.821,-4.168,-3.661,-2.799,-1.957,-1.04,-0.175,0.255,0.653,1.431,0.9630,-8.88,-8.99,-8.88,-8.62,-8.28,-7.784,-7.426,-6.86,-6.382,"2011-03-01 00:30:00","$GPGGA,063057.00,4949.64711,N,09713.17020,W,1,9,0.92,235.5,M,-24.5,M,,*59",2011,3,1,60,0,30,0,-9.9800,13.31,-11.09,97.96713,"R1.14",1.14,1.398,18"2011-03-01 00:00:00","$GPGGA,060057.99,4949.64577,N,09713.16928,W,1,10,0.85,233.6,M,-24.5,M,,*63",2011,3,1,60,0,0,0,-9.46,13.32,-10.56,97.93018,"R1.15",1.15,1.397,169,1.37,-9.76,-5.972,-4.837,-4.206,-3.716,-2.832,-1.99,-1.057,-0.181,0.254,0.635,1.419,0.961,-8.3100,-8.49,-8.45,-8.24,-8.03,-7.68,-7.3560,-6.859,-6.437,-6.062,-5.961,-6.207,-6.078,-6.162,-6.117,-6.213,-6.263,-6.387,-6.42,-6.476,-6.656,-6.791,-6.9270,-6.9660,-7.017
"2011-02-28 23:30:00","$GPGGA,053057.99,4949.64653,N,09713.16940,W,1,10,0.79,231.0,M,-24.5,M,,*6F",2011,2,28,59,23,30,0"2011-02-28 23:00:00","$GPGGA,050057.99,4949.64638,N,09713.16989,W,1,11,0.75,233.6,M,-24.5,M,,*6D",2011,2,28,59,23,0,0,-8.4,13.33,-9,97.98356,"R1.14",1.14,1.394,172,1.371,-8.82,-5.849,-4.848,-4.245,-3.754,-2.876,-2.012,-1.068,-0.181,0.254,0.635,1.419,0.9670,-7.6970,-7.833,-7.8560,-7.6970,-7.623,-7.396,-7.153,-6.758,-6.403,-6.073,-6.028,-6.28,-6.129,-6.162,-6.101,-6.168,-6.185,-6.274,-6.297,-6.33,-6.46,-6.555,-6.656,-6.701,-6.7690
"2011-02-28 22:30:00","$GPGGA,043057.99,4949.64551,N,09713.17054,W,1,9,0.89,231.1,M,-24.5,M,,*54",2011,2,28,59,22,30,0,-8.08,13.33,-8.5600,97.99999,"R1.07",1.07,1.392,168,1.37,-8.5,-5.81,-4.864,-4.267,-3.776,-2.892,-2.017,-1.068,-0.18"2011-02-28 22:00:00","$GPGGA,040057.99,4949.64560,N,09713.17053,W,1,10,0.96,232.7,M,-24.5,M,,*61",2011,2,28,59,22,0,0,-7.838,13.33,-7.735,97.96713,"R1.15",1.15,1.39,169,1.37,-8.38,-5.777,-4.87,-4.295,-3.804,-2.903,-2.033,-1.074,-0.181,0.238,0.608,1.419,0.9670,-7.436,-7.5380,-7.6060,-7.4470,-7.4410,-7.266,-7.034,-6.701,-6.375,-6.095,-6.09,-6.375,-6.20"2011-02-28 21:30:00","$GPGGA,033057.00,4949.64575,N,09713.17218,W,1,8,1.13,227.9,M,-24.5,M,,*53",2011,2,28,59,21,30,0,-7.548,13.32,-8.03,97.93426,"R1.15",1.15,1.39,170,1.369,-8.16,-5.743,-4.892,-4.311,-3.826,-2.92,-2.039,-1.079,-0.175,0.254,0.624,1.419,0.9780,-7.2880,-7.2830,-7.3560,-7.1980,-7.175,-7.0400,-6.8360,"2011-02-28 21:00:00","$GPGGA,030057.00,4949.64653,N,09713.17127,W,1,9,1.09,233.1,M,-24.5,M,,*5F",2011,2,28,59,21,0,0,-7.083,13.32,-7.6380,97.93426,"R1.15",1.15,1.39,170,1.37,-7.561,-5.71,-4.914,-"2011-02-28 20:30:00","$GPGGA,023057.99,4949.64650,N,09713.16841,W,1,9,0.97,237.0,M,-24.5,M,,*55",2011,2,28,59,20,30,0,-7.017,13.3,-7.5400,97.98356,"R1.15",1.15,1.389,169,1.37,-7.583,-5.715,-4.925,-4.372,-3.881,-2.964,-2.055,-1.084,-0.181,0.276,0.646,1.418,0.994,-7.107,-7.0850,-7.107,-7.017,-6.9940,-6.8420,-6.679,-6.431,-6.196,-6.006,-6.039,-6.325,-6.162,-6.162,-6.095,-6.134,-6.09,-6.146,-6.123,-6.134,-6.218,-6.269,-6.33,-6.387,-6.476
"2011-02-28 20:00:00","$GPGGA,020057.99,4949.64755,N,09713.16921,W,1,12,¢²bj²rŠ²ºbj²rŠ²ºbj²rŠbj²rŠšÊbj²r‚Âšbj²rŠ’Âbj²rŠŠŠbj²rŠŠŠbj²rŠÂ¢bj²r’’Âbj²r’ª²b"2011-02-28 19:30:00","$GPGGA,013057.99,4949.64806,N,09713.16903,W,1,10,0.82,234.2,M,-24.5,M,,*61",2011,2,28,59,19,30,0,-6.599,13.25,-7.456,98.01643,"R0.98",0.98,1.389,169,1.37,-7.544,-5.672,-4.966,-4.445,-3.938,-3.004,-2.085,-1.098,-0.183,0.246,0.654,1.372,0.943,-7.035,-6.9670,-6.978,-6.86,-6.798,-6.663,-6.483,-6.27,-6.102,-5.99,-6.029,-6.32,-6.141,-6.147,-6.079,-6.096,-6.04,-6.079,-6.046,-6.035,-6.107,-6.147,-6.169,-6.186,-6.27
"2011-02-28 19:00:00","$GPGGA,010057.99,4949.64833,N,09713.16936,W,1,8,1.37,237.4,M,-24.5,M,,*51",2011,2,28,59,19,0,0,-6.532,13.39,-7.3080,98.0493,"R1.15",1"2011-02-28 18:30:00","$GPGGA,003057.99,4949.64759,N,09713.17010,W,1,10,0.85,236.6,M,-24.5,M,,*6E",2011,2,28,59,18,30,0,-6.05,13.38,-7.1190,98.08215,"R1.10",1.1,1.389,168,1.371,-7.476,-5.566,-5.021,-4.528,-3.999,-3.042,-2.096,-1.098,-0.178,0.246,0.659,1.443,1.002,-6.798,-6.686,-6.686,-6.506,-6.349,-6.236,-6.102,-5.979,-5.929,-5.962,-5.99,-6.225,-6.057,-6.08,-5.996,-5.99,-5.934,-5.923,-5.856,-5.8,-5.856,-5.878,-5.878,-5.817,-5.87"2011-02-28 18:00:00","$GPGGA,000057.99,4949.64620,N,09713.17076,W,1,8,0.98,230.8,M,-24.5,M,,*5F",2011,2,28,59,18,0,0,-5.373,13.38,-7.0260,98.13967,"R1.15",1.15,1.388,169,1.37,-7.208,-5.48,-5.058,-4.581,-4.029,-3.051,-2.099,-1.101,-0.171"2011-02-28 17:30:00","$GPGGA,233057.00,4949.64567,N,09713.17107,W,1,9,0.98,234.7,M,-24.5,M,,*50",2011,2,28,59,17,30,0,-4.333,13.38,-6.748,98.20046,"R1.14",1.14,1.387,169,1.37,-6.605,-5.398,-5.115,-4.633,-4.064,-3.07,-2.118,-1.109,-0.17"2011-02-28 17:00:00","$GPGGA,230057.00,4949.64504,N,09713.16887,W,1,10,0.88,228.6,M,-24.5,M,,*63",2011,2,28,59,17,0,0,-3.021,13.37,-5.927,98.18953,"R1.11",1.11,1.386,169,1.371,-5.602,-5.312,-5.184,-4.686,-4.089,-3.084,-2.121,-1.102,-0.177,0.274,0.655,1.448,1.019,-5.312,-5.157,-5.268,-5.246,-5.334,-5.401,-5.557,-5.758,-5.986,-6.283,-6.305,-6.395,-6.277,-6.283,-6.165,-6.115,-6.054,-5.992,-5.825,-5.68,-5.646,-5.568,-5.602,-5.602,-5."2011-02-28 16:30:00","$GPGGA,223057.00,4949.64549,N,09713.16964,W,1,9,0.99,230.2,M,-24.5,-5.763,-5.668
"2011-02-28 16:00:00","$GPGGA,220057.00,4949.64604,N,09713.17052,W,1,10,0.95,233.5,M,-24.5,M,,*65",2011,2,28,59,16,0,0,-1.48,13.33,-5.248,98.26276,"R1.15",1.15,1.383,174,1.37,-4.604,-5.402,-5.346,-4.792,-4.151,-3.107,-2.122,-1.103,-0.178,0.235,0.594,1.404,0.98,-4.908,-4.858,-4.986,-5.158,-5.419,-5.58,-5.892,-6.228,-6.587,-6.9810,-7.015,-7.128,-6.924,-6.924,-6.755,-6.71,-6.609,-6.531,-6.306,-6.127,-6.038,-5.931,-5.982,-6.004,-5.881
"2011-02-28 15:30:00","$GPGGA,213057.00,4949.64582,N,09713.17095,W,1,10,0.87,235.5,M,-24.5,M,,*66",2011,2,28,59,15,30,0,-0.416,13.3,-4.965,98.36129,"R1.10",1.1,1.383,169,1.37,-4."2011-02-28 15:00:00","$GPGGA,210057.99,4949.64579,N,09713.17025,W,1,11,0.73,237.7,M,-24.5,M,,*60",2011,2,28,59,15,0,0,0.522,13.26,-4.489,98.34486,"R1.11",1.11,1.382,169,1.371,-3.687,-5.612,-5.545,-4.895,-4.194,-3.128,-2.127,-1.102,-0.178,0.246,0.626,1.436,0.9850,-4.757,-4.785,-5.084,-5.567,-6.03,-6.299,-6.686,-7.0580,-7.476,-7.839,-7.925,-8.12,-7.805,-7.817,-7.589,-7.5780,-7.419,-7.34,-7.0800,-6.8550,-6.708,-6.551,-6.675,-6.731"2011-02-28 14:30:00","$GPGGA,203057.99,4949.64725,N,09713.17341,W,1,8,1.64,241.1,M,-24.5,M,,*50",2011,2,28,59,14,30,0,1.267,13.21,-4.534,98.32845,"R1.13",1.13,1.38,181,1.368,-3.27,-5.79,-5.65,-4.945,-4.21,-3.127,-2.132,-1.102,-0.178,0.2"2011-02-28 14:00:00","$GPGGA,200057.00,4949.64644,N,09713.17052,W,1,11,0.82,233.9,M,-24.5,M,,*68",2011,2,28,59,14,0,0,0.501,13.14,-5.549,98.41054,"R0.95",0.9500,1.383,189,1.369,-3.974,-6.053,-5.757,-4.984,-4.227,-3.144,-2.127,-1.102,-0.177,0.247,0.638,1.421,0.9480,-5.506,-5"2011-02-28 13:30:00","$GPGGA,193057.00,4949.64733,N,09713.17064,W,1,9,0.99,237.5,M,-24.5,M,,*5E",2011,2,28,59,13,30,0,-0.138,13.06,-7.0590,98.47623,"R1.15",1.15,1.387,190,1.369,-4.652,-6.315,-5.851,-5.028,-4.232,-3.143,-2.126,-1.101,-0.171,0.258,0.638,1.443,0.975,-6.075,-6.142,-6.54,-7.0920,-7.561,-7.7890,-8.11,-8.33,-8.6800,-8.91,-9.04,-9.42,-9.0600,-9.1900,-8.96,-9.04,-8.8900,-8.8500,-8.5"2011-02-28 13:00:00","$GPGGA,190057.00,4949.64741,N,09713.16914,W,1,10,0.96,233.2,M,-24.5,M,,*63",2011,2,28,59,13,0,0
"2011-02-28 12:30:00","$GPGGA,183057.99,4949.64779,N,09713.17017,W,1,11,0.81,234.6,M,-24.5,M,,*65",2011,2,28,59,12,30,0,-1.01,13.1,-9.05,98.60823,"R1.06",1.06,1.393,189,1.37,-6.003,-6.8620,-6.037,-5.085,-4.255,-3.139,-2.127,-1.102,-0.172,0.274,0.638,1.438,0.975,-7.24,-7.3300,-7.608,-8.13,-8.5600,-8.71,-9,-9.08,-9.34,-9.4700,-9.6000,-10.15,-9.78,-10.01,-9.8100,-9.99,-9.9,-9.9300,-9.71,-9.54,-9.4400,-9.36,-9.74,-9.99,-9.65
"2011-02-28 12:00:00","$GPGGA,180057.99,4949.64648,N,09713.17123,W,1,9,1.16,233.3,M,-24.5,M,,*57",2011,2,28,59,12,0,0,-1.95,13.06,-9.22,98.70208,"R1.14",1.14,1.394,"2011-02-28 11:30:00","$GPGGA,173057.00,4949.64627,N,09713.16996,W,1,12,0.72,235.5,M,-24.5,M,,*6C",2011,2,28,59,11,30,0,-4.051,13.02,-9.5,98.7477,"R1.15",1.15,1.397,188,1.372,-7.839,-7.4470,-6.185,-5.12,-4.256,-3.145,-2.127,-1.102,-0.171,0.269,0.617,1.428,0.993,-8.9400,-8.9400,-9.1000,-9.4700,-9.75,-9.76,-9.9400,-9.84,-9.99,-9.99,-10.08,-10.71,-10.37,-10.76,-10.58,-10.88,-10.86,-10.99,-10.85,-10.76,-10.8,-10.78,-11.31,-11.67,-11.33
"2011-02-28 11:00:00","$GPGGA,170057.00,4949.64695,N,09713.17063,W,1,11,0.75,235.4,M,-24.5,M,,*61",2011,2,28,59,11,0,0,-6.335,12.98,-11.49,98.74038,"R1.13",1.13,1.399,189,1.369,-9.21,-7.7420,-6.246,-5.136,-4.261,-3.139,-2.132,-1.101"2011-02-28 10:30:00","$GPGGA,163057.00,4949.64707,N,09713.17011,W,1,9,1.09,234.9,M,-24.5,M,,*53",2011,2,28,59,10,30,0,-8.76,12.94,-12.25,98.79866,"R1.14",1.14,1.403,189,1.371,-10.49,-8,-6.287,-5.137,-4.262,-3.15,-2.132,-1.106,-0.174,0.255,0.631,1.425,0.9300,-10.87,-10.77,-10.65,-10.75,-10.78,-10.63,-10.7,-10.42,-"2011-02-28 10:00:00","$GPGGA,160057.99,4949.64853,N,09713.16946,W,1,9,0.89,238.0,M,-24.5,M,,*58",2011,2,28,59,10,0,0,-11.37,12.91,-13.4,98.77295,"R1.13",1.13,1.407,189,1.372,-11.72,-8.22,-6.316,-5.138,-4.257,-3.145,-2.137,-1.1,-0.174,0.245,0.643,1.427,0.9690,-11.74,-11.59,-11.33,-11.29,-11.19,-10.95,-10.96,-10.62,-10.6,-10.43,-10.44,-11.06,-10.75,-11.3"2011-02-28 09:30:00","$GPGGA,153057.99,4949.64696,N,09713.17029,W,1,9,0.87,230.7,M,-24.5,M,,*5F",2011,2,28,59,9,30,0,-14.35,12.87,-15.09,98.80634,"R1.14",1."2011-02-28 09:00:00","$GPGGA,150057.00,4949.64695,N,09713.16911,W,1,9,0.86,233.4,M,-24.5,M,,*5D",2011,2,28,59,9,0,0,-17.17,12.85,-16.58,98.80634,"R1.14",1.14,1.416,189,1.372,-13.41,-8.51,-6.336,-5.134,-4.258,-3.14,-2.142,-1.099,-0.167,0.231,0.623,1.391,0.961,-13.16,-12.92,-12.45,-12.11,-11.77,-11.39,-11.29,-10.86,-10.75,-10.53,-10.51,-11.08,-10.79,-11.47,-11.3,-11.93,-12.02,-12.4,-12.45,-12.57,-12.94,-13.11,-13.83,-14.46,-14.25
"2011-02-28 08:30:00","$GPGGA,143057.00,4949.64664,N,09713.17059,W,1,9,0.80,23,-12.42,-12.5,-12.63,-13.05,-13.24,-13.98,-14.61,-14.41
"2011-02-28 08:00:00","$GPGGA,140057.00,4949.64579,N,09713.16924,W,1,8,1.14,230.7,M,-24.5,M,,*50",2011,2,28,59,8,0,0,-21.18,12.78,-21.4,98.79012,"R1.13",1.13,1.427,189,1.37,-15.09,-8.6800,-6.331,-5.124,-4.253,-3.151,-2.147,-1.109,-0.149,0.259,0.619,1.469,0.9730,-14.11,-13.78,-13.06,-12.49,-11.96,-11.52,-11.36,-10.88,-10.72,-10.48,-10.43,-10.99,-10.67,-11.4,-11.24,-11.91,-12.01,-12.42,-12.5,-12.65,-13.1,-13.33,-14.06,-14.66,-14.5
"2011-02-28 07:30:00","$GPGGA,133057.99,4949.64742,N,09713.16997,W,1,9,1.11,227.1,M,-24.5,M,,*52",2011,2,28,59,7.0000,30,0,-21.68,12.74,-21--------------------------------------------
END TRANSMIT

